image_location,TimeStamp,Roll,Pitch,Yaw,Mast Roll,Lat,Lon,Alt,GPS Qual,DateTime
/media/phenobot3/Extreme SSD/under-canopy-images/Test4/enviratron/d2/1668024486117306095.jpeg,1668024486.2081692,-177.2711471852058,0.5120309043084854,-124.0013172593558,-4.625,42.01298417666667,-93.76710145666667,339.583,4,2022-11-09-14-08-06-208,
/media/phenobot3/Extreme SSD/under-canopy-images/Test4/enviratron/d2/1668024486482846896.jpeg,1668024486.56956,-177.27310733360832,0.5104562219360115,-123.99213947381774,-4.625,42.01298413166667,-93.76710146666667,339.582,4,2022-11-09-14-08-06-569,
/media/phenobot3/Extreme SSD/under-canopy-images/Test4/enviratron/d2/1668024486850404850.jpeg,1668024486.9364324,-177.27407542959477,0.5095776728994516,-123.98773457193448,-4.625,42.012984188333334,-93.76710143666666,339.584,4,2022-11-09-14-08-06-936,
/media/phenobot3/Extreme SSD/under-canopy-images/Test4/enviratron/d2/1668024487216918896.jpeg,1668024487.2973409,-177.27564731164176,0.5081000353530896,-123.98047768626789,-4.625,42.012984188333334,-93.767101455,339.584,4,2022-11-09-14-08-07-297,
/media/phenobot3/Extreme SSD/under-canopy-images/Test4/enviratron/d2/1668024487583353055.jpeg,1668024487.6698818,-177.2703755985928,0.5063111626368052,-123.98153989868823,-4.688,42.01298415666667,-93.76710146166667,339.58,4,2022-11-09-14-08-07-669,
/media/phenobot3/Extreme SSD/under-canopy-images/Test4/enviratron/d2/1668024487950903903.jpeg,1668024488.0335193,-177.27236025134738,0.5041627901197713,-123.96729007108834,-4.688,42.012984175,-93.76710146166667,339.585,4,2022-11-09-14-08-08-336,
/media/phenobot3/Extreme SSD/under-canopy-images/Test4/enviratron/d2/1668024488316326349.jpeg,1668024488.4140568,-177.27791102812722,0.5081631898438279,-123.96454339681569,-4.688,42.012984161666665,-93.76710147333333,339.581,4,2022-11-09-14-08-08-414,
/media/phenobot3/Extreme SSD/under-canopy-images/Test4/enviratron/d2/1668024488682131360.jpeg,1668024488.7686386,-177.12174503005073,0.10642495832401885,-124.35773562910464,-4.938,42.01298420166667,-93.767101555,339.58,4,2022-11-09-14-08-08-768,
/media/phenobot3/Extreme SSD/under-canopy-images/Test4/enviratron/d2/1668024489048954259.jpeg,1668024489.1417508,-178.85573795220446,0.01619639739511584,-125.39445700902401,-5.563,42.01298517,-93.76710220166666,339.587,4,2022-11-09-14-08-09-141,
/media/phenobot3/Extreme SSD/under-canopy-images/Test4/enviratron/d2/1668024489417573900.jpeg,1668024489.4978595,179.6229636975176,-0.29619089931261894,-126.58182869704949,-8.187,42.01298647,-93.76710414833333,339.579,4,2022-11-09-14-08-09-497,
/media/phenobot3/Extreme SSD/under-canopy-images/Test4/enviratron/d2/1668024489783772323.jpeg,1668024489.8805664,-179.34469490462854,-0.11950596556092873,-127.81270260493375,-4.938,42.01298806,-93.76710278166667,339.579,4,2022-11-09-14-08-09-880,
/media/phenobot3/Extreme SSD/under-canopy-images/Test4/enviratron/d2/1668024490150526602.jpeg,1668024490.2351198,-179.2199148897724,-0.6881376511167139,-129.04724363241917,-4.625,42.01298948666667,-93.76710237333333,339.581,4,2022-11-09-14-08-10-235,
/media/phenobot3/Extreme SSD/under-canopy-images/Test4/enviratron/d2/1668024490517054745.jpeg,1668024490.613146,178.17342867511542,-0.2986127705911284,-127.26375107752023,-9.687,42.012991975,-93.76710562,339.579,4,2022-11-09-14-08-10-613,
/media/phenobot3/Extreme SSD/under-canopy-images/Test4/enviratron/d2/1668024490883378202.jpeg,1668024490.9612677,-176.97460345711738,-0.15670432304884194,-121.1915695631191,-2.375,42.012994651666666,-93.76710153833334,339.577,4,2022-11-09-14-08-10-961,
/media/phenobot3/Extreme SSD/under-canopy-images/Test4/enviratron/d2/1668024491250786917.jpeg,1668024491.3382666,-174.45603544621864,0.6932057868608931,-124.66785775122983,-0.312,42.0129956,-93.76710054166666,339.572,4,2022-11-09-14-08-11-338,
/media/phenobot3/Extreme SSD/under-canopy-images/Test4/enviratron/d2/1668024491615018365.jpeg,1668024491.6942244,-176.47684985433008,0.25628238535849407,-127.08879655661181,-1.875,42.01299728666667,-93.76710197666667,339.579,4,2022-11-09-14-08-11-694,
/media/phenobot3/Extreme SSD/under-canopy-images/Test4/enviratron/d2/1668024491980069407.jpeg,1668024492.0659957,-179.01934147317948,0.09837625282220315,-127.40407260976775,-4.813,42.012999685,-93.767103935,339.584,4,2022-11-09-14-08-12-660,
/media/phenobot3/Extreme SSD/under-canopy-images/Test4/enviratron/d2/1668024492344138270.jpeg,1668024492.4392257,178.2272175086145,-0.7698937343475214,-127.00580154594081,-8.437,42.013000901666665,-93.767105765,339.574,4,2022-11-09-14-08-12-439,
/media/phenobot3/Extreme SSD/under-canopy-images/Test4/enviratron/d2/1668024492709431702.jpeg,1668024492.800479,-179.66263726930146,-0.7946625987503223,-125.3013540182271,-6.625,42.013002846666666,-93.76710510166667,339.573,4,2022-11-09-14-08-12-800,
/media/phenobot3/Extreme SSD/under-canopy-images/Test4/enviratron/d2/1668024493074970717.jpeg,1668024493.159182,-176.72007598957572,-1.2721803687234852,-127.40260086684626,-1.0,42.013004351666666,-93.76710217833333,339.571,4,2022-11-09-14-08-13-159,
/media/phenobot3/Extreme SSD/under-canopy-images/Test4/enviratron/d2/1668024493438739209.jpeg,1668024493.520207,-175.7790770844874,-1.0328611544580453,-129.04934962463398,-2.437,42.01300724,-93.767103425,339.583,4,2022-11-09-14-08-13-520,
/media/phenobot3/Extreme SSD/under-canopy-images/Test4/enviratron/d2/1668024493801971600.jpeg,1668024493.885278,-175.4184667181611,-0.408010378246504,-130.21026857313808,-0.563,42.01300966,-93.76710267666667,339.581,4,2022-11-09-14-08-13-885,
/media/phenobot3/Extreme SSD/under-canopy-images/Test4/enviratron/d2/1668024494164784379.jpeg,1668024494.2598376,-178.6894269284967,2.3633475203189866,-130.14064656233396,-2.937,42.01301298333333,-93.76710401833333,339.563,4,2022-11-09-14-08-14-259,
/media/phenobot3/Extreme SSD/under-canopy-images/Test4/enviratron/d2/1668024494525743116.jpeg,1668024494.6060474,179.1577930131538,5.183141279751326,-124.8973865192703,-8.437,42.013016136666664,-93.76710721833334,339.535,4,2022-11-09-14-08-14-606,
/media/phenobot3/Extreme SSD/under-canopy-images/Test4/enviratron/d2/1668024494888607211.jpeg,1668024494.9790378,-177.24933368102046,6.861175373334977,-125.00191606195062,-0.938,42.01301981666667,-93.76710288333334,339.522,4,2022-11-09-14-08-14-979,
/media/phenobot3/Extreme SSD/under-canopy-images/Test4/enviratron/d2/1668024495250027016.jpeg,1668024495.318868,-178.29764322201265,7.6074891883363405,-124.65010044648098,-3.0,42.01302157833333,-93.76710366833333,339.506,4,2022-11-09-14-08-15-318,
/media/phenobot3/Extreme SSD/under-canopy-images/Test4/enviratron/d2/1668024495611847524.jpeg,1668024495.6946957,178.35710758858252,5.398855760616168,-126.30475811435407,-7.313,42.013022635,-93.767106895,339.496,4,2022-11-09-14-08-15-694,
/media/phenobot3/Extreme SSD/under-canopy-images/Test4/enviratron/d2/1668024495978676714.jpeg,1668024496.0701458,178.92617468454907,2.866468388291214,-128.89240084497516,-7.688,42.01302305,-93.76710827,339.472,4,2022-11-09-14-08-16-702,
/media/phenobot3/Extreme SSD/under-canopy-images/Test4/enviratron/d2/1668024496347828208.jpeg,1668024496.432614,-178.09466182975956,2.374787727318114,-133.24600632090414,-1.375,42.013025086666666,-93.76710441166666,339.458,4,2022-11-09-14-08-16-432,
/media/phenobot3/Extreme SSD/under-canopy-images/Test4/enviratron/d2/1668024496717003443.jpeg,1668024496.7906723,-178.48744455636165,1.3179261644036764,-136.43706687735678,-2.312,42.01302695166667,-93.76710458833334,339.441,4,2022-11-09-14-08-16-790,
/media/phenobot3/Extreme SSD/under-canopy-images/Test4/enviratron/d2/1668024497084233526.jpeg,1668024497.1759763,-178.82848631134877,-0.01343343694546541,-135.3431056067172,-4.0,42.01302860333333,-93.76710554833333,339.447,4,2022-11-09-14-08-17-176,
/media/phenobot3/Extreme SSD/under-canopy-images/Test4/enviratron/d2/1668024497448869856.jpeg,1668024497.5297608,-177.00552898669642,1.2017907151016278,-131.7051097693542,-2.437,42.01303179666667,-93.767104765,339.444,4,2022-11-09-14-08-17-529,
/media/phenobot3/Extreme SSD/under-canopy-images/Test4/enviratron/d2/1668024497813588470.jpeg,1668024497.8944836,-176.05923167319668,0.06552954272039734,-129.93141617710495,0.375,42.013033758333336,-93.76710260333333,339.441,4,2022-11-09-14-08-17-894,
/media/phenobot3/Extreme SSD/under-canopy-images/Test4/enviratron/d2/1668024498179572992.jpeg,1668024498.2606807,-178.86640925629078,-0.5685767110740764,-128.48450054193498,-3.625,42.013035116666664,-93.767104075,339.443,4,2022-11-09-14-08-18-260,
/media/phenobot3/Extreme SSD/under-canopy-images/Test4/enviratron/d2/1668024498542044640.jpeg,1668024498.6359522,-179.196835618936,-0.4205699132755126,-125.8334081807409,-3.937,42.01303750666667,-93.767105105,339.438,4,2022-11-09-14-08-18-636,
/media/phenobot3/Extreme SSD/under-canopy-images/Test4/enviratron/d2/1668024498905782373.jpeg,1668024498.991689,-179.65757484960076,0.14053084796106768,-123.37571133019377,-3.25,42.013039975,-93.76710416,339.429,4,2022-11-09-14-08-18-991,
/media/phenobot3/Extreme SSD/under-canopy-images/Test4/enviratron/d2/1668024499273935518.jpeg,1668024499.3632898,178.07603719115613,-0.17165783177450372,-121.51168477373031,-6.938,42.013042105,-93.76710659166666,339.417,4,2022-11-09-14-08-19-363,
/media/phenobot3/Extreme SSD/under-canopy-images/Test4/enviratron/d2/1668024499640710126.jpeg,1668024499.718569,-178.94726675738818,0.6582067747800391,-125.79433688098962,-2.875,42.013043978333336,-93.767104905,339.433,4,2022-11-09-14-08-19-718,
/media/phenobot3/Extreme SSD/under-canopy-images/Test4/enviratron/d2/1668024500004054921.jpeg,1668024500.1066,-178.68820964383144,0.7305040294550723,-128.79265841654444,-2.5,42.01304608,-93.76710457,339.424,4,2022-11-09-14-08-20-106,
/media/phenobot3/Extreme SSD/under-canopy-images/Test4/enviratron/d2/1668024500369041958.jpeg,1668024500.4551415,178.8003272248323,-0.5215364812163481,-132.5247791184075,-4.813,42.013046943333336,-93.767105465,339.424,4,2022-11-09-14-08-20-455,
/media/phenobot3/Extreme SSD/under-canopy-images/Test4/enviratron/d2/1668024500734007510.jpeg,1668024500.832522,-179.37767295080565,0.8880408955585594,-132.7068950532039,-4.688,42.01305000333333,-93.76710647,339.422,4,2022-11-09-14-08-20-832,
/media/phenobot3/Extreme SSD/under-canopy-images/Test4/enviratron/d2/1668024501098859140.jpeg,1668024501.1838653,-178.67721401083728,0.47094141003217543,-127.93941394858852,-1.437,42.01305202333333,-93.76710401,339.418,4,2022-11-09-14-08-21-183,
/media/phenobot3/Extreme SSD/under-canopy-images/Test4/enviratron/d2/1668024501462760041.jpeg,1668024501.5599344,-179.12111543278365,0.5110092830965824,-126.2898385816852,-2.0,42.013054821666664,-93.76710434833333,339.42,4,2022-11-09-14-08-21-560,
/media/phenobot3/Extreme SSD/under-canopy-images/Test4/enviratron/d2/1668024501833575277.jpeg,1668024501.9169903,-178.92354897295724,-0.0020358879429539976,-123.46065841561236,-2.875,42.01305599,-93.76710474666666,339.428,4,2022-11-09-14-08-21-917,
/media/phenobot3/Extreme SSD/under-canopy-images/Test4/enviratron/d2/1668024502205863362.jpeg,1668024502.2994554,-177.68878510471666,0.15340859302008641,-120.6560954588484,-2.937,42.01305842833333,-93.76710484833333,339.421,4,2022-11-09-14-08-22-299,
/media/phenobot3/Extreme SSD/under-canopy-images/Test4/enviratron/d2/1668024502577514143.jpeg,1668024502.6633341,-178.44361402083206,1.173453804006205,-124.37425952189479,-1.625,42.013061105,-93.76710424833334,339.409,4,2022-11-09-14-08-22-663,
/media/phenobot3/Extreme SSD/under-canopy-images/Test4/enviratron/d2/1668024502947629807.jpeg,1668024503.0338967,-179.5202831432724,1.0012472098733032,-127.33887627542046,-3.562,42.013062643333335,-93.76710563833333,339.405,4,2022-11-09-14-08-23-339,
/media/phenobot3/Extreme SSD/under-canopy-images/Test4/enviratron/d2/1668024503316154268.jpeg,1668024503.3893895,-178.64313181203482,1.569560588311748,-127.51019461083219,-5.25,42.01306549,-93.76710699166667,339.406,4,2022-11-09-14-08-23-389,
/media/phenobot3/Extreme SSD/under-canopy-images/Test4/enviratron/d2/1668024503683674445.jpeg,1668024503.7862236,-177.81161024054336,1.4839456483205136,-128.22674089098325,-0.625,42.01306767166667,-93.76710409666667,339.401,4,2022-11-09-14-08-23-786,
/media/phenobot3/Extreme SSD/under-canopy-images/Test4/enviratron/d2/1668024504049758123.jpeg,1668024504.1370347,-176.92421263998395,1.1776474297863506,-129.3766811168594,-2.0,42.013069055,-93.767105365,339.397,4,2022-11-09-14-08-24-137,
/media/phenobot3/Extreme SSD/under-canopy-images/Test4/enviratron/d2/1668024504415193444.jpeg,1668024504.5037503,-177.11985396302836,0.6156167887810151,-129.37077102426198,0.312,42.013071053333334,-93.76710394166666,339.386,4,2022-11-09-14-08-24-503,
/media/phenobot3/Extreme SSD/under-canopy-images/Test4/enviratron/d2/1668024504782730104.jpeg,1668024504.864736,-177.97308193444226,-0.4131140811974432,-125.40930704531272,-1.687,42.01307343,-93.76710517166667,339.39,4,2022-11-09-14-08-24-864,
/media/phenobot3/Extreme SSD/under-canopy-images/Test4/enviratron/d2/1668024505151234523.jpeg,1668024505.2333775,-177.35461975772114,-0.26978020794139795,-122.49318637022681,-2.125,42.01307506333333,-93.76710548333334,339.39,4,2022-11-09-14-08-25-233,
/media/phenobot3/Extreme SSD/under-canopy-images/Test4/enviratron/d2/1668024505517311796.jpeg,1668024505.598729,-176.88731986146175,-0.2959277240774004,-126.07641549078404,0.0,42.01307743666667,-93.76710428833333,339.385,4,2022-11-09-14-08-25-598,
/media/phenobot3/Extreme SSD/under-canopy-images/Test4/enviratron/d2/1668024505886044350.jpeg,1668024505.9781632,-177.89089397437274,-0.07432476422062764,-127.03494520611021,-3.437,42.013079355,-93.767106635,339.393,4,2022-11-09-14-08-25-978,
/media/phenobot3/Extreme SSD/under-canopy-images/Test4/enviratron/d2/1668024506253278865.jpeg,1668024506.3398395,-177.41891166428232,-0.0853247534602945,-126.79122568022136,-2.187,42.013081,-93.76710607166666,339.396,4,2022-11-09-14-08-26-339,
/media/phenobot3/Extreme SSD/under-canopy-images/Test4/enviratron/d2/1668024506619390645.jpeg,1668024506.7216985,-176.78002798494956,-0.28723362262909913,-128.04095967256166,-2.062,42.01308316666667,-93.76710599,339.396,4,2022-11-09-14-08-26-721,
/media/phenobot3/Extreme SSD/under-canopy-images/Test4/enviratron/d2/1668024506984879493.jpeg,1668024507.07411,-176.21667468250126,-0.18394417718923906,-128.50216736872645,-0.125,42.01308572,-93.76710518166666,339.39,4,2022-11-09-14-08-27-741,
/media/phenobot3/Extreme SSD/under-canopy-images/Test4/enviratron/d2/1668024507352906840.jpeg,1668024507.4499369,-176.87223944166732,-0.2285507895025935,-129.60904222432154,-1.5,42.01308798,-93.76710589166666,339.395,4,2022-11-09-14-08-27-450,
/media/phenobot3/Extreme SSD/under-canopy-images/Test4/enviratron/d2/1668024507722712764.jpeg,1668024507.8049436,-178.3281350118261,0.17244003160126767,-130.05531185080446,-0.938,42.013090465,-93.76710578333334,339.385,4,2022-11-09-14-08-27-805,
/media/phenobot3/Extreme SSD/under-canopy-images/Test4/enviratron/d2/1668024508090387141.jpeg,1668024508.1766086,-177.76806412113874,-0.006116706878461472,-130.80377540667473,-0.938,42.013092918333335,-93.767106015,339.39,4,2022-11-09-14-08-28-176,
/media/phenobot3/Extreme SSD/under-canopy-images/Test4/enviratron/d2/1668024508458315648.jpeg,1668024508.5442529,-177.36871231749902,0.5261653978958899,-129.25202590852703,0.125,42.013094785,-93.76710524166667,339.381,4,2022-11-09-14-08-28-544,
/media/phenobot3/Extreme SSD/under-canopy-images/Test4/enviratron/d2/1668024508826043058.jpeg,1668024508.9131193,-178.46506149136823,-0.19030429087775544,-128.59881616321863,-1.875,42.013097198333334,-93.76710678,339.386,4,2022-11-09-14-08-28-913,
/media/phenobot3/Extreme SSD/under-canopy-images/Test4/enviratron/d2/1668024509194332672.jpeg,1668024509.2816794,-178.29270453729933,0.2912508131035931,-127.55892026272947,-1.0,42.013099595,-93.76710629333333,339.385,4,2022-11-09-14-08-29-281,
/media/phenobot3/Extreme SSD/under-canopy-images/Test4/enviratron/d2/1668024509562370079.jpeg,1668024509.6502233,-178.39052928334348,0.6370061779254022,-123.13743488391323,-3.5,42.01310188833333,-93.76710776,339.384,4,2022-11-09-14-08-29-650,
/media/phenobot3/Extreme SSD/under-canopy-images/Test4/enviratron/d2/1668024509931273873.jpeg,1668024510.0126717,-177.26328825390289,-0.1530379246318805,-119.35154950944137,-1.687,42.01310427666667,-93.76710678666667,339.381,4,2022-11-09-14-08-30-127,
/media/phenobot3/Extreme SSD/under-canopy-images/Test4/enviratron/d2/1668024510299256790.jpeg,1668024510.3813267,-176.39533334419733,-0.47335223982139424,-120.24211326957284,1.375,42.01310702833333,-93.76710521666666,339.38,4,2022-11-09-14-08-30-381,
/media/phenobot3/Extreme SSD/under-canopy-images/Test4/enviratron/d2/1668024510669293257.jpeg,1668024510.753845,-177.44929827967704,-0.06521913780614784,-126.52718969531027,-1.437,42.013108976666665,-93.767107,339.383,4,2022-11-09-14-08-30-753,
/media/phenobot3/Extreme SSD/under-canopy-images/Test4/enviratron/d2/1668024511035528341.jpeg,1668024511.1226418,-176.8340422310781,-0.09877760413076606,-129.87474673756378,0.0,42.01311122,-93.76710710833333,339.382,4,2022-11-09-14-08-31-122,
/media/phenobot3/Extreme SSD/under-canopy-images/Test4/enviratron/d2/1668024511404178794.jpeg,1668024511.4907668,-175.80732892923007,0.03323366058050459,-129.68634569617222,1.25,42.013113878333336,-93.76710635833334,339.386,4,2022-11-09-14-08-31-490,
/media/phenobot3/Extreme SSD/under-canopy-images/Test4/enviratron/d2/1668024511773559497.jpeg,1668024511.8552673,-177.1109916887644,0.27573277042988104,-129.974393288672,-1.187,42.01311657,-93.76710809666666,339.381,4,2022-11-09-14-08-31-855,
/media/phenobot3/Extreme SSD/under-canopy-images/Test4/enviratron/d2/1668024512141024741.jpeg,1668024512.2213917,-175.83314431469375,-0.06574103308701362,-127.05458496009396,0.063,42.01311827333333,-93.767107685,339.378,4,2022-11-09-14-08-32-221,
/media/phenobot3/Extreme SSD/under-canopy-images/Test4/enviratron/d2/1668024512508849684.jpeg,1668024512.5942082,-175.16494590600695,0.06353043499213111,-126.27726605849425,2.812,42.01312108,-93.76710582166666,339.368,4,2022-11-09-14-08-32-594,
/media/phenobot3/Extreme SSD/under-canopy-images/Test4/enviratron/d2/1668024512877744408.jpeg,1668024512.9650695,-177.3374553805067,0.029057586826570326,-125.60666442646705,0.5,42.013122706666664,-93.76710652833333,339.379,4,2022-11-09-14-08-32-965,
/media/phenobot3/Extreme SSD/under-canopy-images/Test4/enviratron/d2/1668024513247217205.jpeg,1668024513.3427753,-176.79961939245476,-0.16225964646967087,-124.37730257750353,-1.375,42.013125138333336,-93.76710880333333,339.377,4,2022-11-09-14-08-33-342,
/media/phenobot3/Extreme SSD/under-canopy-images/Test4/enviratron/d2/1668024513614550892.jpeg,1668024513.6961763,-174.76097666819595,-0.5401151388593722,-124.22709675440485,2.625,42.013128355,-93.76710643833333,339.378,4,2022-11-09-14-08-33-696,
/media/phenobot3/Extreme SSD/under-canopy-images/Test4/enviratron/d2/1668024513982856536.jpeg,1668024514.0702558,-175.95937481250212,-0.2356104367825462,-125.56289209219798,1.437,42.01312992166667,-93.76710622666667,339.369,4,2022-11-09-14-08-34-703,
/media/phenobot3/Extreme SSD/under-canopy-images/Test4/enviratron/d2/1668024514350003763.jpeg,1668024514.423288,-176.14066258131334,0.13890121502625605,-126.53007934708356,-0.5,42.01313265833333,-93.76710875,339.379,4,2022-11-09-14-08-34-423,
/media/phenobot3/Extreme SSD/under-canopy-images/Test4/enviratron/d2/1668024514717500665.jpeg,1668024514.8011212,-176.0043204018061,0.5242143441481433,-127.03444064842165,1.687,42.013135373333334,-93.76710775333333,339.381,4,2022-11-09-14-08-34-801,
/media/phenobot3/Extreme SSD/under-canopy-images/Test4/enviratron/d2/1668024515085853200.jpeg,1668024515.163383,-176.98543042818875,0.5475594705340517,-127.8624475739535,1.062,42.013137703333335,-93.76710812666667,339.384,4,2022-11-09-14-08-35-163,
/media/phenobot3/Extreme SSD/under-canopy-images/Test4/enviratron/d2/1668024515453505794.jpeg,1668024515.5401769,-178.10667247364123,0.24266712721450387,-126.82814694116884,-1.562,42.013139906666666,-93.76710977,339.383,4,2022-11-09-14-08-35-540,
/media/phenobot3/Extreme SSD/under-canopy-images/Test4/enviratron/d2/1668024515820364086.jpeg,1668024515.8975744,-176.87470312171402,-0.31495889250655085,-125.10573906415515,0.375,42.013141866666665,-93.76710889833333,339.379,4,2022-11-09-14-08-35-897,
/media/phenobot3/Extreme SSD/under-canopy-images/Test4/enviratron/d2/1668024516187773341.jpeg,1668024516.2753108,-178.47659453875988,0.02443276904558929,-125.00910533368607,-1.937,42.01314498666667,-93.76711034833333,339.374,4,2022-11-09-14-08-36-275,
/media/phenobot3/Extreme SSD/under-canopy-images/Test4/enviratron/d2/1668024516555139740.jpeg,1668024516.6297522,-177.38495283382838,0.3290426588478524,-125.0586068333109,-1.687,42.01314670833333,-93.76711056666667,339.378,4,2022-11-09-14-08-36-629,
/media/phenobot3/Extreme SSD/under-canopy-images/Test4/enviratron/d2/1668024516926836451.jpeg,1668024517.0106153,-176.1516054292894,-0.2030556802612773,-125.48190326813231,1.0,42.013149605,-93.76710949666666,339.377,4,2022-11-09-14-08-37-106,
/media/phenobot3/Extreme SSD/under-canopy-images/Test4/enviratron/d2/1668024517293818600.jpeg,1668024517.3754327,-177.8182696014883,0.15789390117848023,-126.69265450838718,-1.312,42.01315241166667,-93.76711090666667,339.374,4,2022-11-09-14-08-37-375,
/media/phenobot3/Extreme SSD/under-canopy-images/Test4/enviratron/d2/1668024517660813890.jpeg,1668024517.7413347,-179.2317366544626,0.6427538375307087,-130.29224234327606,-3.5,42.01315444833333,-93.767112755,339.366,4,2022-11-09-14-08-37-741,
/media/phenobot3/Extreme SSD/under-canopy-images/Test4/enviratron/d2/1668024518026563143.jpeg,1668024518.1170092,-177.54723045361504,0.6049162966248683,-131.81039758190155,1.625,42.013156886666664,-93.76710949166667,339.37,4,2022-11-09-14-08-38-117,
/media/phenobot3/Extreme SSD/under-canopy-images/Test4/enviratron/d2/1668024518395068142.jpeg,1668024518.4657393,-178.83511457351585,-0.7414548762978284,-132.12040628634483,-0.375,42.013159228333336,-93.76711078166667,339.367,4,2022-11-09-14-08-38-465,
/media/phenobot3/Extreme SSD/under-canopy-images/Test4/enviratron/d2/1668024518760362906.jpeg,1668024518.8417337,-179.08345737687,-0.735557135345037,-131.05288842468516,-1.625,42.013162046666665,-93.76711173333334,339.372,4,2022-11-09-14-08-38-841,
/media/phenobot3/Extreme SSD/under-canopy-images/Test4/enviratron/d2/1668024519125682265.jpeg,1668024519.2121446,-178.29837638390472,-1.06469615757563,-130.22546905457327,0.375,42.013164825,-93.76711053166666,339.377,4,2022-11-09-14-08-39-212,
/media/phenobot3/Extreme SSD/under-canopy-images/Test4/enviratron/d2/1668024519492237070.jpeg,1668024519.5776632,-179.34115147342172,-0.37696201630020026,-128.70434620147566,-2.062,42.013168113333336,-93.76711168833333,339.369,4,2022-11-09-14-08-39-577,
/media/phenobot3/Extreme SSD/under-canopy-images/Test4/enviratron/d2/1668024519860595770.jpeg,1668024519.9511774,-178.42306207875168,-0.49809568837656554,-127.86395924320766,-0.813,42.01317077833333,-93.76711099666667,339.375,4,2022-11-09-14-08-39-951,
/media/phenobot3/Extreme SSD/under-canopy-images/Test4/enviratron/d2/1668024520225738488.jpeg,1668024520.3072286,-179.7514771152873,0.318922069839777,-126.97795568909812,-0.75,42.013173501666664,-93.76711080166666,339.381,4,2022-11-09-14-08-40-307,
/media/phenobot3/Extreme SSD/under-canopy-images/Test4/enviratron/d2/1668024520591008497.jpeg,1668024520.6849709,-179.40821952719804,-0.9099000257577312,-127.51614787437678,-0.438,42.01317640166667,-93.76711081,339.38,4,2022-11-09-14-08-40-685,
/media/phenobot3/Extreme SSD/under-canopy-images/Test4/enviratron/d2/1668024520956690437.jpeg,1668024521.0380309,179.7692188190092,-0.060341423498778926,-127.75463125557296,-4.688,42.01317811,-93.767113045,339.366,4,2022-11-09-14-08-41-381,
/media/phenobot3/Extreme SSD/under-canopy-images/Test4/enviratron/d2/1668024521321276038.jpeg,1668024521.3987925,-178.8759770521011,-0.49038072444153447,-129.08466861119194,0.875,42.013181125,-93.767110525,339.377,4,2022-11-09-14-08-41-398,
/media/phenobot3/Extreme SSD/under-canopy-images/Test4/enviratron/d2/1668024521685535348.jpeg,1668024521.7696831,-179.48048232056948,-0.2265844937349994,-129.38707189649236,0.125,42.01318469,-93.76711068166667,339.389,4,2022-11-09-14-08-41-769,
/media/phenobot3/Extreme SSD/under-canopy-images/Test4/enviratron/d2/1668024522048718971.jpeg,1668024522.126397,-179.37605365008864,0.11655937962099704,-130.82629644754314,-1.812,42.01318706333333,-93.767112025,339.385,4,2022-11-09-14-08-42-126,
/media/phenobot3/Extreme SSD/under-canopy-images/Test4/enviratron/d2/1668024522414036220.jpeg,1668024522.492145,178.4357956302566,0.10881739726956532,-129.0916821307472,-2.437,42.01318976666666,-93.76711237666666,339.378,4,2022-11-09-14-08-42-492,
/media/phenobot3/Extreme SSD/under-canopy-images/Test4/enviratron/d2/1668024522778238740.jpeg,1668024522.85468,178.88707536014098,0.16057096809889687,-126.51081440037451,-2.75,42.01319262,-93.76711280666666,339.378,4,2022-11-09-14-08-42-854,
/media/phenobot3/Extreme SSD/under-canopy-images/Test4/enviratron/d2/1668024523147104316.jpeg,1668024523.2248359,179.3751367774776,-0.27242458989531804,-123.87991774565972,-2.437,42.013195536666665,-93.767112415,339.375,4,2022-11-09-14-08-43-224,
/media/phenobot3/Extreme SSD/under-canopy-images/Test4/enviratron/d2/1668024523512504907.jpeg,1668024523.5886376,178.85567689151733,-0.41835648245734003,-125.65722605768235,-1.937,42.01319845,-93.76711235,339.377,4,2022-11-09-14-08-43-588,
/media/phenobot3/Extreme SSD/under-canopy-images/Test4/enviratron/d2/1668024523876732747.jpeg,1668024523.9523318,177.7786281649973,-1.1827169494248795,-126.9252683130284,-3.687,42.013200815,-93.76711341833334,339.375,4,2022-11-09-14-08-43-952,
/media/phenobot3/Extreme SSD/under-canopy-images/Test4/enviratron/d2/1668024524243176255.jpeg,1668024524.3302846,-179.89173533222385,-0.3129291456903733,-126.97406827517224,-1.375,42.01320410333334,-93.76711270166666,339.379,4,2022-11-09-14-08-44-330,
/media/phenobot3/Extreme SSD/under-canopy-images/Test4/enviratron/d2/1668024524610228985.jpeg,1668024524.6912487,179.30169070801261,-0.1286252688318766,-127.34503127159358,-0.875,42.01320708833333,-93.767111985,339.39,4,2022-11-09-14-08-44-691,
/media/phenobot3/Extreme SSD/under-canopy-images/Test4/enviratron/d2/1668024524976889197.jpeg,1668024525.0583107,178.16773692467657,0.3756739088198813,-126.8714703181684,-5.063,42.01320952166667,-93.76711470666666,339.373,4,2022-11-09-14-08-45-583,
/media/phenobot3/Extreme SSD/under-canopy-images/Test4/enviratron/d2/1668024525343138728.jpeg,1668024525.419449,178.07895146260338,0.2607752191029069,-126.95701906339646,-3.375,42.01321299833333,-93.76711398166667,339.378,4,2022-11-09-14-08-45-419,
/media/phenobot3/Extreme SSD/under-canopy-images/Test4/enviratron/d2/1668024525709677234.jpeg,1668024525.7902012,177.8453744717649,-0.01456212108703854,-128.19857911964112,-2.687,42.013216066666665,-93.76711364333333,339.388,4,2022-11-09-14-08-45-790,
/media/phenobot3/Extreme SSD/under-canopy-images/Test4/enviratron/d2/1668024526076464317.jpeg,1668024526.1628673,177.0673042838218,-1.1405232921078428,-128.95088572054382,-4.125,42.013218181666666,-93.767114585,339.376,4,2022-11-09-14-08-46-162,
/media/phenobot3/Extreme SSD/under-canopy-images/Test4/enviratron/d2/1668024526442409491.jpeg,1668024526.52625,179.38845092896307,-0.46693821480255643,-129.5128238732923,-2.875,42.01322174,-93.76711431833333,339.379,4,2022-11-09-14-08-46-526,
/media/phenobot3/Extreme SSD/under-canopy-images/Test4/enviratron/d2/1668024526807838233.jpeg,1668024526.8864052,178.80960133326099,-0.6033216270531275,-130.1380335067359,-1.437,42.01322498166667,-93.76711312166667,339.387,4,2022-11-09-14-08-46-886,
/media/phenobot3/Extreme SSD/under-canopy-images/Test4/enviratron/d2/1668024527175166859.jpeg,1668024527.275653,178.47389238251577,-0.19797833337713588,-130.45972376268423,-3.375,42.013227085,-93.76711448666667,339.379,4,2022-11-09-14-08-47-275,
/media/phenobot3/Extreme SSD/under-canopy-images/Test4/enviratron/d2/1668024527541874742.jpeg,1668024527.6219275,177.35149956027078,-0.3476392200550748,-127.07418037189385,-3.062,42.01322988333333,-93.76711407,339.381,4,2022-11-09-14-08-47-622,
/media/phenobot3/Extreme SSD/under-canopy-images/Test4/enviratron/d2/1668024527907751953.jpeg,1668024527.9899127,175.56954293101003,-0.8255048036930137,-127.00937577812012,-4.375,42.013232656666666,-93.76711466333333,339.388,4,2022-11-09-14-08-47-990,
/media/phenobot3/Extreme SSD/under-canopy-images/Test4/enviratron/d2/1668024528274386734.jpeg,1668024528.348908,176.69951418852557,0.12959396422384614,-126.70888796858054,-5.625,42.013235843333334,-93.76711605333334,339.373,4,2022-11-09-14-08-48-348,
/media/phenobot3/Extreme SSD/under-canopy-images/Test4/enviratron/d2/1668024528640383072.jpeg,1668024528.7212863,178.22749450306424,-0.30874512619329697,-127.47026289097802,-2.625,42.01323919,-93.76711413666666,339.388,4,2022-11-09-14-08-48-721,
/media/phenobot3/Extreme SSD/under-canopy-images/Test4/enviratron/d2/1668024529005247649.jpeg,1668024529.086097,173.97375331169525,-0.3535657408754434,-127.23463347984033,-8.625,42.013241898333334,-93.76711745,339.37,4,2022-11-09-14-08-49-861,
/media/phenobot3/Extreme SSD/under-canopy-images/Test4/enviratron/d2/1668024529371783033.jpeg,1668024529.447243,176.52759661867793,-0.2546668628593612,-128.03094581694035,-5.313,42.013243323333334,-93.76711665,339.377,4,2022-11-09-14-08-49-447,
/media/phenobot3/Extreme SSD/under-canopy-images/Test4/enviratron/d2/1668024529737880683.jpeg,1668024529.809848,177.6329452802023,-0.1119333598689633,-128.12321287001697,-1.312,42.01324649666667,-93.76711345666666,339.4,4,2022-11-09-14-08-49-809,
/media/phenobot3/Extreme SSD/under-canopy-images/Test4/enviratron/d2/1668024530106170137.jpeg,1668024530.1863966,177.18106214799323,-0.13292911772672775,-128.43149708375398,-4.063,42.01325013666667,-93.76711552666667,339.393,4,2022-11-09-14-08-50-186,
/media/phenobot3/Extreme SSD/under-canopy-images/Test4/enviratron/d2/1668024530473175170.jpeg,1668024530.5531886,176.32671585319252,-0.49065655876197684,-127.27158641138902,-5.0,42.013252,-93.76711610166667,339.389,4,2022-11-09-14-08-50-553,
/media/phenobot3/Extreme SSD/under-canopy-images/Test4/enviratron/d2/1668024530837641347.jpeg,1668024530.910087,177.5359837995923,-0.883630362574452,-125.6979316695305,-3.25,42.01325485,-93.76711497833334,339.4,4,2022-11-09-14-08-50-910,
/media/phenobot3/Extreme SSD/under-canopy-images/Test4/enviratron/d2/1668024531197394288.jpeg,1668024531.26821,175.51582416746703,-1.62565951281529,-124.16814988218488,-3.562,42.013257458333335,-93.767115205,339.403,4,2022-11-09-14-08-51-268,
/media/phenobot3/Extreme SSD/under-canopy-images/Test4/enviratron/d2/1668024531563515136.jpeg,1668024531.6450472,175.96112073025608,-1.0857328000272295,-124.33489273225395,-2.687,42.013260278333334,-93.76711474666666,339.405,4,2022-11-09-14-08-51-645,
/media/phenobot3/Extreme SSD/under-canopy-images/Test4/enviratron/d2/1668024531933392593.jpeg,1668024532.0174434,175.72423122438622,-1.4671568072558892,-125.36063889028165,-3.125,42.013263298333335,-93.767115065,339.411,4,2022-11-09-14-08-52-175,
/media/phenobot3/Extreme SSD/under-canopy-images/Test4/enviratron/d2/1668024532299271769.jpeg,1668024532.381119,175.89105258310167,-0.30389274004504696,-125.16594651361663,-6.25,42.013266693333335,-93.76711730166667,339.401,4,2022-11-09-14-08-52-381,
/media/phenobot3/Extreme SSD/under-canopy-images/Test4/enviratron/d2/1668024532665637198.jpeg,1668024532.7530296,175.63848509536683,-0.2841725817439844,-124.82667971187216,-4.313,42.013268796666665,-93.76711659666667,339.414,4,2022-11-09-14-08-52-753,
/media/phenobot3/Extreme SSD/under-canopy-images/Test4/enviratron/d2/1668024533031727379.jpeg,1668024533.1099386,177.40833278139917,-0.45222284397360946,-125.67701650792186,-3.062,42.01327203,-93.76711598333333,339.416,4,2022-11-09-14-08-53-110,
/media/phenobot3/Extreme SSD/under-canopy-images/Test4/enviratron/d2/1668024533396959797.jpeg,1668024533.477509,177.37693585389397,-0.7476118796288763,-128.398343282327,-2.062,42.01327478166667,-93.76711549,339.426,4,2022-11-09-14-08-53-477,
/media/phenobot3/Extreme SSD/under-canopy-images/Test4/enviratron/d2/1668024533768586637.jpeg,1668024533.8510249,176.71992200422005,-0.30903493169770974,-127.16645773482307,-4.563,42.013277298333335,-93.767117035,339.411,4,2022-11-09-14-08-53-851,
/media/phenobot3/Extreme SSD/under-canopy-images/Test4/enviratron/d2/1668024534134554215.jpeg,1668024534.2095807,175.82365796896352,-0.9922026921319885,-126.97838833939123,-4.188,42.01328015333333,-93.76711689666666,339.417,4,2022-11-09-14-08-54-209,
/media/phenobot3/Extreme SSD/under-canopy-images/Test4/enviratron/d2/1668024534502640456.jpeg,1668024534.5916066,175.16630865168412,-0.652756167124274,-125.75036361619624,-3.937,42.01328331,-93.767116685,339.423,4,2022-11-09-14-08-54-591,
/media/phenobot3/Extreme SSD/under-canopy-images/Test4/enviratron/d2/1668024534868696688.jpeg,1668024534.9450402,175.2400100451023,-1.4212314107686095,-125.63574408127437,-4.5,42.013285446666664,-93.76711732666666,339.421,4,2022-11-09-14-08-54-945,
/media/phenobot3/Extreme SSD/under-canopy-images/Test4/enviratron/d2/1668024535236687177.jpeg,1668024535.3132756,177.65653003829982,0.05340695388461244,-123.40014325630305,-3.25,42.013288816666666,-93.76711728,339.424,4,2022-11-09-14-08-55-313,
/media/phenobot3/Extreme SSD/under-canopy-images/Test4/enviratron/d2/1668024535604513868.jpeg,1668024535.6782756,178.1417901834191,-0.7390816339806723,-120.22934203361633,0.063,42.013291295,-93.76711491,339.442,4,2022-11-09-14-08-55-678,
/media/phenobot3/Extreme SSD/under-canopy-images/Test4/enviratron/d2/1668024535971215114.jpeg,1668024536.0532393,177.76507873464934,-0.6768210810456999,-121.86888952123878,-2.812,42.01329321833333,-93.76711661333333,339.438,4,2022-11-09-14-08-56-533,
/media/phenobot3/Extreme SSD/under-canopy-images/Test4/enviratron/d2/1668024536338795016.jpeg,1668024536.417777,177.26679966492523,-1.1114212060074247,-122.9072521508308,-4.313,42.01329602,-93.76711776833334,339.438,4,2022-11-09-14-08-56-417,
/media/phenobot3/Extreme SSD/under-canopy-images/Test4/enviratron/d2/1668024536703936328.jpeg,1668024536.7756076,179.11672740265348,-1.0163576393050584,-124.17116135039585,-0.438,42.013299491666665,-93.76711619333334,339.454,4,2022-11-09-14-08-56-775,
/media/phenobot3/Extreme SSD/under-canopy-images/Test4/enviratron/d2/1668024537069998575.jpeg,1668024537.1487205,177.4021674740044,-1.4311435000454986,-133.4167239875588,-2.125,42.013301955,-93.76711659333333,339.463,4,2022-11-09-14-08-57-148,
/media/phenobot3/Extreme SSD/under-canopy-images/Test4/enviratron/d2/1668024537435159943.jpeg,1668024537.5141182,177.96453894667837,-0.5539996488531331,-130.5537808131369,-1.875,42.013305175,-93.76711811166666,339.456,4,2022-11-09-14-08-57-514,
/media/phenobot3/Extreme SSD/under-canopy-images/Test4/enviratron/d2/1668024537801691288.jpeg,1668024537.8816085,179.2720232113599,-0.5023408360740741,-129.56311076095972,1.437,42.01330765,-93.7671157,339.464,4,2022-11-09-14-08-57-881,
/media/phenobot3/Extreme SSD/under-canopy-images/Test4/enviratron/d2/1668024538169225689.jpeg,1668024538.245074,176.80378898578368,-0.3991129435576745,-129.74209889174992,-2.625,42.0133103,-93.76711726333333,339.462,4,2022-11-09-14-08-58-245,
/media/phenobot3/Extreme SSD/under-canopy-images/Test4/enviratron/d2/1668024538537271180.jpeg,1668024538.6173868,175.72640083086432,-0.9482808549208154,-130.23633818224064,-2.375,42.013312891666665,-93.76711808,339.451,4,2022-11-09-14-08-58-617,
/media/phenobot3/Extreme SSD/under-canopy-images/Test4/enviratron/d2/1668024538904304951.jpeg,1668024538.9877338,177.72230044708272,-0.5387336125635036,-128.25287016204993,-1.75,42.01331617833333,-93.76711737666666,339.46,4,2022-11-09-14-08-58-987,
/media/phenobot3/Extreme SSD/under-canopy-images/Test4/enviratron/d2/1668024539270764530.jpeg,1668024539.3548028,176.03394958605168,-1.7344190414178724,-125.37526307057513,-1.875,42.01331783166667,-93.767116885,339.467,4,2022-11-09-14-08-59-354,
/media/phenobot3/Extreme SSD/under-canopy-images/Test4/enviratron/d2/1668024539637140323.jpeg,1668024539.720461,177.18648951029272,-0.76509535500202,-123.29730217301561,-2.25,42.013321105,-93.76711785333333,339.468,4,2022-11-09-14-08-59-720,
/media/phenobot3/Extreme SSD/under-canopy-images/Test4/enviratron/d2/1668024540003040739.jpeg,1668024540.0767865,176.4895800691678,-0.49018192946962413,-123.22176042080682,-1.375,42.01332376166667,-93.76711686833333,339.477,4,2022-11-09-14-09-00-768,
/media/phenobot3/Extreme SSD/under-canopy-images/Test4/enviratron/d2/1668024540371207357.jpeg,1668024540.458175,176.97381502655088,-0.15474149289061465,-121.76653385444193,-2.437,42.01332623333333,-93.76711777333334,339.479,4,2022-11-09-14-09-00-458,
/media/phenobot3/Extreme SSD/under-canopy-images/Test4/enviratron/d2/1668024540737252434.jpeg,1668024540.8208218,176.69209905944058,-0.9380576835858785,-123.83210066198988,-2.812,42.01332909166667,-93.76711820333334,339.478,4,2022-11-09-14-09-00-820,
/media/phenobot3/Extreme SSD/under-canopy-images/Test4/enviratron/d2/1668024541102100571.jpeg,1668024541.177968,179.43673025909305,-0.8758767852890357,-125.34556058276779,1.0,42.013331915,-93.76711644666666,339.494,4,2022-11-09-14-09-01-178,
/media/phenobot3/Extreme SSD/under-canopy-images/Test4/enviratron/d2/1668024541470703257.jpeg,1668024541.5503228,178.10177361533633,-1.125774175219485,-126.18451261279235,0.063,42.013334165,-93.76711651,339.494,4,2022-11-09-14-09-01-550,
/media/phenobot3/Extreme SSD/under-canopy-images/Test4/enviratron/d2/1668024541836018360.jpeg,1668024541.9161062,177.31145403314937,-1.3330803218403775,-127.58289398848952,-1.75,42.013337175,-93.76711843833333,339.488,4,2022-11-09-14-09-01-916,
/media/phenobot3/Extreme SSD/under-canopy-images/Test4/enviratron/d2/1668024542201501571.jpeg,1668024542.2816,178.4864604686674,-1.4099316933447705,-128.31177966178353,0.563,42.013339691666665,-93.76711695166667,339.5,4,2022-11-09-14-09-02-281,
/media/phenobot3/Extreme SSD/under-canopy-images/Test4/enviratron/d2/1668024542567171745.jpeg,1668024542.6468937,177.59206743184782,-1.3691979646840151,-128.86213339153187,-0.625,42.013342181666665,-93.76711747666667,339.495,4,2022-11-09-14-09-02-646,
/media/phenobot3/Extreme SSD/under-canopy-images/Test4/enviratron/d2/1668024542933055084.jpeg,1668024543.0053134,177.97577703873915,-0.6641792230572516,-124.63382463330166,-2.437,42.013345128333334,-93.767119215,339.494,4,2022-11-09-14-09-03-539,
/media/phenobot3/Extreme SSD/under-canopy-images/Test4/enviratron/d2/1668024543300484226.jpeg,1668024543.385234,178.3151875747735,-0.048857642443044705,-124.73920830433512,0.375,42.013348218333334,-93.76711732,339.516,4,2022-11-09-14-09-03-385,
/media/phenobot3/Extreme SSD/under-canopy-images/Test4/enviratron/d2/1668024543666954409.jpeg,1668024543.739394,178.7054446890423,-0.7393288462278976,-124.91352343972348,-0.312,42.01334975666666,-93.76711782,339.51,4,2022-11-09-14-09-03-739,
/media/phenobot3/Extreme SSD/under-canopy-images/Test4/enviratron/d2/1668024544031318772.jpeg,1668024544.1124117,179.87379815612772,-0.48537861795171044,-126.18089778313981,2.312,42.01335323,-93.767116655,339.529,4,2022-11-09-14-09-04-112,
/media/phenobot3/Extreme SSD/under-canopy-images/Test4/enviratron/d2/1668024544397550157.jpeg,1668024544.482899,179.42466007906597,-1.0394484669420707,-126.92703042002064,1.625,42.01335591666667,-93.76711697833333,339.527,4,2022-11-09-14-09-04-482,
/media/phenobot3/Extreme SSD/under-canopy-images/Test4/enviratron/d2/1668024544765288603.jpeg,1668024544.8464048,177.73977981162585,-1.0679108349541078,-127.3428400183677,-1.375,42.013358275,-93.76711872999999,339.52,4,2022-11-09-14-09-04-846,
/media/phenobot3/Extreme SSD/under-canopy-images/Test4/enviratron/d2/1668024545131079253.jpeg,1668024545.2173622,178.56143208202684,-1.0148997448173303,-124.294106431165,0.375,42.01336138166667,-93.76711784166666,339.528,4,2022-11-09-14-09-05-217,
/media/phenobot3/Extreme SSD/under-canopy-images/Test4/enviratron/d2/1668024545497903064.jpeg,1668024545.5803003,177.38293212854563,-1.0719374380403133,-124.36002376054773,-0.563,42.01336411166667,-93.76711846333333,339.533,4,2022-11-09-14-09-05-580,
/media/phenobot3/Extreme SSD/under-canopy-images/Test4/enviratron/d2/1668024545863716708.jpeg,1668024545.947806,177.2011411926587,-1.0597256444725662,-124.59833914322385,-1.75,42.013366085,-93.767119135,339.528,4,2022-11-09-14-09-05-947,
/media/phenobot3/Extreme SSD/under-canopy-images/Test4/enviratron/d2/1668024546228259765.jpeg,1668024546.3083847,178.53841953476527,-1.5676665223245323,-124.91743536770713,0.438,42.01336897833333,-93.767118075,339.54,4,2022-11-09-14-09-06-308,
/media/phenobot3/Extreme SSD/under-canopy-images/Test4/enviratron/d2/1668024546594616182.jpeg,1668024546.6737988,-179.55423556593317,-1.576269240021804,-125.7348369805801,2.312,42.013371678333336,-93.76711716,339.548,4,2022-11-09-14-09-06-673,
/media/phenobot3/Extreme SSD/under-canopy-images/Test4/enviratron/d2/1668024546962291666.jpeg,1668024547.0401516,177.04789213484162,-1.2696973175391493,-127.05842451891053,0.0,42.013373578333336,-93.76711779833333,339.55,4,2022-11-09-14-09-07-402,
/media/phenobot3/Extreme SSD/under-canopy-images/Test4/enviratron/d2/1668024547328471547.jpeg,1668024547.411444,178.03126058521158,-0.4937311414857821,-127.06645119129347,-1.437,42.01337714,-93.767119815,339.539,4,2022-11-09-14-09-07-411,
/media/phenobot3/Extreme SSD/under-canopy-images/Test4/enviratron/d2/1668024547694821703.jpeg,1668024547.7768857,178.747839125384,-1.0460397950223743,-127.06911421818087,0.125,42.01338006666667,-93.76711859833334,339.564,4,2022-11-09-14-09-07-776,
/media/phenobot3/Extreme SSD/under-canopy-images/Test4/enviratron/d2/1668024548059938586.jpeg,1668024548.1458836,177.663491905493,-0.8622761098874091,-123.24541573030447,-0.938,42.01338171333333,-93.767119015,339.561,4,2022-11-09-14-09-08-145,
/media/phenobot3/Extreme SSD/under-canopy-images/Test4/enviratron/d2/1668024548424823460.jpeg,1668024548.504771,178.8231650174444,-0.9590868996671154,-120.68156301402337,-0.125,42.01338468,-93.76711912666667,339.562,4,2022-11-09-14-09-08-504,
/media/phenobot3/Extreme SSD/under-canopy-images/Test4/enviratron/d2/1668024548789586717.jpeg,1668024548.8747704,-179.67630761030253,-1.1653332980863516,-122.65717036787558,2.5,42.013388065,-93.767117765,339.582,4,2022-11-09-14-09-08-874,
/media/phenobot3/Extreme SSD/under-canopy-images/Test4/enviratron/d2/1668024549157090873.jpeg,1668024549.2405844,179.4902870212482,-0.48545581051474973,-124.60561382016279,1.687,42.013391168333335,-93.76711825166667,339.59,4,2022-11-09-14-09-09-240,
/media/phenobot3/Extreme SSD/under-canopy-images/Test4/enviratron/d2/1668024549522930158.jpeg,1668024549.5958257,-178.81072524646697,-0.7740099644421565,-125.24676594116464,2.75,42.01339374166667,-93.76711816,339.589,4,2022-11-09-14-09-09-595,
/media/phenobot3/Extreme SSD/under-canopy-images/Test4/enviratron/d2/1668024549890098403.jpeg,1668024549.964825,-177.17247100004644,-1.305472458805529,-126.14905494933852,3.25,42.01339607,-93.76711807,339.595,4,2022-11-09-14-09-09-964,
/media/phenobot3/Extreme SSD/under-canopy-images/Test4/enviratron/d2/1668024550256458412.jpeg,1668024550.3408978,-179.65616645812895,-0.47712603651502145,-127.70259871440183,3.375,42.013398736666666,-93.76711686666667,339.587,4,2022-11-09-14-09-10-340,
/media/phenobot3/Extreme SSD/under-canopy-images/Test4/enviratron/d2/1668024550624428184.jpeg,1668024550.704639,178.11859863541486,-0.8606625915149048,-126.75091632247647,-0.813,42.01340154,-93.76712056333334,339.598,4,2022-11-09-14-09-10-704,
/media/phenobot3/Extreme SSD/under-canopy-images/Test4/enviratron/d2/1668024550991390334.jpeg,1668024551.0761912,177.35151968766877,-0.25778702940755593,-127.55165469622006,1.125,42.01340455333333,-93.76711935333333,339.608,4,2022-11-09-14-09-11-762,
/media/phenobot3/Extreme SSD/under-canopy-images/Test4/enviratron/d2/1668024551360656938.jpeg,1668024551.4411986,176.79753309755887,-1.1662074262070512,-125.75985850119223,-0.25,42.013407195,-93.76712035333334,339.607,4,2022-11-09-14-09-11-441,
/media/phenobot3/Extreme SSD/under-canopy-images/Test4/enviratron/d2/1668024551726358677.jpeg,1668024551.8077967,175.96912869345303,-0.7412114159759682,-126.74961163997682,-2.187,42.013410523333334,-93.767121405,339.594,4,2022-11-09-14-09-11-807,
/media/phenobot3/Extreme SSD/under-canopy-images/Test4/enviratron/d2/1668024552091266878.jpeg,1668024552.165604,178.20156060285532,0.087912996547461,-128.11209898384877,1.375,42.01341392166667,-93.76711962666667,339.611,4,2022-11-09-14-09-12-165,
/media/phenobot3/Extreme SSD/under-canopy-images/Test4/enviratron/d2/1668024552456863848.jpeg,1668024552.5351682,179.70838481143147,-0.5218178290585759,-128.03818589673128,2.812,42.01341574833334,-93.767118915,339.615,4,2022-11-09-14-09-12-535,
/media/phenobot3/Extreme SSD/under-canopy-images/Test4/enviratron/d2/1668024552821218195.jpeg,1668024552.8932204,178.7570868926662,-0.5474838329238648,-129.41265593787952,1.625,42.013418765,-93.76711962,339.611,4,2022-11-09-14-09-12-893,
/media/phenobot3/Extreme SSD/under-canopy-images/Test4/enviratron/d2/1668024553186680762.jpeg,1668024553.263461,178.81037454727615,-1.037216195214863,-128.04278800552345,2.125,42.01342146,-93.76711906,339.616,4,2022-11-09-14-09-13-263,
/media/phenobot3/Extreme SSD/under-canopy-images/Test4/enviratron/d2/1668024553553650704.jpeg,1668024553.6294377,179.29910500369954,-1.0005911091618658,-127.50414087295711,0.563,42.013423771666666,-93.76712005666667,339.613,4,2022-11-09-14-09-13-629,
/media/phenobot3/Extreme SSD/under-canopy-images/Test4/enviratron/d2/1668024553919565584.jpeg,1668024554.0002732,178.382123435634,-0.8644541934278542,-127.24367066779028,3.0,42.01342669666667,-93.76711837833334,339.624,4,2022-11-09-14-09-14-359,
/media/phenobot3/Extreme SSD/under-canopy-images/Test4/enviratron/d2/1668024554285731408.jpeg,1668024554.3682714,177.67129601927087,-1.2878576423645,-120.08657942208481,-0.438,42.01342852166667,-93.76712024833333,339.627,4,2022-11-09-14-09-14-368,
/media/phenobot3/Extreme SSD/under-canopy-images/Test4/enviratron/d2/1668024554651835757.jpeg,1668024554.730214,178.65833783046153,-1.110912574850036,-119.93678570609332,2.812,42.01343209833333,-93.76711890333333,339.642,4,2022-11-09-14-09-14-730,
/media/phenobot3/Extreme SSD/under-canopy-images/Test4/enviratron/d2/1668024555017391290.jpeg,1668024555.0951438,179.39268696251034,-0.7769812687388487,-123.02516281914457,3.5,42.013435441666665,-93.76711844666667,339.652,4,2022-11-09-14-09-15-952,
/media/phenobot3/Extreme SSD/under-canopy-images/Test4/enviratron/d2/1668024555385741769.jpeg,1668024555.4639366,178.79625223265558,-0.7176999048339837,-123.8593802669759,1.562,42.01343784,-93.767119825,339.652,4,2022-11-09-14-09-15-464,
/media/phenobot3/Extreme SSD/under-canopy-images/Test4/enviratron/d2/1668024555752627518.jpeg,1668024555.8300407,179.56882849103243,-0.613454939698811,-124.95718101886139,3.625,42.01344084666667,-93.76711886833333,339.655,4,2022-11-09-14-09-15-830,
/media/phenobot3/Extreme SSD/under-canopy-images/Test4/enviratron/d2/1668024556117361670.jpeg,1668024556.1994812,178.675117661093,-0.7149561045055735,-125.48810859777497,2.75,42.01344379333333,-93.767119655,339.656,4,2022-11-09-14-09-16-199,
/media/phenobot3/Extreme SSD/under-canopy-images/Test4/enviratron/d2/1668024556484499747.jpeg,1668024556.570621,178.59442294662153,-1.304473510677573,-126.3521464460571,1.625,42.01344581666667,-93.767120325,339.659,4,2022-11-09-14-09-16-570,
/media/phenobot3/Extreme SSD/under-canopy-images/Test4/enviratron/d2/1668024556845310554.jpeg,1668024556.9178228,178.34755132266528,-0.8002660802818766,-127.53408785083082,3.25,42.01344898166667,-93.76711944166667,339.666,4,2022-11-09-14-09-16-917,
/media/phenobot3/Extreme SSD/under-canopy-images/Test4/enviratron/d2/1668024557207216436.jpeg,1668024557.281661,177.4993352082957,-0.4040961453444433,-123.86209085863453,0.25,42.013452556666664,-93.76712161166667,339.665,4,2022-11-09-14-09-17-281,
/media/phenobot3/Extreme SSD/under-canopy-images/Test4/enviratron/d2/1668024557576106793.jpeg,1668024557.6555307,177.59349171789853,-0.34454846374303316,-119.87523221791513,1.312,42.013454435,-93.76712121166666,339.665,4,2022-11-09-14-09-17-655,
/media/phenobot3/Extreme SSD/under-canopy-images/Test4/enviratron/d2/1668024557947015267.jpeg,1668024558.022337,179.28112757935602,-0.8868403840148639,-121.33748313062523,2.625,42.01345747,-93.76712036,339.675,4,2022-11-09-14-09-18-224,
/media/phenobot3/Extreme SSD/under-canopy-images/Test4/enviratron/d2/1668024558313969624.jpeg,1668024558.3931956,179.22736996479415,-1.5181269374214295,-122.60913355851682,2.375,42.01346024833333,-93.767120795,339.677,4,2022-11-09-14-09-18-393,
/media/phenobot3/Extreme SSD/under-canopy-images/Test4/enviratron/d2/1668024558682578303.jpeg,1668024558.7581782,179.00403722218957,-1.150000403766147,-123.05377650789596,2.562,42.01346392666667,-93.76712098166666,339.684,4,2022-11-09-14-09-18-758,
/media/phenobot3/Extreme SSD/under-canopy-images/Test4/enviratron/d2/1668024559050413548.jpeg,1668024559.141644,-178.82005356766453,-0.8081289466725887,-124.48581042948997,4.625,42.01346721666667,-93.76712042333334,339.695,4,2022-11-09-14-09-19-141,
/media/phenobot3/Extreme SSD/under-canopy-images/Test4/enviratron/d2/1668024559418125170.jpeg,1668024559.497435,-177.37931061975615,-0.04611801816928048,-125.95473189651432,7.438,42.013470641666665,-93.76711867166667,339.694,4,2022-11-09-14-09-19-497,
/media/phenobot3/Extreme SSD/under-canopy-images/Test4/enviratron/d2/1668024559783660090.jpeg,1668024559.8682256,179.3021120219618,-0.7750934618575452,-126.73106649852481,3.75,42.01347160833333,-93.76712033666666,339.697,4,2022-11-09-14-09-19-868,
/media/phenobot3/Extreme SSD/under-canopy-images/Test4/enviratron/d2/1668024560148198327.jpeg,1668024560.2307181,-179.94374623509282,-0.6231916419099957,-126.08841784585782,4.063,42.01347551666667,-93.767120985,339.697,4,2022-11-09-14-09-20-230,
/media/phenobot3/Extreme SSD/under-canopy-images/Test4/enviratron/d2/1668024560513149655.jpeg,1668024560.588176,-178.9250658201865,-1.062067570022113,-127.95460714398254,6.5,42.013478606666666,-93.76711960666667,339.7,4,2022-11-09-14-09-20-588,
/media/phenobot3/Extreme SSD/under-canopy-images/Test4/enviratron/d2/1668024560878903698.jpeg,1668024560.9590988,177.03877226665892,-0.6944998566846365,-128.5003494846226,1.187,42.01348177,-93.76712151166667,339.709,4,2022-11-09-14-09-20-959,
/media/phenobot3/Extreme SSD/under-canopy-images/Test4/enviratron/d2/1668024561247315970.jpeg,1668024561.329793,177.4418736928928,-0.5368572281191095,-128.162072436098,0.563,42.013484346666665,-93.76712403666667,339.697,4,2022-11-09-14-09-21-329,
/media/phenobot3/Extreme SSD/under-canopy-images/Test4/enviratron/d2/1668024561613125324.jpeg,1668024561.6899848,179.85290684948154,-0.06936709216459896,-127.79205806834223,6.75,42.01348764666667,-93.76711943666666,339.721,4,2022-11-09-14-09-21-690,
/media/phenobot3/Extreme SSD/under-canopy-images/Test4/enviratron/d2/1668024561979337088.jpeg,1668024562.0643373,179.12781983757134,-0.11720405905069736,-124.56117705149548,2.437,42.01348999,-93.767122005,339.719,4,2022-11-09-14-09-22-644,
/media/phenobot3/Extreme SSD/under-canopy-images/Test4/enviratron/d2/1668024562346952183.jpeg,1668024562.4276357,179.07122245078548,-0.26646902577323267,-120.20183663099857,5.25,42.01349333,-93.767120665,339.726,4,2022-11-09-14-09-22-427,
/media/phenobot3/Extreme SSD/under-canopy-images/Test4/enviratron/d2/1668024562714921409.jpeg,1668024562.7980614,179.11435627185242,-0.25479310688830176,-122.26569871008893,4.25,42.01349638833333,-93.767120835,339.728,4,2022-11-09-14-09-22-798,
/media/phenobot3/Extreme SSD/under-canopy-images/Test4/enviratron/d2/1668024563079520207.jpeg,1668024563.164573,179.0014376415671,-0.5579236243869363,-124.20796483415211,2.5,42.01349858166667,-93.76712237333334,339.729,4,2022-11-09-14-09-23-164,
/media/phenobot3/Extreme SSD/under-canopy-images/Test4/enviratron/d2/1668024563445249929.jpeg,1668024563.5278628,177.60844097470135,0.35515851106743385,-126.14944544917324,3.125,42.01350242833333,-93.767121755,339.733,4,2022-11-09-14-09-23-527,
/media/phenobot3/Extreme SSD/under-canopy-images/Test4/enviratron/d2/1668024563809616780.jpeg,1668024563.887919,176.72533703291978,0.3693171315945047,-125.3829105429475,-0.312,42.01350517666667,-93.76712422333334,339.72,4,2022-11-09-14-09-23-888,
/media/phenobot3/Extreme SSD/under-canopy-images/Test4/enviratron/d2/1668024564174199867.jpeg,1668024564.254806,177.75824972676733,-0.591483342527772,-126.07269022586665,1.25,42.013507573333335,-93.76712384666666,339.729,4,2022-11-09-14-09-24-254,
/media/phenobot3/Extreme SSD/under-canopy-images/Test4/enviratron/d2/1668024564540018999.jpeg,1668024564.6182349,179.09728195934161,-0.9060259291240238,-127.8965892875793,4.875,42.01351021166667,-93.76712177,339.733,4,2022-11-09-14-09-24-618,
/media/phenobot3/Extreme SSD/under-canopy-images/Test4/enviratron/d2/1668024564905764593.jpeg,1668024564.988908,178.2333685081181,-1.0886558057621933,-127.2951385684391,2.187,42.013513943333336,-93.76712330333334,339.723,4,2022-11-09-14-09-24-989,
/media/phenobot3/Extreme SSD/under-canopy-images/Test4/enviratron/d2/1668024565271686759.jpeg,1668024565.3536797,177.57652888331933,-0.05325589162512775,-123.28881278824188,3.312,42.013517238333336,-93.76712258333333,339.745,4,2022-11-09-14-09-25-353,
/media/phenobot3/Extreme SSD/under-canopy-images/Test4/enviratron/d2/1668024565639480221.jpeg,1668024565.7207217,177.74277796296244,-0.2737071070898655,-119.44463820961487,1.25,42.013519896666665,-93.76712353833334,339.745,4,2022-11-09-14-09-25-720,
/media/phenobot3/Extreme SSD/under-canopy-images/Test4/enviratron/d2/1668024566004964099.jpeg,1668024566.0872748,177.83987774459848,-1.0411160802917523,-118.09276345916432,3.625,42.01352326166667,-93.76712244,339.756,4,2022-11-09-14-09-26-873,
/media/phenobot3/Extreme SSD/under-canopy-images/Test4/enviratron/d2/1668024566372366510.jpeg,1668024566.463531,-178.80490908238954,-0.7263720219962538,-121.0972677372732,6.375,42.01352600333333,-93.76712151666666,339.757,4,2022-11-09-14-09-26-463,
/media/phenobot3/Extreme SSD/under-canopy-images/Test4/enviratron/d2/1668024566739404032.jpeg,1668024566.8134305,-178.57833101161583,-0.5349491953714628,-123.27886508037349,7.188,42.01352947833333,-93.76712086,339.767,4,2022-11-09-14-09-26-813,
/media/phenobot3/Extreme SSD/under-canopy-images/Test4/enviratron/d2/1668024567105508489.jpeg,1668024567.1866562,-179.32794625498147,-0.754597521138825,-123.83494900745345,4.563,42.01353280166666,-93.76712305833334,339.765,4,2022-11-09-14-09-27-186,
/media/phenobot3/Extreme SSD/under-canopy-images/Test4/enviratron/d2/1668024567472975538.jpeg,1668024567.5555243,-177.30158599872655,-0.04999530507551812,-124.78370882980153,9.625,42.013534781666664,-93.76712019833333,339.767,4,2022-11-09-14-09-27-555,
/media/phenobot3/Extreme SSD/under-canopy-images/Test4/enviratron/d2/1668024567836790074.jpeg,1668024567.9196637,-179.22219761909935,0.007235021489047986,-126.75342005433933,7.438,42.01353824,-93.76712106666666,339.772,4,2022-11-09-14-09-27-919,
/media/phenobot3/Extreme SSD/under-canopy-images/Test4/enviratron/d2/1668024568201405095.jpeg,1668024568.2896342,-179.45416107533114,0.18642026201293735,-126.01784155921395,4.5,42.013541911666664,-93.76712353166667,339.767,4,2022-11-09-14-09-28-289,
/media/phenobot3/Extreme SSD/under-canopy-images/Test4/enviratron/d2/1668024568568815773.jpeg,1668024568.6536915,-178.1548932983417,0.634610242510924,-127.77937448443784,9.187,42.0135447,-93.76712025,339.776,4,2022-11-09-14-09-28-653,
/media/phenobot3/Extreme SSD/under-canopy-images/Test4/enviratron/d2/1668024568933491699.jpeg,1668024569.013583,-179.22156791008697,0.06847197857919776,-128.00177920089547,5.313,42.01354832166667,-93.76712314166667,339.777,4,2022-11-09-14-09-29-137,
/media/phenobot3/Extreme SSD/under-canopy-images/Test4/enviratron/d2/1668024569299475080.jpeg,1668024569.3855069,-179.50228111393784,-1.0303545264946945,-121.97414699322248,8.0,42.01355137666667,-93.76712149,339.777,4,2022-11-09-14-09-29-385,
/media/phenobot3/Extreme SSD/under-canopy-images/Test4/enviratron/d2/1668024569665093722.jpeg,1668024569.7440202,179.5534154745672,-0.34946046161820493,-119.60577275667582,5.813,42.013554811666666,-93.76712204,339.781,4,2022-11-09-14-09-29-744,
/media/phenobot3/Extreme SSD/under-canopy-images/Test4/enviratron/d2/1668024570029500513.jpeg,1668024570.1096282,179.62295714050973,-0.8634902951965047,-119.0911009256972,5.875,42.01355810333333,-93.76712278166667,339.786,4,2022-11-09-14-09-30-109,
/media/phenobot3/Extreme SSD/under-canopy-images/Test4/enviratron/d2/1668024570395048565.jpeg,1668024570.4690464,-177.7437179334564,0.04857356720898275,-121.70705580050823,9.0,42.013562045,-93.767121215,339.787,4,2022-11-09-14-09-30-469,
/media/phenobot3/Extreme SSD/under-canopy-images/Test4/enviratron/d2/1668024570768310788.jpeg,1668024570.8515942,-178.20401444585073,-0.6576818428281728,-123.12932862003979,7.438,42.01356455333333,-93.76712235666666,339.788,4,2022-11-09-14-09-30-851,
/media/phenobot3/Extreme SSD/under-canopy-images/Test4/enviratron/d2/1668024571134649196.jpeg,1668024571.2190015,-177.94327347888031,-0.8758289631864604,-124.55240055971665,7.563,42.013567978333334,-93.76712284166666,339.795,4,2022-11-09-14-09-31-219,
/media/phenobot3/Extreme SSD/under-canopy-images/Test4/enviratron/d2/1668024571501333867.jpeg,1668024571.5763752,-177.09306745090896,-0.7631176414425298,-124.80036432098356,9.0,42.013571473333336,-93.767122125,339.794,4,2022-11-09-14-09-31-576,
/media/phenobot3/Extreme SSD/under-canopy-images/Test4/enviratron/d2/1668024571865913728.jpeg,1668024571.9500294,-176.20584382257277,-0.21777189820446707,-126.18971081664239,9.562,42.013574238333334,-93.767122275,339.801,4,2022-11-09-14-09-31-950,
/media/phenobot3/Extreme SSD/under-canopy-images/Test4/enviratron/d2/1668024572229652313.jpeg,1668024572.3127098,-176.47151867913078,-0.013314660566669806,-124.81783990879991,10.625,42.01357777333333,-93.76712164666667,339.799,4,2022-11-09-14-09-32-312,
/media/phenobot3/Extreme SSD/under-canopy-images/Test4/enviratron/d2/1668024572595919778.jpeg,1668024572.6831565,-176.75683273902763,-0.2934684990575889,-123.57376707172901,10.5,42.01358148166667,-93.76712158666666,339.805,4,2022-11-09-14-09-32-683,
/media/phenobot3/Extreme SSD/under-canopy-images/Test4/enviratron/d2/1668024572961533101.jpeg,1668024573.0403516,-177.192285607969,-0.5607180317866236,-123.06264186052137,9.437,42.01358412,-93.767122115,339.805,4,2022-11-09-14-09-33-404,
/media/phenobot3/Extreme SSD/under-canopy-images/Test4/enviratron/d2/1668024573325409883.jpeg,1668024573.4034114,179.97642567929546,-0.26951724832693724,-121.93242763226644,5.375,42.01358740333333,-93.76712448,339.811,4,2022-11-09-14-09-33-403,
/media/phenobot3/Extreme SSD/under-canopy-images/Test4/enviratron/d2/1668024573692132657.jpeg,1668024573.7717438,-179.95848771855782,-0.876841663786116,-121.3842558659209,6.563,42.01359003,-93.76712407,339.815,4,2022-11-09-14-09-33-771,
/media/phenobot3/Extreme SSD/under-canopy-images/Test4/enviratron/d2/1668024574057180350.jpeg,1668024574.131979,-177.4123349143828,-1.2026651734346565,-123.99609732715247,9.5,42.013591983333335,-93.76712300833333,339.822,4,2022-11-09-14-09-34-132,
/media/phenobot3/Extreme SSD/under-canopy-images/Test4/enviratron/d2/1668024574420609601.jpeg,1668024574.4942484,-179.33737896905157,-0.8623745416021147,-126.2842334475343,6.75,42.01359562333333,-93.76712437333333,339.82,4,2022-11-09-14-09-34-494,
/media/phenobot3/Extreme SSD/under-canopy-images/Test4/enviratron/d2/1668024574786002021.jpeg,1668024574.8701577,-178.76884304581122,-0.7783028594922922,-127.64427962951893,7.375,42.013598976666664,-93.767125175,339.829,4,2022-11-09-14-09-34-870,
