image_location,TimeStamp,Roll,Pitch,Yaw,Mast Roll,Lat,Lon,Alt,GPS Qual,DateTime
/media/phenobot3/Extreme SSD/under-canopy-images/Test3/enviratron/s1/1667934823509344640.jpeg,1667934823.5960162,-179.76219558443742,-0.19767307564253642,170.3083865072039,-6.25,42.018140003333336,-93.77365925833334,344.306,4,2022-11-08-13-13-43-596,
/media/phenobot3/Extreme SSD/under-canopy-images/Test3/enviratron/s1/1667934823842302576.jpeg,1667934823.932896,-179.76264403708927,-0.1982284719753117,170.3074898216318,-6.25,42.01814001,-93.77365925166667,344.305,4,2022-11-08-13-13-43-932,
/media/phenobot3/Extreme SSD/under-canopy-images/Test3/enviratron/s1/1667934824176756559.jpeg,1667934824.2664542,-179.76304462022338,-0.19883280267174702,170.30642899487256,-6.25,42.018140003333336,-93.77365923166667,344.305,4,2022-11-08-13-13-44-266,
/media/phenobot3/Extreme SSD/under-canopy-images/Test3/enviratron/s1/1667934824510734975.jpeg,1667934824.5862763,-179.7637917766773,-0.19935367729391032,170.3058829572825,-6.25,42.018140003333336,-93.77365925,344.302,4,2022-11-08-13-13-44-586,
/media/phenobot3/Extreme SSD/under-canopy-images/Test3/enviratron/s1/1667934824843046875.jpeg,1667934824.926817,-179.7643276129465,-0.20027227117707663,170.30418394532853,-6.25,42.01813999833333,-93.77365924,344.306,4,2022-11-08-13-13-44-926,
/media/phenobot3/Extreme SSD/under-canopy-images/Test3/enviratron/s1/1667934825177033460.jpeg,1667934825.2660234,-179.76464439035666,-0.20098138022205375,170.3027817820731,-6.25,42.018139993333335,-93.77365924333333,344.308,4,2022-11-08-13-13-45-266,
/media/phenobot3/Extreme SSD/under-canopy-images/Test3/enviratron/s1/1667934825510662733.jpeg,1667934825.5930245,-179.76540364619902,-0.20214327787656935,170.30069850874148,-6.25,42.018139991666665,-93.77365925166667,344.307,4,2022-11-08-13-13-45-593,
/media/phenobot3/Extreme SSD/under-canopy-images/Test3/enviratron/s1/1667934825842565930.jpeg,1667934825.9188135,-179.76585439633567,-0.20269323716632653,170.2997913936714,-6.25,42.018140001666666,-93.773659235,344.306,4,2022-11-08-13-13-45-918,
/media/phenobot3/Extreme SSD/under-canopy-images/Test3/enviratron/s1/1667934826177777645.jpeg,1667934826.2519937,-179.76613014842974,-0.20327705534772608,170.2986430683445,-6.25,42.01813998666667,-93.77365924833333,344.306,4,2022-11-08-13-13-46-252,
/media/phenobot3/Extreme SSD/under-canopy-images/Test3/enviratron/s1/1667934826510773356.jpeg,1667934826.593282,-179.73795483125795,-0.28038661317373365,170.22491735979696,-6.25,42.01813999,-93.773659235,344.305,4,2022-11-08-13-13-46-593,
/media/phenobot3/Extreme SSD/under-canopy-images/Test3/enviratron/s1/1667934826842687298.jpeg,1667934826.9260774,-179.51908974215993,-0.22980189735082945,170.05022590415564,-6.125,42.01813932833333,-93.77365935833333,344.306,4,2022-11-08-13-13-46-926,
/media/phenobot3/Extreme SSD/under-canopy-images/Test3/enviratron/s1/1667934827176949904.jpeg,1667934827.251745,-179.15656358386573,-0.2990227714936079,169.5970557514962,-5.75,42.01813834,-93.77365953666667,344.305,4,2022-11-08-13-13-47-251,
/media/phenobot3/Extreme SSD/under-canopy-images/Test3/enviratron/s1/1667934827512868216.jpeg,1667934827.5876951,179.79748291161135,-0.6739870061324233,168.8143909659996,-8.312,42.018136205,-93.773658055,344.303,4,2022-11-08-13-13-47-587,
/media/phenobot3/Extreme SSD/under-canopy-images/Test3/enviratron/s1/1667934827842497179.jpeg,1667934827.9241967,-179.05206351069768,-0.883917525628354,167.80854083701806,-7.5,42.01813481166667,-93.77365837666666,344.313,4,2022-11-08-13-13-47-924,
/media/phenobot3/Extreme SSD/under-canopy-images/Test3/enviratron/s1/1667934828176828946.jpeg,1667934828.2473469,179.62228238072305,-1.5912226735652717,167.27421015745506,-7.313,42.018133615,-93.77365903666667,344.319,4,2022-11-08-13-13-48-247,
/media/phenobot3/Extreme SSD/under-canopy-images/Test3/enviratron/s1/1667934828510468180.jpeg,1667934828.590626,178.17709730900515,-2.3840877020402473,167.9996048846353,-9.625,42.018131605,-93.77365767833334,344.321,4,2022-11-08-13-13-48-590,
/media/phenobot3/Extreme SSD/under-canopy-images/Test3/enviratron/s1/1667934828842364904.jpeg,1667934828.932241,-177.47847484091218,-3.1731766530709105,167.84967005874432,-7.313,42.018130256666666,-93.77365861166666,344.324,4,2022-11-08-13-13-48-932,
/media/phenobot3/Extreme SSD/under-canopy-images/Test3/enviratron/s1/1667934829176600506.jpeg,1667934829.2523077,-176.70993262009515,-4.116415579779891,166.18508518183145,-2.937,42.01812927833333,-93.77366153333334,344.328,4,2022-11-08-13-13-49-252,
/media/phenobot3/Extreme SSD/under-canopy-images/Test3/enviratron/s1/1667934829510102132.jpeg,1667934829.591381,-178.16547959605413,-5.02662000421952,167.24054913708565,-6.063,42.018127238333335,-93.77365986333334,344.342,4,2022-11-08-13-13-49-591,
/media/phenobot3/Extreme SSD/under-canopy-images/Test3/enviratron/s1/1667934829842391899.jpeg,1667934829.923438,-177.18175111214524,-6.127642760770513,166.39759937961858,-6.25,42.01812614333333,-93.77365965833333,344.353,4,2022-11-08-13-13-49-923,
/media/phenobot3/Extreme SSD/under-canopy-images/Test3/enviratron/s1/1667934830176717182.jpeg,1667934830.2624898,-178.4124791942518,-6.9501611724161725,165.30528441096124,-4.813,42.01812476,-93.77366039333333,344.373,4,2022-11-08-13-13-50-262,
/media/phenobot3/Extreme SSD/under-canopy-images/Test3/enviratron/s1/1667934830510928857.jpeg,1667934830.600682,-178.45152659860344,-7.222418411647591,165.79950547897485,-7.25,42.01812269,-93.77365961833334,344.39,4,2022-11-08-13-13-50-600,
/media/phenobot3/Extreme SSD/under-canopy-images/Test3/enviratron/s1/1667934830843056748.jpeg,1667934830.921729,-177.8953467993713,-6.3558959661124454,166.78114756699466,-7.063,42.01812084,-93.77365984666666,344.408,4,2022-11-08-13-13-50-921,
/media/phenobot3/Extreme SSD/under-canopy-images/Test3/enviratron/s1/1667934831177095958.jpeg,1667934831.2476559,-177.48674442564038,-6.393533202393433,169.73035093566344,-3.812,42.018119051666666,-93.77366157333333,344.427,4,2022-11-08-13-13-51-247,
/media/phenobot3/Extreme SSD/under-canopy-images/Test3/enviratron/s1/1667934831510464741.jpeg,1667934831.5913198,-179.90807569139807,-5.634389095284811,171.05099120357812,-6.313,42.01811677333333,-93.77366114166666,344.462,4,2022-11-08-13-13-51-591,
/media/phenobot3/Extreme SSD/under-canopy-images/Test3/enviratron/s1/1667934831841642752.jpeg,1667934831.9196358,175.59581781306434,-3.8056953017423774,171.18706701686312,-12.312,42.01811489666667,-93.77365801833334,344.474,4,2022-11-08-13-13-51-919,
/media/phenobot3/Extreme SSD/under-canopy-images/Test3/enviratron/s1/1667934832177072001.jpeg,1667934832.2551064,175.2950298436858,-0.7333690869834358,169.73380642967612,-13.375,42.01811175,-93.77365677666667,344.465,4,2022-11-08-13-13-52-255,
/media/phenobot3/Extreme SSD/under-canopy-images/Test3/enviratron/s1/1667934832509493440.jpeg,1667934832.5858767,169.9623470635805,0.4696676257853055,169.38560056709818,-16.875,42.01810915,-93.773655375,344.445,4,2022-11-08-13-13-52-585,
/media/phenobot3/Extreme SSD/under-canopy-images/Test3/enviratron/s1/1667934832842852095.jpeg,1667934832.918696,167.30001720234017,3.725800600957793,170.96164252124828,-23.25,42.018107201666666,-93.773651985,344.375,4,2022-11-08-13-13-52-918,
/media/phenobot3/Extreme SSD/under-canopy-images/Test3/enviratron/s1/1667934833177073901.jpeg,1667934833.256792,168.6348619557338,5.0523121379629305,168.22388772590776,-17.312,42.018104363333336,-93.77365453833333,344.429,4,2022-11-08-13-13-53-256,
/media/phenobot3/Extreme SSD/under-canopy-images/Test3/enviratron/s1/1667934833511064372.jpeg,1667934833.5924125,166.3598899385196,5.749199340205788,168.92161177556474,-24.25,42.01810202,-93.77365125,344.37,4,2022-11-08-13-13-53-592,
/media/phenobot3/Extreme SSD/under-canopy-images/Test3/enviratron/s1/1667934833842676451.jpeg,1667934833.9220905,169.3494580427649,3.9351443001355677,168.81496672948697,-21.812,42.018101521666665,-93.77365212833334,344.376,4,2022-11-08-13-13-53-922,
/media/phenobot3/Extreme SSD/under-canopy-images/Test3/enviratron/s1/1667934834177684122.jpeg,1667934834.262673,171.86548826601145,2.5665241166662502,166.3928188303704,-15.875,42.01809979,-93.77365518,344.429,4,2022-11-08-13-13-54-262,
/media/phenobot3/Extreme SSD/under-canopy-images/Test3/enviratron/s1/1667934834510318344.jpeg,1667934834.5820467,173.1475553458537,0.9753845420766116,165.60704028506473,-17.562,42.01809836166667,-93.77365458833333,344.394,4,2022-11-08-13-13-54-582,
/media/phenobot3/Extreme SSD/under-canopy-images/Test3/enviratron/s1/1667934834844033197.jpeg,1667934834.9159453,173.45144228844399,-0.9358223717112029,166.7608986133052,-16.312,42.01809765666667,-93.77365539833333,344.4,4,2022-11-08-13-13-54-916,
/media/phenobot3/Extreme SSD/under-canopy-images/Test3/enviratron/s1/1667934835176915169.jpeg,1667934835.250693,174.53468441799356,-0.8647825889319753,163.55330530563114,-14.25,42.01809685166667,-93.77365630666667,344.415,4,2022-11-08-13-13-55-250,
/media/phenobot3/Extreme SSD/under-canopy-images/Test3/enviratron/s1/1667934835509136710.jpeg,1667934835.5958123,174.6520048095484,0.05712902613164562,164.1973661238784,-14.375,42.01809423666667,-93.77365664166666,344.408,4,2022-11-08-13-13-55-595,
/media/phenobot3/Extreme SSD/under-canopy-images/Test3/enviratron/s1/1667934835843252364.jpeg,1667934835.9221008,176.75104622111016,0.6390044437375858,164.4990151262971,-13.0,42.01809230833334,-93.77365745666667,344.415,4,2022-11-08-13-13-55-922,
/media/phenobot3/Extreme SSD/under-canopy-images/Test3/enviratron/s1/1667934836177461358.jpeg,1667934836.261031,176.97707795916435,0.6701170532872681,167.291259299627,-10.812,42.01809054333334,-93.77365904166666,344.42,4,2022-11-08-13-13-56-261,
/media/phenobot3/Extreme SSD/under-canopy-images/Test3/enviratron/s1/1667934836510069048.jpeg,1667934836.5943675,176.04115830306137,0.49084685560180114,172.57145314392386,-12.312,42.018088688333336,-93.773658645,344.418,4,2022-11-08-13-13-56-594,
/media/phenobot3/Extreme SSD/under-canopy-images/Test3/enviratron/s1/1667934836843221982.jpeg,1667934836.9273162,172.4160380834074,0.8813842758625104,176.1652120996286,-15.625,42.018087298333334,-93.773657185,344.412,4,2022-11-08-13-13-56-927,
/media/phenobot3/Extreme SSD/under-canopy-images/Test3/enviratron/s1/1667934837175523620.jpeg,1667934837.2580755,170.02890552478917,0.5583054714732014,179.03583373070998,-20.5,42.018086151666665,-93.77365487833333,344.38,4,2022-11-08-13-13-57-258,
/media/phenobot3/Extreme SSD/under-canopy-images/Test3/enviratron/s1/1667934837509909787.jpeg,1667934837.5972114,171.93146633282618,-0.7267729404110738,177.29402790917595,-19.5,42.018084818333335,-93.77365471833333,344.372,4,2022-11-08-13-13-57-597,
/media/phenobot3/Extreme SSD/under-canopy-images/Test3/enviratron/s1/1667934837844387020.jpeg,1667934837.9219596,175.0747744986284,-0.9562232805896594,171.75329275726045,-12.625,42.018083575,-93.77365799333333,344.415,4,2022-11-08-13-13-57-922,
/media/phenobot3/Extreme SSD/under-canopy-images/Test3/enviratron/s1/1667934838176893573.jpeg,1667934838.2566226,173.23216062920392,-1.1743148173952218,165.45677885075764,-15.187,42.01808191333333,-93.77365745166666,344.424,4,2022-11-08-13-13-58-256,
/media/phenobot3/Extreme SSD/under-canopy-images/Test3/enviratron/s1/1667934838508426829.jpeg,1667934838.5893695,171.924249269457,-0.017111922822651924,166.13710280230674,-18.875,42.018079405,-93.77365445666666,344.385,4,2022-11-08-13-13-58-589,
/media/phenobot3/Extreme SSD/under-canopy-images/Test3/enviratron/s1/1667934838843554920.jpeg,1667934838.9261858,172.2689067117989,0.26394991839028836,166.84314426628524,-17.187,42.01807728666667,-93.77365508,344.395,4,2022-11-08-13-13-58-926,
/media/phenobot3/Extreme SSD/under-canopy-images/Test3/enviratron/s1/1667934839176714452.jpeg,1667934839.250147,172.01981177106617,0.10343986210399164,166.80441567573519,-16.125,42.01807534666667,-93.77365588333333,344.412,4,2022-11-08-13-13-59-250,
/media/phenobot3/Extreme SSD/under-canopy-images/Test3/enviratron/s1/1667934839510612849.jpeg,1667934839.583391,170.81767034013635,0.6190708525510419,169.47207951823756,-19.75,42.01807336833333,-93.77365416666666,344.381,4,2022-11-08-13-13-59-583,
/media/phenobot3/Extreme SSD/under-canopy-images/Test3/enviratron/s1/1667934839842800408.jpeg,1667934839.930234,171.22390320979332,0.6989176280799149,169.90378825835282,-19.875,42.018071821666666,-93.773653785,344.374,4,2022-11-08-13-13-59-930,
/media/phenobot3/Extreme SSD/under-canopy-images/Test3/enviratron/s1/1667934840176938620.jpeg,1667934840.2499316,173.34305042715832,0.12084987285820942,170.6061132420035,-17.437,42.01807080333333,-93.77365519166666,344.397,4,2022-11-08-13-14-00-250,
/media/phenobot3/Extreme SSD/under-canopy-images/Test3/enviratron/s1/1667934840510861805.jpeg,1667934840.5901077,175.0756502561456,-0.33425423796466075,170.88175507237787,-15.875,42.01806864666667,-93.77365621833333,344.412,4,2022-11-08-13-14-00-590,
/media/phenobot3/Extreme SSD/under-canopy-images/Test3/enviratron/s1/1667934840843520206.jpeg,1667934840.9294324,175.04268612361935,-0.3943754578708632,170.0821914752783,-13.437,42.01806763166667,-93.773657565,344.418,4,2022-11-08-13-14-00-929,
/media/phenobot3/Extreme SSD/under-canopy-images/Test3/enviratron/s1/1667934841176848487.jpeg,1667934841.2582157,177.17511493020146,-0.5137017676248992,169.345758876092,-13.562,42.018066135,-93.77365757333334,344.429,4,2022-11-08-13-14-01-258,
/media/phenobot3/Extreme SSD/under-canopy-images/Test3/enviratron/s1/1667934841510610489.jpeg,1667934841.593289,175.86022817924447,-0.7908267967868496,168.3309558903112,-11.75,42.01806429333333,-93.773658705,344.435,4,2022-11-08-13-14-01-593,
/media/phenobot3/Extreme SSD/under-canopy-images/Test3/enviratron/s1/1667934841843407377.jpeg,1667934841.9333827,175.22065310850508,-1.173680729899723,168.39163756852247,-13.875,42.018062513333334,-93.77365747,344.424,4,2022-11-08-13-14-01-933,
/media/phenobot3/Extreme SSD/under-canopy-images/Test3/enviratron/s1/1667934842196277533.jpeg,1667934842.260902,176.1485183689019,-0.9642014339990909,168.82549995450796,-13.25,42.01806098666667,-93.77365746666666,344.428,4,2022-11-08-13-14-02-260,
/media/phenobot3/Extreme SSD/under-canopy-images/Test3/enviratron/s1/1667934842512101419.jpeg,1667934842.602667,176.41070196923775,-0.5018547408714116,168.0015651542675,-11.75,42.018058805,-93.77365862333333,344.434,4,2022-11-08-13-14-02-602,
/media/phenobot3/Extreme SSD/under-canopy-images/Test3/enviratron/s1/1667934842863039634.jpeg,1667934842.9398072,174.34928172385744,-0.41825426918255304,168.73264034816395,-14.062,42.01805653666667,-93.773657635,344.43,4,2022-11-08-13-14-02-939,
/media/phenobot3/Extreme SSD/under-canopy-images/Test3/enviratron/s1/1667934843178783823.jpeg,1667934843.2677798,172.52966851633715,0.2002384784540546,169.36058193693788,-16.125,42.01805471666667,-93.77365666666667,344.415,4,2022-11-08-13-14-03-267,
/media/phenobot3/Extreme SSD/under-canopy-images/Test3/enviratron/s1/1667934843530369696.jpeg,1667934843.5979967,173.06647347866422,1.0997363825527562,172.55023533370053,-18.25,42.018052785,-93.77365519166666,344.401,4,2022-11-08-13-14-03-598,
/media/phenobot3/Extreme SSD/under-canopy-images/Test3/enviratron/s1/1667934843864793160.jpeg,1667934843.9298418,174.3059437755956,1.0731118271168165,174.7260837423764,-14.75,42.01805048833333,-93.77365686666667,344.423,4,2022-11-08-13-14-03-929,
/media/phenobot3/Extreme SSD/under-canopy-images/Test3/enviratron/s1/1667934844176215982.jpeg,1667934844.2497265,172.93394341457076,0.12537934019417243,172.58919564875927,-16.0,42.018048881666665,-93.773656895,344.429,4,2022-11-08-13-14-04-249,
/media/phenobot3/Extreme SSD/under-canopy-images/Test3/enviratron/s1/1667934844513410034.jpeg,1667934844.6029549,172.74105537574889,-0.28975038901739636,171.80946156260165,-18.875,42.018047425,-93.77365466,344.387,4,2022-11-08-13-14-04-603,
/media/phenobot3/Extreme SSD/under-canopy-images/Test3/enviratron/s1/1667934844860604033.jpeg,1667934844.9238634,175.20782803453133,-1.1655224716231862,167.85508768303535,-15.437,42.01804563,-93.77365610666666,344.422,4,2022-11-08-13-14-04-923,
/media/phenobot3/Extreme SSD/under-canopy-images/Test3/enviratron/s1/1667934845198313530.jpeg,1667934845.2624822,176.27294282886118,-1.1301354347663515,165.14643266453103,-13.75,42.01804338833333,-93.773657285,344.435,4,2022-11-08-13-14-05-262,
/media/phenobot3/Extreme SSD/under-canopy-images/Test3/enviratron/s1/1667934845512111837.jpeg,1667934845.586164,176.11088826957987,-1.4423327138645585,164.6169607951541,-13.687,42.018041255,-93.77365754833333,344.43,4,2022-11-08-13-14-05-586,
/media/phenobot3/Extreme SSD/under-canopy-images/Test3/enviratron/s1/1667934845844841734.jpeg,1667934845.9199452,174.46816664662754,-1.1309410165117568,164.75007034554667,-15.625,42.01803968,-93.77365652166667,344.416,4,2022-11-08-13-14-05-920,
/media/phenobot3/Extreme SSD/under-canopy-images/Test3/enviratron/s1/1667934846177093258.jpeg,1667934846.247501,172.31441905269955,-0.3910737841830042,168.14591341400055,-16.0,42.018037578333335,-93.773656635,344.422,4,2022-11-08-13-14-06-247,
/media/phenobot3/Extreme SSD/under-canopy-images/Test3/enviratron/s1/1667934846510320226.jpeg,1667934846.582503,171.70146683218226,-0.27536379457857,173.6027697486019,-17.625,42.01803518166667,-93.77365599333334,344.414,4,2022-11-08-13-14-06-582,
/media/phenobot3/Extreme SSD/under-canopy-images/Test3/enviratron/s1/1667934846842359527.jpeg,1667934846.920604,172.40886234925705,-0.33568353874777407,176.3307211707031,-17.75,42.01803368666667,-93.77365607,344.415,4,2022-11-08-13-14-06-920,
/media/phenobot3/Extreme SSD/under-canopy-images/Test3/enviratron/s1/1667934847180376589.jpeg,1667934847.2635396,174.09903088180664,-0.6640410608238233,173.49831006515015,-17.437,42.01803218333333,-93.77365625833333,344.428,4,2022-11-08-13-14-07-263,
/media/phenobot3/Extreme SSD/under-canopy-images/Test3/enviratron/s1/1667934847541304623.jpeg,1667934847.6010294,174.05300669091255,-1.4870272600588887,167.28446118237045,-15.437,42.018029541666664,-93.77365710666666,344.444,4,2022-11-08-13-14-07-601,
/media/phenobot3/Extreme SSD/under-canopy-images/Test3/enviratron/s1/1667934847843736520.jpeg,1667934847.9294927,171.22930955768146,-1.0306769169672272,166.63997874903893,-19.125,42.018027368333335,-93.77365541166667,344.414,4,2022-11-08-13-14-07-929,
/media/phenobot3/Extreme SSD/under-canopy-images/Test3/enviratron/s1/1667934848205826480.jpeg,1667934848.266573,168.59631166490496,-0.0525813480171684,167.09737541571445,-23.0,42.01802438166666,-93.77365302666666,344.372,4,2022-11-08-13-14-08-266,
/media/phenobot3/Extreme SSD/under-canopy-images/Test3/enviratron/s1/1667934848510924140.jpeg,1667934848.6008735,169.55187012656296,0.7198263026324886,168.61294313672448,-21.875,42.01802235666667,-93.77365372,344.388,4,2022-11-08-13-14-08-600,
/media/phenobot3/Extreme SSD/under-canopy-images/Test3/enviratron/s1/1667934848876858075.jpeg,1667934848.9372354,170.67704914483122,0.3557390200715695,170.02628709843054,-20.125,42.018020811666666,-93.77365453166666,344.41,4,2022-11-08-13-14-08-937,
/media/phenobot3/Extreme SSD/under-canopy-images/Test3/enviratron/s1/1667934849176935793.jpeg,1667934849.2650545,170.93180874556762,-0.43057128679217954,169.64197229207178,-20.25,42.01801908666667,-93.77365467,344.417,4,2022-11-08-13-14-09-265,
/media/phenobot3/Extreme SSD/under-canopy-images/Test3/enviratron/s1/1667934849540577853.jpeg,1667934849.601436,172.95051556654892,-0.7620648914986665,168.83137201960542,-18.5,42.01801691166666,-93.77365509166667,344.421,4,2022-11-08-13-14-09-601,
/media/phenobot3/Extreme SSD/under-canopy-images/Test3/enviratron/s1/1667934849842680634.jpeg,1667934849.9302635,173.59317372720832,-1.332235636774197,168.44946232542674,-16.062,42.018015141666666,-93.77365670666667,344.445,4,2022-11-08-13-14-09-930,
/media/phenobot3/Extreme SSD/under-canopy-images/Test3/enviratron/s1/1667934850195719423.jpeg,1667934850.2596834,173.00256943462665,-1.095679522865387,171.70217692765414,-16.187,42.018013485,-93.77365685333334,344.448,4,2022-11-08-13-14-10-259,
/media/phenobot3/Extreme SSD/under-canopy-images/Test3/enviratron/s1/1667934850529422813.jpeg,1667934850.596701,172.87652879134092,-1.143305310914326,172.5072399509821,-16.875,42.01801127666667,-93.77365652833333,344.447,4,2022-11-08-13-14-10-596,
/media/phenobot3/Extreme SSD/under-canopy-images/Test3/enviratron/s1/1667934850843447325.jpeg,1667934850.9170525,173.89684171881154,-1.185032352210042,172.20372879328318,-15.5,42.01800919,-93.77365722666667,344.461,4,2022-11-08-13-14-10-917,
/media/phenobot3/Extreme SSD/under-canopy-images/Test3/enviratron/s1/1667934851176300274.jpeg,1667934851.25718,172.24984753182395,-1.031320383454317,170.76506693938637,-16.625,42.01800726333333,-93.77365724833334,344.459,4,2022-11-08-13-14-11-257,
/media/phenobot3/Extreme SSD/under-canopy-images/Test3/enviratron/s1/1667934851510955164.jpeg,1667934851.5844717,170.80617846971285,-0.7444618450894254,170.5296763772461,-19.687,42.01800429833333,-93.773655115,344.425,4,2022-11-08-13-14-11-584,
/media/phenobot3/Extreme SSD/under-canopy-images/Test3/enviratron/s1/1667934851845528907.jpeg,1667934851.9240952,170.27266507550087,-0.002879603102225757,170.08658481136618,-20.812,42.018002198333335,-93.773654485,344.422,4,2022-11-08-13-14-11-924,
/media/phenobot3/Extreme SSD/under-canopy-images/Test3/enviratron/s1/1667934852180167697.jpeg,1667934852.2620103,169.66455060235944,-1.0825291718248562,167.91351978930857,-20.75,42.01800061,-93.77365445333334,344.431,4,2022-11-08-13-14-12-262,
/media/phenobot3/Extreme SSD/under-canopy-images/Test3/enviratron/s1/1667934852530312490.jpeg,1667934852.5941362,168.96023595993105,-1.4783201876423433,166.3033730010394,-21.687,42.017998045,-93.773653635,344.42,4,2022-11-08-13-14-12-594,
/media/phenobot3/Extreme SSD/under-canopy-images/Test3/enviratron/s1/1667934852845860262.jpeg,1667934852.9205897,168.73942248788225,-1.0475113193489138,168.24549895859457,-22.312,42.017996045,-93.773653205,344.405,4,2022-11-08-13-14-12-920,
/media/phenobot3/Extreme SSD/under-canopy-images/Test3/enviratron/s1/1667934853196843405.jpeg,1667934853.259057,169.6726031800631,-0.28798091894765293,175.36709246792756,-20.437,42.01799432833333,-93.77365418833334,344.426,4,2022-11-08-13-14-13-259,
/media/phenobot3/Extreme SSD/under-canopy-images/Test3/enviratron/s1/1667934853512292862.jpeg,1667934853.5869908,169.4712150903174,0.21038953888185224,177.20860917003435,-20.875,42.017991843333334,-93.77365424333334,344.433,4,2022-11-08-13-14-13-587,
/media/phenobot3/Extreme SSD/under-canopy-images/Test3/enviratron/s1/1667934853862670871.jpeg,1667934853.9364946,167.36457243108907,-0.7642878581237266,174.9883036467742,-22.562,42.017990495,-93.77365329166666,344.427,4,2022-11-08-13-14-13-936,
/media/phenobot3/Extreme SSD/under-canopy-images/Test3/enviratron/s1/1667934854195355278.jpeg,1667934854.258223,168.7972689904032,-0.24473997724351804,175.01427207622072,-22.5,42.01798820166667,-93.77365271833334,344.423,4,2022-11-08-13-14-14-258,
/media/phenobot3/Extreme SSD/under-canopy-images/Test3/enviratron/s1/1667934854510971561.jpeg,1667934854.5916927,170.66417689588752,-0.7599479331006032,171.3597088030368,-19.75,42.017985555,-93.773654335,344.458,4,2022-11-08-13-14-14-591,
/media/phenobot3/Extreme SSD/under-canopy-images/Test3/enviratron/s1/1667934854842520657.jpeg,1667934854.918001,171.92733195624075,-0.6675987423911628,170.5146246790172,-18.875,42.01798363333333,-93.77365457833334,344.464,4,2022-11-08-13-14-14-918,
/media/phenobot3/Extreme SSD/under-canopy-images/Test3/enviratron/s1/1667934855176211132.jpeg,1667934855.2579484,173.4084643685967,-0.886362036915301,169.7990873347056,-16.75,42.01798207,-93.77365540333334,344.481,4,2022-11-08-13-14-15-258,
/media/phenobot3/Extreme SSD/under-canopy-images/Test3/enviratron/s1/1667934855510487696.jpeg,1667934855.595653,173.05199993472365,-0.9573692580235695,167.46207985400395,-15.875,42.017979323333336,-93.773656095,344.497,4,2022-11-08-13-14-15-595,
/media/phenobot3/Extreme SSD/under-canopy-images/Test3/enviratron/s1/1667934855842759237.jpeg,1667934855.919377,174.79325685388451,-0.27807552015353365,169.0873013168402,-16.687,42.017977425,-93.77365575333333,344.487,4,2022-11-08-13-14-15-919,
/media/phenobot3/Extreme SSD/under-canopy-images/Test3/enviratron/s1/1667934856195908885.jpeg,1667934856.266491,173.43726505661382,-0.7881880617381677,171.0019637500759,-15.312,42.017974935,-93.77365699833334,344.509,4,2022-11-08-13-14-16-266,
/media/phenobot3/Extreme SSD/under-canopy-images/Test3/enviratron/s1/1667934856511815453.jpeg,1667934856.5869157,173.35906673825212,-0.625081863692594,171.61711506144542,-16.562,42.01797198166667,-93.77365610166666,344.495,4,2022-11-08-13-14-16-587,
/media/phenobot3/Extreme SSD/under-canopy-images/Test3/enviratron/s1/1667934856874254609.jpeg,1667934856.9397137,174.09607896282117,-0.39948901000556925,172.05772607956362,-15.625,42.01797021666667,-93.77365655166666,344.497,4,2022-11-08-13-14-16-939,
/media/phenobot3/Extreme SSD/under-canopy-images/Test3/enviratron/s1/1667934857176424259.jpeg,1667934857.2704425,173.44830626509432,-0.657415526792834,171.33023365683752,-16.812,42.017968446666664,-93.77365623333333,344.5,4,2022-11-08-13-14-17-270,
/media/phenobot3/Extreme SSD/under-canopy-images/Test3/enviratron/s1/1667934857530847996.jpeg,1667934857.606552,175.99671506891008,-0.2832241880862669,171.17589734200962,-14.562,42.017965706666665,-93.77365696666666,344.513,4,2022-11-08-13-14-17-606,
/media/phenobot3/Extreme SSD/under-canopy-images/Test3/enviratron/s1/1667934857863966155.jpeg,1667934857.941524,174.56520423796715,-0.5664756477856323,171.25127954811413,-14.187,42.01796406166667,-93.77365761166666,344.513,4,2022-11-08-13-14-17-941,
/media/phenobot3/Extreme SSD/under-canopy-images/Test3/enviratron/s1/1667934858177334834.jpeg,1667934858.2601657,173.7403888165515,-0.7318238631175659,171.39264662258975,-15.375,42.01796201333333,-93.77365680666666,344.518,4,2022-11-08-13-14-18-260,
/media/phenobot3/Extreme SSD/under-canopy-images/Test3/enviratron/s1/1667934858511029187.jpeg,1667934858.5902193,175.18573367275667,-0.7768259773252778,171.53439899766002,-15.062,42.01795928,-93.773656965,344.518,4,2022-11-08-13-14-18-590,
/media/phenobot3/Extreme SSD/under-canopy-images/Test3/enviratron/s1/1667934858844287839.jpeg,1667934858.9279203,173.75748910745216,-1.1735942790323308,169.99825900556937,-15.562,42.017957446666664,-93.77365675333333,344.512,4,2022-11-08-13-14-18-928,
/media/phenobot3/Extreme SSD/under-canopy-images/Test3/enviratron/s1/1667934859177107797.jpeg,1667934859.2520323,172.84012399723676,-1.445711260271262,168.82860492484423,-17.0,42.01795541333333,-93.77365638666667,344.516,4,2022-11-08-13-14-19-252,
/media/phenobot3/Extreme SSD/under-canopy-images/Test3/enviratron/s1/1667934859510083855.jpeg,1667934859.5858257,172.88039731350017,-0.964375483811063,168.02299366591507,-18.062,42.01795268,-93.77365531833334,344.503,4,2022-11-08-13-14-19-585,
/media/phenobot3/Extreme SSD/under-canopy-images/Test3/enviratron/s1/1667934859846235995.jpeg,1667934859.9187028,171.6090111106778,-1.4316736754564208,168.01990341049847,-17.812,42.01795070666667,-93.773655565,344.504,4,2022-11-08-13-14-19-918,
/media/phenobot3/Extreme SSD/under-canopy-images/Test3/enviratron/s1/1667934860176543127.jpeg,1667934860.2582035,171.3493376599922,-1.5477163458929666,167.30634774400664,-18.875,42.01794878,-93.77365518,344.505,4,2022-11-08-13-14-20-258,
/media/phenobot3/Extreme SSD/under-canopy-images/Test3/enviratron/s1/1667934860510776613.jpeg,1667934860.5927484,169.45509265105898,-1.0272044312898938,167.0123564217508,-21.25,42.017945866666665,-93.77365368833334,344.486,4,2022-11-08-13-14-20-592,
/media/phenobot3/Extreme SSD/under-canopy-images/Test3/enviratron/s1/1667934860843311163.jpeg,1667934860.9148936,168.57271861221744,-1.2413011829777871,168.14012677733942,-21.5,42.017944441666664,-93.77365379666666,344.489,4,2022-11-08-13-14-20-914,
/media/phenobot3/Extreme SSD/under-canopy-images/Test3/enviratron/s1/1667934861176958974.jpeg,1667934861.251374,168.8126705528314,-0.9730048756172354,168.56725325995262,-21.875,42.017942233333336,-93.77365388,344.5,4,2022-11-08-13-14-21-251,
/media/phenobot3/Extreme SSD/under-canopy-images/Test3/enviratron/s1/1667934861510367454.jpeg,1667934861.5899422,169.16722114581034,-0.8394394226060359,168.8062208832215,-22.0,42.017939825,-93.77365371,344.497,4,2022-11-08-13-14-21-590,
/media/phenobot3/Extreme SSD/under-canopy-images/Test3/enviratron/s1/1667934861848375811.jpeg,1667934861.926972,167.94529045880248,-0.8531790613152027,168.76646882236676,-23.062,42.017937286666665,-93.77365332666666,344.486,4,2022-11-08-13-14-21-927,
/media/phenobot3/Extreme SSD/under-canopy-images/Test3/enviratron/s1/1667934862207634882.jpeg,1667934862.2680817,168.53324244389546,-0.6992364491415929,168.6992427189636,-23.062,42.01793502333334,-93.77365314166667,344.485,4,2022-11-08-13-14-22-268,
/media/phenobot3/Extreme SSD/under-canopy-images/Test3/enviratron/s1/1667934862510553918.jpeg,1667934862.596666,170.67892630395846,-0.12642489763166406,171.61588951626635,-20.75,42.01793353,-93.77365448666667,344.514,4,2022-11-08-13-14-22-596,
/media/phenobot3/Extreme SSD/under-canopy-images/Test3/enviratron/s1/1667934862872327388.jpeg,1667934862.9341986,172.74628357999597,0.008462421471609386,173.49622311783898,-17.875,42.017931635,-93.773655965,344.539,4,2022-11-08-13-14-22-934,
/media/phenobot3/Extreme SSD/under-canopy-images/Test3/enviratron/s1/1667934863176472996.jpeg,1667934863.2614646,173.53253583357227,-0.5859620264799861,172.46134663085937,-17.125,42.01792975,-93.7736564,344.547,4,2022-11-08-13-14-23-261,
/media/phenobot3/Extreme SSD/under-canopy-images/Test3/enviratron/s1/1667934863529590513.jpeg,1667934863.5958598,174.79600113403754,-0.6678741468992789,171.76598650499724,-16.312,42.01792709833333,-93.77365685666666,344.562,4,2022-11-08-13-14-23-595,
/media/phenobot3/Extreme SSD/under-canopy-images/Test3/enviratron/s1/1667934863844673167.jpeg,1667934863.9353724,174.22026075880174,-0.7239910020460979,170.61496758916172,-15.0,42.01792465,-93.77365795166666,344.57,4,2022-11-08-13-14-23-935,
/media/phenobot3/Extreme SSD/under-canopy-images/Test3/enviratron/s1/1667934864195830582.jpeg,1667934864.2636251,173.26237077269042,-1.0266543605423322,170.28116032779477,-17.0,42.017923341666666,-93.77365696166666,344.562,4,2022-11-08-13-14-24-263,
/media/phenobot3/Extreme SSD/under-canopy-images/Test3/enviratron/s1/1667934864512308153.jpeg,1667934864.5845141,173.07002550705926,-0.9788147770292108,169.844228919976,-17.062,42.01792064166667,-93.77365674833334,344.559,4,2022-11-08-13-14-24-584,
/media/phenobot3/Extreme SSD/under-canopy-images/Test3/enviratron/s1/1667934864874389486.jpeg,1667934864.9385767,171.85680470960827,-0.5813251996594655,170.00875590519735,-17.375,42.017918683333335,-93.77365673,344.557,4,2022-11-08-13-14-24-938,
/media/phenobot3/Extreme SSD/under-canopy-images/Test3/enviratron/s1/1667934865176670701.jpeg,1667934865.2639832,169.91129608249184,-0.5880448229297992,170.8993675999663,-19.562,42.017916735,-93.77365589166666,344.546,4,2022-11-08-13-14-25-264,
/media/phenobot3/Extreme SSD/under-canopy-images/Test3/enviratron/s1/1667934865543027640.jpeg,1667934865.6052892,169.36115393554635,-0.14686158168368968,170.92966310888568,-22.062,42.01791419833334,-93.77365425166667,344.521,4,2022-11-08-13-14-25-605,
/media/phenobot3/Extreme SSD/under-canopy-images/Test3/enviratron/s1/1667934865845693340.jpeg,1667934865.9330184,168.95212388044084,-0.19753165625057917,171.25675282694547,-21.5,42.017912155,-93.77365445,344.529,4,2022-11-08-13-14-25-933,
/media/phenobot3/Extreme SSD/under-canopy-images/Test3/enviratron/s1/1667934866206565928.jpeg,1667934866.2679021,166.76528186158836,-0.26678294451029555,171.22540568203345,-22.562,42.017909581666665,-93.77365384166667,344.524,4,2022-11-08-13-14-26-267,
/media/phenobot3/Extreme SSD/under-canopy-images/Test3/enviratron/s1/1667934866510866410.jpeg,1667934866.5942807,168.2667157488024,0.05647591864992744,171.20694657068228,-24.125,42.017907916666665,-93.77365256833333,344.503,4,2022-11-08-13-14-26-594,
/media/phenobot3/Extreme SSD/under-canopy-images/Test3/enviratron/s1/1667934866871750539.jpeg,1667934866.9333389,171.16300883437515,-0.6565803210063696,170.06412072959225,-19.5,42.01790599666667,-93.773654915,344.548,4,2022-11-08-13-14-26-933,
/media/phenobot3/Extreme SSD/under-canopy-images/Test3/enviratron/s1/1667934867176922016.jpeg,1667934867.2620208,172.0052764837682,-0.9378755486311077,170.36711508702686,-19.25,42.01790416,-93.773655475,344.552,4,2022-11-08-13-14-27-262,
/media/phenobot3/Extreme SSD/under-canopy-images/Test3/enviratron/s1/1667934867541225914.jpeg,1667934867.6015122,170.19824074371905,-1.1522022761877977,170.49640450467558,-21.375,42.01790170666666,-93.77365428833333,344.537,4,2022-11-08-13-14-27-601,
/media/phenobot3/Extreme SSD/under-canopy-images/Test3/enviratron/s1/1667934867844937800.jpeg,1667934867.9255965,170.4312255559783,-0.8691420506727066,170.0783306209685,-21.625,42.017899928333335,-93.77365377,344.528,4,2022-11-08-13-14-27-925,
/media/phenobot3/Extreme SSD/under-canopy-images/Test3/enviratron/s1/1667934868207135027.jpeg,1667934868.2658129,171.28285478535835,-1.094349314817213,170.6376663810597,-18.25,42.017898125,-93.773655745,344.565,4,2022-11-08-13-14-28-265,
/media/phenobot3/Extreme SSD/under-canopy-images/Test3/enviratron/s1/1667934868509218893.jpeg,1667934868.593271,170.40080845737754,-1.315290616141824,170.291441909041,-20.562,42.01789556,-93.77365481333334,344.551,4,2022-11-08-13-14-28-593,
/media/phenobot3/Extreme SSD/under-canopy-images/Test3/enviratron/s1/1667934868871888947.jpeg,1667934868.9314115,170.33014491740659,-1.1466381287384275,170.2507213199082,-20.875,42.01789355,-93.77365454833334,344.555,4,2022-11-08-13-14-28-931,
/media/phenobot3/Extreme SSD/under-canopy-images/Test3/enviratron/s1/1667934869176529339.jpeg,1667934869.2675052,170.75320023119366,-0.6859866363825367,169.82368799824366,-21.0,42.017891515,-93.77365433166666,344.551,4,2022-11-08-13-14-29-267,
/media/phenobot3/Extreme SSD/under-canopy-images/Test3/enviratron/s1/1667934869540136446.jpeg,1667934869.5994315,168.5135159539311,-0.4684062991138388,169.80321425973648,-20.562,42.017888531666664,-93.77365496833333,344.563,4,2022-11-08-13-14-29-599,
/media/phenobot3/Extreme SSD/under-canopy-images/Test3/enviratron/s1/1667934869843453743.jpeg,1667934869.9335444,167.55452617489695,-0.4145379208458431,170.52696423423552,-24.375,42.01788701666667,-93.77365298166667,344.531,4,2022-11-08-13-14-29-933,
/media/phenobot3/Extreme SSD/under-canopy-images/Test3/enviratron/s1/1667934870208431826.jpeg,1667934870.271164,169.25487714051337,0.35347561390032695,169.80043036786464,-22.687,42.017885115,-93.77365317,344.542,4,2022-11-08-13-14-30-271,
/media/phenobot3/Extreme SSD/under-canopy-images/Test3/enviratron/s1/1667934870510567005.jpeg,1667934870.5973647,168.59785723787704,-0.25049407722960565,169.42271319390417,-21.812,42.01788251833333,-93.77365416666666,344.554,4,2022-11-08-13-14-30-597,
/media/phenobot3/Extreme SSD/under-canopy-images/Test3/enviratron/s1/1667934870876580634.jpeg,1667934870.9416344,167.6200258570151,-0.7663622248285689,169.6774085064583,-24.0,42.017880248333334,-93.77365318,344.535,4,2022-11-08-13-14-30-941,
/media/phenobot3/Extreme SSD/under-canopy-images/Test3/enviratron/s1/1667934871176670120.jpeg,1667934871.2630892,168.16069016322135,-0.3427089230766745,169.31003754111117,-24.187,42.01787908,-93.77365238833333,344.519,4,2022-11-08-13-14-31-263,
/media/phenobot3/Extreme SSD/under-canopy-images/Test3/enviratron/s1/1667934871540642554.jpeg,1667934871.6027403,170.0908577120961,-0.5640765194961259,168.30904910811486,-21.062,42.01787640333333,-93.77365439333333,344.56,4,2022-11-08-13-14-31-602,
/media/phenobot3/Extreme SSD/under-canopy-images/Test3/enviratron/s1/1667934871842467161.jpeg,1667934871.932287,169.21357877566714,-1.3659139602259252,168.6562791820151,-21.375,42.017874836666664,-93.773654505,344.56,4,2022-11-08-13-14-31-932,
/media/phenobot3/Extreme SSD/under-canopy-images/Test3/enviratron/s1/1667934872206093453.jpeg,1667934872.2694495,169.7733566885918,-0.08288342676806548,170.3184913700018,-22.5,42.017872195,-93.77365351166667,344.547,4,2022-11-08-13-14-32-269,
/media/phenobot3/Extreme SSD/under-canopy-images/Test3/enviratron/s1/1667934872511135207.jpeg,1667934872.608735,171.24912064576267,-0.16896853065090503,171.85272734303456,-18.812,42.017869495,-93.773655785,344.589,4,2022-11-08-13-14-32-608,
/media/phenobot3/Extreme SSD/under-canopy-images/Test3/enviratron/s1/1667934872871518242.jpeg,1667934872.9346316,169.88065000781884,0.6430586927156872,173.14959835150694,-19.125,42.017867001666666,-93.77365605,344.593,4,2022-11-08-13-14-32-934,
/media/phenobot3/Extreme SSD/under-canopy-images/Test3/enviratron/s1/1667934873176820788.jpeg,1667934873.2710376,166.82589067018765,0.8633237252875423,174.17820422373308,-23.937,42.0178655,-93.77365392166666,344.559,4,2022-11-08-13-14-33-271,
/media/phenobot3/Extreme SSD/under-canopy-images/Test3/enviratron/s1/1667934873542692575.jpeg,1667934873.6060643,167.94141069686088,1.3728989806394765,175.20531580686966,-24.562,42.017862961666665,-93.773652625,344.529,4,2022-11-08-13-14-33-606,
/media/phenobot3/Extreme SSD/under-canopy-images/Test3/enviratron/s1/1667934873846337189.jpeg,1667934873.9290862,170.98937507387217,1.3596120640549054,175.22661240715007,-20.187,42.017860748333334,-93.77365484166667,344.572,4,2022-11-08-13-14-33-929,
/media/phenobot3/Extreme SSD/under-canopy-images/Test3/enviratron/s1/1667934874209087051.jpeg,1667934874.2714148,173.4906544702678,0.11844342363764387,173.82218936526536,-19.125,42.017858843333336,-93.77365533833333,344.579,4,2022-11-08-13-14-34-271,
/media/phenobot3/Extreme SSD/under-canopy-images/Test3/enviratron/s1/1667934874510037039.jpeg,1667934874.5956964,177.05762051099975,-0.4584034172310416,172.24048871121894,-15.062,42.01785690333333,-93.77365717166667,344.605,4,2022-11-08-13-14-34-595,
/media/phenobot3/Extreme SSD/under-canopy-images/Test3/enviratron/s1/1667934874870759827.jpeg,1667934874.9322371,175.76989068216744,-0.7758176592870394,169.6370911295734,-13.312,42.01785434166667,-93.77365849666667,344.612,4,2022-11-08-13-14-34-932,
/media/phenobot3/Extreme SSD/under-canopy-images/Test3/enviratron/s1/1667934875176049039.jpeg,1667934875.2639968,174.17272137044327,-1.6629004317503424,168.54736942379236,-16.75,42.017852721666664,-93.773656915,344.604,4,2022-11-08-13-14-35-264,
/media/phenobot3/Extreme SSD/under-canopy-images/Test3/enviratron/s1/1667934875539409086.jpeg,1667934875.6008043,173.08178278033043,-1.0040491945898244,168.35194786479593,-17.625,42.01785000666667,-93.77365593833333,344.599,4,2022-11-08-13-14-35-600,
/media/phenobot3/Extreme SSD/under-canopy-images/Test3/enviratron/s1/1667934875842326908.jpeg,1667934875.9326303,171.0273133879712,-0.7254179773565435,169.54415921215104,-19.0,42.01784802833333,-93.77365574666666,344.589,4,2022-11-08-13-14-35-932,
/media/phenobot3/Extreme SSD/under-canopy-images/Test3/enviratron/s1/1667934876209217279.jpeg,1667934876.2727973,169.30486222162511,-0.7494872361020207,170.20968724887925,-21.75,42.01784543,-93.77365403833333,344.564,4,2022-11-08-13-14-36-272,
/media/phenobot3/Extreme SSD/under-canopy-images/Test3/enviratron/s1/1667934876510599909.jpeg,1667934876.5940506,170.57653788298208,-0.18385640944421835,170.6243173794715,-22.187,42.017843985,-93.77365341666666,344.557,4,2022-11-08-13-14-36-594,
/media/phenobot3/Extreme SSD/under-canopy-images/Test3/enviratron/s1/1667934876875650141.jpeg,1667934876.9385674,171.7266846231699,-0.3485286970540113,170.88052628437342,-19.0,42.017841651666664,-93.77365526666667,344.587,4,2022-11-08-13-14-36-938,
/media/phenobot3/Extreme SSD/under-canopy-images/Test3/enviratron/s1/1667934877176721486.jpeg,1667934877.2674894,171.2104301403021,-0.27616458225489837,171.11275987699045,-20.687,42.017839785,-93.77365471833333,344.582,4,2022-11-08-13-14-37-267,
/media/phenobot3/Extreme SSD/under-canopy-images/Test3/enviratron/s1/1667934877540205040.jpeg,1667934877.6045122,172.12601427855762,0.3658244336047845,170.88524427915127,-20.375,42.017837308333334,-93.77365433666667,344.577,4,2022-11-08-13-14-37-604,
/media/phenobot3/Extreme SSD/under-canopy-images/Test3/enviratron/s1/1667934877843313092.jpeg,1667934877.9314022,171.50032618770786,0.5578576731889143,171.1281205525547,-18.375,42.017834891666666,-93.773655675,344.598,4,2022-11-08-13-14-37-931,
/media/phenobot3/Extreme SSD/under-canopy-images/Test3/enviratron/s1/1667934878208436586.jpeg,1667934878.2763288,172.27700790980342,0.25186364910230025,171.76829547925186,-19.437,42.01783324,-93.77365535666667,344.596,4,2022-11-08-13-14-38-276,
/media/phenobot3/Extreme SSD/under-canopy-images/Test3/enviratron/s1/1667934878510321549.jpeg,1667934878.5955038,174.40225960779557,0.5582479810886866,170.79226699885365,-17.375,42.017830905,-93.77365596333334,344.602,4,2022-11-08-13-14-38-595,
/media/phenobot3/Extreme SSD/under-canopy-images/Test3/enviratron/s1/1667934878877294677.jpeg,1667934878.937403,171.7961186961393,0.19434081438905768,170.8514227728444,-17.75,42.01782884833333,-93.77365638,344.607,4,2022-11-08-13-14-38-937,
/media/phenobot3/Extreme SSD/under-canopy-images/Test3/enviratron/s1/1667934879177192628.jpeg,1667934879.2627017,169.9428486154515,-0.5040009727809688,170.97481189169883,-20.875,42.017826855,-93.77365486,344.578,4,2022-11-08-13-14-39-262,
/media/phenobot3/Extreme SSD/under-canopy-images/Test3/enviratron/s1/1667934879540769521.jpeg,1667934879.6034913,170.05892606302837,-0.7301107765832776,167.74321313329548,-22.187,42.017824438333335,-93.77365346,344.555,4,2022-11-08-13-14-39-603,
/media/phenobot3/Extreme SSD/under-canopy-images/Test3/enviratron/s1/1667934879842823521.jpeg,1667934879.931773,170.34737515698365,-0.6646743495802501,166.0394831320881,-19.75,42.01782223166666,-93.77365462833333,344.574,4,2022-11-08-13-14-39-931,
/media/phenobot3/Extreme SSD/under-canopy-images/Test3/enviratron/s1/1667934880209131030.jpeg,1667934880.2707744,169.66900430306086,-0.3581452734353075,165.58695565601323,-21.25,42.01781940666667,-93.77365388166666,344.56,4,2022-11-08-13-14-40-270,
/media/phenobot3/Extreme SSD/under-canopy-images/Test3/enviratron/s1/1667934880510341628.jpeg,1667934880.5937662,169.23840826930996,0.1981481022879945,167.15905552453512,-22.562,42.01781773166667,-93.77365323,344.548,4,2022-11-08-13-14-40-593,
/media/phenobot3/Extreme SSD/under-canopy-images/Test3/enviratron/s1/1667934880871527277.jpeg,1667934880.9326854,168.9625899855448,0.29721720724668116,167.860121478893,-22.312,42.0178157,-93.77365353166667,344.549,4,2022-11-08-13-14-40-932,
/media/phenobot3/Extreme SSD/under-canopy-images/Test3/enviratron/s1/1667934881176126937.jpeg,1667934881.261516,169.34577960004123,0.5785031383294484,168.4524220657869,-22.125,42.017813845,-93.77365388833333,344.555,4,2022-11-08-13-14-41-261,
/media/phenobot3/Extreme SSD/under-canopy-images/Test3/enviratron/s1/1667934881543080517.jpeg,1667934881.6047258,168.82299146228002,0.11203321717409066,169.13279089708334,-23.125,42.01781155166667,-93.77365328166667,344.542,4,2022-11-08-13-14-41-604,
/media/phenobot3/Extreme SSD/under-canopy-images/Test3/enviratron/s1/1667934881842635937.jpeg,1667934881.9355536,171.25280427121714,0.2895117898813841,169.2935147316239,-20.625,42.017809486666664,-93.77365443333333,344.555,4,2022-11-08-13-14-41-935,
/media/phenobot3/Extreme SSD/under-canopy-images/Test3/enviratron/s1/1667934882206827938.jpeg,1667934882.269754,171.7992196253128,-0.027088963417359405,169.52658385910394,-18.437,42.017807518333335,-93.77365585666666,344.578,4,2022-11-08-13-14-42-269,
/media/phenobot3/Extreme SSD/under-canopy-images/Test3/enviratron/s1/1667934882510290330.jpeg,1667934882.597319,172.34746928621416,0.004684437318249184,172.01516779963782,-19.437,42.01780517666667,-93.773655145,344.56,4,2022-11-08-13-14-42-597,
/media/phenobot3/Extreme SSD/under-canopy-images/Test3/enviratron/s1/1667934882873553441.jpeg,1667934882.9357843,176.1464548509577,-0.06723691001514837,173.3228517571264,-15.562,42.01780345,-93.773656875,344.59,4,2022-11-08-13-14-42-935,
/media/phenobot3/Extreme SSD/under-canopy-images/Test3/enviratron/s1/1667934883176938280.jpeg,1667934883.267228,175.9031904326136,-0.6674195767247297,174.62372238144388,-12.562,42.01780155833333,-93.773659205,344.615,4,2022-11-08-13-14-43-267,
/media/phenobot3/Extreme SSD/under-canopy-images/Test3/enviratron/s1/1667934883543395281.jpeg,1667934883.6051335,174.8951925156931,-0.16964447735152244,175.91592425351072,-14.187,42.017798668333334,-93.77365847,344.606,4,2022-11-08-13-14-43-605,
/media/phenobot3/Extreme SSD/under-canopy-images/Test3/enviratron/s1/1667934883842891856.jpeg,1667934883.9318714,174.21479117875788,-0.5659675067161948,171.5944681480474,-16.5,42.0177971,-93.773657135,344.594,4,2022-11-08-13-14-43-931,
/media/phenobot3/Extreme SSD/under-canopy-images/Test3/enviratron/s1/1667934884208173659.jpeg,1667934884.2728748,173.583323157607,-0.09546341823173518,171.66900298618376,-17.0,42.01779419333333,-93.77365670833333,344.584,4,2022-11-08-13-14-44-272,
/media/phenobot3/Extreme SSD/under-canopy-images/Test3/enviratron/s1/1667934884510734225.jpeg,1667934884.5981264,174.0534127726934,0.4591953847137568,171.59054096196363,-16.75,42.017791915,-93.77365657833333,344.583,4,2022-11-08-13-14-44-598,
/media/phenobot3/Extreme SSD/under-canopy-images/Test3/enviratron/s1/1667934884873567835.jpeg,1667934884.9344928,173.01182844756457,0.15442129921624867,171.4014596611529,-17.062,42.01779031,-93.77365648333334,344.584,4,2022-11-08-13-14-44-934,
/media/phenobot3/Extreme SSD/under-canopy-images/Test3/enviratron/s1/1667934885176681124.jpeg,1667934885.2636526,173.22473666680668,0.4117199837851821,169.0034033854939,-18.062,42.01778824666667,-93.77365555166666,344.571,4,2022-11-08-13-14-45-263,
/media/phenobot3/Extreme SSD/under-canopy-images/Test3/enviratron/s1/1667934885539488024.jpeg,1667934885.59969,173.9856075412027,-0.12322120439159105,165.1126530451647,-16.562,42.01778546,-93.77365635833333,344.577,4,2022-11-08-13-14-45-599,
/media/phenobot3/Extreme SSD/under-canopy-images/Test3/enviratron/s1/1667934885842451370.jpeg,1667934885.924019,174.1287619548342,-0.23037319283323046,166.34771013092708,-16.812,42.01778368,-93.773656295,344.568,4,2022-11-08-13-14-45-924,
/media/phenobot3/Extreme SSD/under-canopy-images/Test3/enviratron/s1/1667934886207108887.jpeg,1667934886.2675006,173.3456279293639,0.47405094421742605,168.58301165853894,-16.25,42.017780556666665,-93.77365675833333,344.582,4,2022-11-08-13-14-46-267,
/media/phenobot3/Extreme SSD/under-canopy-images/Test3/enviratron/s1/1667934886510141313.jpeg,1667934886.5990312,173.73502513120647,0.7260203560412094,173.1614192948371,-16.812,42.01777931833333,-93.773656505,344.572,4,2022-11-08-13-14-46-599,
/media/phenobot3/Extreme SSD/under-canopy-images/Test3/enviratron/s1/1667934886874571458.jpeg,1667934886.9340823,174.50901611681448,0.09408824465374678,173.87433702448737,-15.875,42.017777275,-93.77365705,344.574,4,2022-11-08-13-14-46-934,
/media/phenobot3/Extreme SSD/under-canopy-images/Test3/enviratron/s1/1667934887175379626.jpeg,1667934887.2518587,175.57145686697328,0.21814054576364655,172.52521520230505,-15.187,42.01777525666667,-93.77365737333334,344.576,4,2022-11-08-13-14-47-251,
/media/phenobot3/Extreme SSD/under-canopy-images/Test3/enviratron/s1/1667934887539785958.jpeg,1667934887.601345,173.58981918297954,-0.2991293486833185,171.20240408903183,-16.125,42.01777276666667,-93.77365695,344.569,4,2022-11-08-13-14-47-601,
/media/phenobot3/Extreme SSD/under-canopy-images/Test3/enviratron/s1/1667934887842644924.jpeg,1667934887.927093,172.83445168993887,-0.3803859049825066,171.03542101457202,-17.437,42.017771085,-93.77365620333333,344.563,4,2022-11-08-13-14-47-927,
/media/phenobot3/Extreme SSD/under-canopy-images/Test3/enviratron/s1/1667934888196152295.jpeg,1667934888.2592397,172.86574840296285,-0.08396837021365011,170.92313214274887,-16.75,42.01776892666667,-93.77365629833334,344.559,4,2022-11-08-13-14-48-259,
/media/phenobot3/Extreme SSD/under-canopy-images/Test3/enviratron/s1/1667934888511885207.jpeg,1667934888.5867171,173.04581449942273,-0.1078638580604801,171.25599975560542,-16.75,42.01776643,-93.773656565,344.564,4,2022-11-08-13-14-48-586,
/media/phenobot3/Extreme SSD/under-canopy-images/Test3/enviratron/s1/1667934888861167635.jpeg,1667934888.9314053,172.70762878924057,-0.006155330382098161,170.66749884950204,-17.937,42.017764213333336,-93.77365604333333,344.555,4,2022-11-08-13-14-48-931,
/media/phenobot3/Extreme SSD/under-canopy-images/Test3/enviratron/s1/1667934889178841669.jpeg,1667934889.2522373,173.3261368332392,0.3027227742512073,170.33587941141897,-18.125,42.017762393333335,-93.77365548666667,344.551,4,2022-11-08-13-14-49-252,
/media/phenobot3/Extreme SSD/under-canopy-images/Test3/enviratron/s1/1667934889528834017.jpeg,1667934889.5956101,172.2318088771728,-0.12217920095760995,169.66994071178115,-17.562,42.017759833333336,-93.77365594166666,344.547,4,2022-11-08-13-14-49-595,
/media/phenobot3/Extreme SSD/under-canopy-images/Test3/enviratron/s1/1667934889844446032.jpeg,1667934889.926917,170.98487647507108,0.23296175629032526,169.41861868423345,-19.937,42.017757765,-93.77365474666667,344.53,4,2022-11-08-13-14-49-927,
/media/phenobot3/Extreme SSD/under-canopy-images/Test3/enviratron/s1/1667934890208954059.jpeg,1667934890.2716908,171.62783653834376,0.46277905268710606,169.47565709192693,-19.687,42.01775573,-93.77365450166667,344.526,4,2022-11-08-13-14-50-271,
/media/phenobot3/Extreme SSD/under-canopy-images/Test3/enviratron/s1/1667934890510834188.jpeg,1667934890.6007001,172.60041093052516,0.6179818352794493,169.0091238057438,-18.25,42.01775329,-93.77365542333334,344.537,4,2022-11-08-13-14-50-600,
/media/phenobot3/Extreme SSD/under-canopy-images/Test3/enviratron/s1/1667934890874662096.jpeg,1667934890.934934,172.27487430481952,0.3167812160643377,168.69357227558868,-18.125,42.017751115,-93.773655525,344.545,4,2022-11-08-13-14-50-935,
/media/phenobot3/Extreme SSD/under-canopy-images/Test3/enviratron/s1/1667934891176940337.jpeg,1667934891.2628682,172.8669225198087,0.3114478758802356,167.62347878398776,-18.5,42.017748573333336,-93.77365490666666,344.53,4,2022-11-08-13-14-51-262,
/media/phenobot3/Extreme SSD/under-canopy-images/Test3/enviratron/s1/1667934891542343396.jpeg,1667934891.60355,173.51994798878093,-0.2369611644706386,166.9804845196331,-15.75,42.017746046666666,-93.77365685666666,344.557,4,2022-11-08-13-14-51-603,
/media/phenobot3/Extreme SSD/under-canopy-images/Test3/enviratron/s1/1667934891843658710.jpeg,1667934891.9297016,173.3484654966657,0.07622259403200679,167.37065470286106,-17.0,42.01774375833333,-93.77365637333334,344.538,4,2022-11-08-13-14-51-929,
/media/phenobot3/Extreme SSD/under-canopy-images/Test3/enviratron/s1/1667934892207857119.jpeg,1667934892.272725,175.6802115435883,0.07910684310945773,166.74831195099227,-15.375,42.01774118666667,-93.77365728666666,344.547,4,2022-11-08-13-14-52-272,
/media/phenobot3/Extreme SSD/under-canopy-images/Test3/enviratron/s1/1667934892509177741.jpeg,1667934892.5854876,176.03908513301138,-0.4258676530925952,167.2351157053492,-13.375,42.017739283333334,-93.77365861166666,344.559,4,2022-11-08-13-14-52-585,
/media/phenobot3/Extreme SSD/under-canopy-images/Test3/enviratron/s1/1667934892872240935.jpeg,1667934892.933393,176.1966457671489,0.34820083647357447,172.3549637885915,-13.625,42.01773656666666,-93.77365891333334,344.554,4,2022-11-08-13-14-52-933,
/media/phenobot3/Extreme SSD/under-canopy-images/Test3/enviratron/s1/1667934893176575355.jpeg,1667934893.2522993,176.81496545875194,0.9094582813631774,176.11204819323626,-14.187,42.01773435333333,-93.77365831,344.547,4,2022-11-08-13-14-53-252,
/media/phenobot3/Extreme SSD/under-canopy-images/Test3/enviratron/s1/1667934893542488682.jpeg,1667934893.603401,175.56344368887403,0.7082149249952557,172.44722185107386,-13.0,42.017731663333336,-93.77365930666667,344.559,4,2022-11-08-13-14-53-603,
/media/phenobot3/Extreme SSD/under-canopy-images/Test3/enviratron/s1/1667934893842369929.jpeg,1667934893.935621,173.9363123261008,0.518006942964873,170.78748460047908,-16.437,42.017729173333336,-93.773657425,344.539,4,2022-11-08-13-14-53-935,
/media/phenobot3/Extreme SSD/under-canopy-images/Test3/enviratron/s1/1667934894207723252.jpeg,1667934894.2736707,173.86071176785495,0.19006808741146666,170.36939884923714,-17.062,42.01772655833334,-93.77365680166666,344.523,4,2022-11-08-13-14-54-273,
/media/phenobot3/Extreme SSD/under-canopy-images/Test3/enviratron/s1/1667934894510723946.jpeg,1667934894.5927286,174.2943350028074,-0.15939045824375436,170.34728920102827,-16.0,42.01772468,-93.773657345,344.533,4,2022-11-08-13-14-54-592,
/media/phenobot3/Extreme SSD/under-canopy-images/Test3/enviratron/s1/1667934894873906322.jpeg,1667934894.9355001,174.29963561021077,0.41029734128025425,170.68993860359262,-17.25,42.017722013333334,-93.77365659166666,344.519,4,2022-11-08-13-14-54-935,
/media/phenobot3/Extreme SSD/under-canopy-images/Test3/enviratron/s1/1667934895175903341.jpeg,1667934895.268609,173.23500466193275,-0.029623091900404665,170.308817656138,-17.375,42.01771928,-93.773656355,344.513,4,2022-11-08-13-14-55-268,
/media/phenobot3/Extreme SSD/under-canopy-images/Test3/enviratron/s1/1667934895542232111.jpeg,1667934895.605767,173.35246841234198,0.577638997527966,170.68728525022667,-17.312,42.017717151666666,-93.77365625166667,344.514,4,2022-11-08-13-14-55-605,
/media/phenobot3/Extreme SSD/under-canopy-images/Test3/enviratron/s1/1667934895843801786.jpeg,1667934895.917023,173.55813393286306,0.47198348954992386,171.0902556431436,-17.312,42.01771497166666,-93.77365622666667,344.511,4,2022-11-08-13-14-55-917,
/media/phenobot3/Extreme SSD/under-canopy-images/Test3/enviratron/s1/1667934896206431410.jpeg,1667934896.2691464,174.26063012074596,0.2601420148220996,171.02690784993095,-16.187,42.017711973333334,-93.77365680666666,344.525,4,2022-11-08-13-14-56-269,
/media/phenobot3/Extreme SSD/under-canopy-images/Test3/enviratron/s1/1667934896510822778.jpeg,1667934896.602248,172.55477078614408,0.40694340904804066,170.7191568789968,-17.0,42.01770937166667,-93.77365626833334,344.513,4,2022-11-08-13-14-56-602,
/media/phenobot3/Extreme SSD/under-canopy-images/Test3/enviratron/s1/1667934896872571452.jpeg,1667934896.9342554,171.85246640707132,0.14130183253711068,170.9216335390171,-19.312,42.01770808,-93.77365494666667,344.482,4,2022-11-08-13-14-56-934,
/media/phenobot3/Extreme SSD/under-canopy-images/Test3/enviratron/s1/1667934897177204260.jpeg,1667934897.265759,172.74874993208834,0.2548646196252304,170.68330598345545,-17.937,42.017705625,-93.77365552,344.492,4,2022-11-08-13-14-57-265,
/media/phenobot3/Extreme SSD/under-canopy-images/Test3/enviratron/s1/1667934897544227207.jpeg,1667934897.606651,173.3451119390235,0.13837852819791857,170.57950324022283,-17.125,42.01770246,-93.77365606833334,344.5,4,2022-11-08-13-14-57-606,
/media/phenobot3/Extreme SSD/under-canopy-images/Test3/enviratron/s1/1667934897843880387.jpeg,1667934897.9223068,173.10360354794904,0.10061771532662812,170.2802295669258,-18.125,42.01770033333333,-93.773655335,344.49,4,2022-11-08-13-14-57-922,
/media/phenobot3/Extreme SSD/under-canopy-images/Test3/enviratron/s1/1667934898212867916.jpeg,1667934898.2787292,172.62988613593438,0.11640087995451194,170.38346551980908,-17.75,42.01769739833333,-93.77365568833333,344.499,4,2022-11-08-13-14-58-278,
/media/phenobot3/Extreme SSD/under-canopy-images/Test3/enviratron/s1/1667934898510978595.jpeg,1667934898.592333,172.32659607413464,-0.10451629615724516,170.25234972741166,-17.812,42.017694883333334,-93.7736556,344.488,4,2022-11-08-13-14-58-592,
/media/phenobot3/Extreme SSD/under-canopy-images/Test3/enviratron/s1/1667934898871727105.jpeg,1667934898.9323347,172.34342810142635,-0.4093877422485962,169.798713377526,-18.25,42.01769304,-93.77365535166666,344.488,4,2022-11-08-13-14-58-932,
/media/phenobot3/Extreme SSD/under-canopy-images/Test3/enviratron/s1/1667934899176876664.jpeg,1667934899.261273,172.81099552404604,-0.36970904831010154,169.1493983869104,-18.187,42.01769099166667,-93.77365521166666,344.484,4,2022-11-08-13-14-59-261,
/media/phenobot3/Extreme SSD/under-canopy-images/Test3/enviratron/s1/1667934899543670757.jpeg,1667934899.6031182,171.3316075513401,-0.5187519635254503,168.6438498249166,-19.125,42.01768790166667,-93.77365488333334,344.478,4,2022-11-08-13-14-59-603,
/media/phenobot3/Extreme SSD/under-canopy-images/Test3/enviratron/s1/1667934899843447543.jpeg,1667934899.9277554,172.43893307415632,-0.19340005817369255,168.40932455827692,-19.0,42.01768573333333,-93.77365462666667,344.47,4,2022-11-08-13-14-59-927,
/media/phenobot3/Extreme SSD/under-canopy-images/Test3/enviratron/s1/1667934900208357407.jpeg,1667934900.2677872,174.1359191251115,-0.11773178135673784,167.45566839515863,-15.875,42.01768339666667,-93.7736562,344.499,4,2022-11-08-13-15-00-267,
/media/phenobot3/Extreme SSD/under-canopy-images/Test3/enviratron/s1/1667934900510123913.jpeg,1667934900.591383,174.74045155372346,0.009197608305458542,166.76541467234668,-15.812,42.017680615,-93.77365659,344.505,4,2022-11-08-13-15-00-591,
/media/phenobot3/Extreme SSD/under-canopy-images/Test3/enviratron/s1/1667934900875082534.jpeg,1667934900.9370787,175.5083747824302,0.3749696165660391,165.10731277046852,-15.562,42.017678026666665,-93.773656415,344.496,4,2022-11-08-13-15-00-937,
/media/phenobot3/Extreme SSD/under-canopy-images/Test3/enviratron/s1/1667934901177048141.jpeg,1667934901.2533886,176.70814933234502,0.7243007684231147,166.63245563557402,-13.75,42.01767584666667,-93.77365790666667,344.507,4,2022-11-08-13-15-01-253,
/media/phenobot3/Extreme SSD/under-canopy-images/Test3/enviratron/s1/1667934901539881113.jpeg,1667934901.601619,177.67650313056674,1.1116831402964673,168.243035584873,-11.937,42.017672608333335,-93.77365926666667,344.509,4,2022-11-08-13-15-01-601,
/media/phenobot3/Extreme SSD/under-canopy-images/Test3/enviratron/s1/1667934901843418295.jpeg,1667934901.9270487,177.33531835455983,0.6670813816127291,167.89386594806567,-12.125,42.017670243333335,-93.77365942166666,344.505,4,2022-11-08-13-15-01-927,
/media/phenobot3/Extreme SSD/under-canopy-images/Test3/enviratron/s1/1667934902206702659.jpeg,1667934902.2691736,177.47854339402656,1.2257750220869141,168.55942695206747,-13.062,42.01766799,-93.77365914833334,344.498,4,2022-11-08-13-15-02-269,
/media/phenobot3/Extreme SSD/under-canopy-images/Test3/enviratron/s1/1667934902511179135.jpeg,1667934902.5977857,177.7347058434737,0.8333981024045348,171.90464189116997,-12.312,42.017665085,-93.77365969666667,344.497,4,2022-11-08-13-15-02-597,
/media/phenobot3/Extreme SSD/under-canopy-images/Test3/enviratron/s1/1667934902859500219.jpeg,1667934902.9252024,176.34457644624447,0.6459914116837231,170.41453606204539,-12.25,42.017663041666665,-93.77366012166667,344.495,4,2022-11-08-13-15-02-925,
/media/phenobot3/Extreme SSD/under-canopy-images/Test3/enviratron/s1/1667934903178880298.jpeg,1667934903.2626116,177.2245403795353,0.8136485579274962,169.15510715541845,-13.687,42.01766013333334,-93.77365921,344.488,4,2022-11-08-13-15-03-262,
/media/phenobot3/Extreme SSD/under-canopy-images/Test3/enviratron/s1/1667934903530193802.jpeg,1667934903.596214,177.81846282927384,0.2384169437394373,169.14969326443014,-12.375,42.01765749,-93.77365979166666,344.491,4,2022-11-08-13-15-03-596,
/media/phenobot3/Extreme SSD/under-canopy-images/Test3/enviratron/s1/1667934903845170067.jpeg,1667934903.9308105,176.90902486991405,0.49604712777805865,170.77923273498328,-12.125,42.01765525333333,-93.773660085,344.488,4,2022-11-08-13-15-03-930,
/media/phenobot3/Extreme SSD/under-canopy-images/Test3/enviratron/s1/1667934904196792237.jpeg,1667934904.265436,176.78974078282127,0.6250355286452424,172.23802360278845,-13.125,42.017652676666664,-93.77365946833334,344.473,4,2022-11-08-13-15-04-265,
