image_location,TimeStamp,Roll,Pitch,Yaw,Mast Roll,Lat,Lon,Alt,GPS Qual,DateTime
/media/phenobot3/Extreme SSD/under-canopy-images/Test4/enviratron/d4/1668024915913400162.jpeg,1668024916.0225582,-177.3993893855719,0.29990592862441867,-130.66861725340604,-4.188,42.012981106666665,-93.76721268333333,339.702,4,2022-11-09-14-15-16-226,
/media/phenobot3/Extreme SSD/under-canopy-images/Test4/enviratron/d4/1668024916286998914.jpeg,1668024916.3748536,-177.40249276784544,0.3040677123765302,-130.68119142468507,-4.188,42.012981095,-93.76721267333333,339.703,4,2022-11-09-14-15-16-374,
/media/phenobot3/Extreme SSD/under-canopy-images/Test4/enviratron/d4/1668024916659645328.jpeg,1668024916.7329144,-177.40521969634827,0.3054112318127275,-130.68449352727828,-4.125,42.01298111166667,-93.76721272,339.704,4,2022-11-09-14-15-16-732,
/media/phenobot3/Extreme SSD/under-canopy-images/Test4/enviratron/d4/1668024917022862041.jpeg,1668024917.1085367,-177.40466576189502,0.3040511148747816,-130.68508297273996,-4.125,42.012981105,-93.767212695,339.704,4,2022-11-09-14-15-17-108,
/media/phenobot3/Extreme SSD/under-canopy-images/Test4/enviratron/d4/1668024917388195109.jpeg,1668024917.4728901,-177.4043682442146,0.3035057282638611,-130.68618928649516,-4.125,42.0129811,-93.76721270166666,339.703,4,2022-11-09-14-15-17-472,
/media/phenobot3/Extreme SSD/under-canopy-images/Test4/enviratron/d4/1668024917752319928.jpeg,1668024917.84023,-177.403702478291,0.3026337025933026,-130.6901237353506,-4.125,42.012981116666666,-93.767212695,339.704,4,2022-11-09-14-15-17-840,
/media/phenobot3/Extreme SSD/under-canopy-images/Test4/enviratron/d4/1668024918117325992.jpeg,1668024918.1950245,-177.4031810209997,0.29785284412762963,-130.6980250735049,-4.125,42.01298110333333,-93.76721269833334,339.705,4,2022-11-09-14-15-18-195,
/media/phenobot3/Extreme SSD/under-canopy-images/Test4/enviratron/d4/1668024918480941069.jpeg,1668024918.5753124,-177.32204089745673,-0.012224097262271198,-130.8932260260701,-4.375,42.01298131833333,-93.76721285333333,339.704,4,2022-11-09-14-15-18-575,
/media/phenobot3/Extreme SSD/under-canopy-images/Test4/enviratron/d4/1668024918844004885.jpeg,1668024918.9187205,-178.91935448766029,0.5697914431053431,-132.28842601970385,-4.875,42.012982715,-93.76721282333334,339.703,4,2022-11-09-14-15-18-918,
/media/phenobot3/Extreme SSD/under-canopy-images/Test4/enviratron/d4/1668024919208981919.jpeg,1668024919.29575,179.96291517187936,-0.02041664867488385,-131.9470023195115,-8.687,42.012984706666664,-93.76721517,339.696,4,2022-11-09-14-15-19-295,
/media/phenobot3/Extreme SSD/under-canopy-images/Test4/enviratron/d4/1668024919573923725.jpeg,1668024919.6587405,-178.87586568545618,0.2643329179124904,-130.8812453639422,-4.625,42.012986245,-93.767213205,339.707,4,2022-11-09-14-15-19-658,
/media/phenobot3/Extreme SSD/under-canopy-images/Test4/enviratron/d4/1668024919938506137.jpeg,1668024920.0255253,-177.86890928654557,-0.3275055848890193,-127.30753850632495,-6.25,42.01298840166667,-93.76721356166667,339.702,4,2022-11-09-14-15-20-256,
/media/phenobot3/Extreme SSD/under-canopy-images/Test4/enviratron/d4/1668024920304005295.jpeg,1668024920.3891041,-178.8239365789809,0.13877953759227593,-126.11348223657608,-5.0,42.01299043,-93.76721262666666,339.7,4,2022-11-09-14-15-20-389,
/media/phenobot3/Extreme SSD/under-canopy-images/Test4/enviratron/d4/1668024920669031723.jpeg,1668024920.7647476,-179.02178563743357,-0.5227683929205372,-125.02150954498306,-7.125,42.012992438333335,-93.76721415,339.696,4,2022-11-09-14-15-20-764,
/media/phenobot3/Extreme SSD/under-canopy-images/Test4/enviratron/d4/1668024921032367244.jpeg,1668024921.1172428,-177.355117730501,-0.6422818492897002,-123.23304866941389,-5.313,42.012994078333335,-93.76721329833333,339.706,4,2022-11-09-14-15-21-117,
/media/phenobot3/Extreme SSD/under-canopy-images/Test4/enviratron/d4/1668024921396399639.jpeg,1668024921.4842715,-178.61675148056065,-0.05894352436591807,-125.17881935354484,-6.438,42.012996375,-93.767213665,339.698,4,2022-11-09-14-15-21-484,
/media/phenobot3/Extreme SSD/under-canopy-images/Test4/enviratron/d4/1668024921760283979.jpeg,1668024921.84261,-179.46711107834076,0.5601408910424963,-127.6154824927989,-7.375,42.012997801666664,-93.76721483333333,339.703,4,2022-11-09-14-15-21-842,
/media/phenobot3/Extreme SSD/under-canopy-images/Test4/enviratron/d4/1668024922124344275.jpeg,1668024922.21866,179.80587317774655,0.39986179586487214,-128.8367745094671,-7.063,42.01299943,-93.76721459,339.693,4,2022-11-09-14-15-22-218,
/media/phenobot3/Extreme SSD/under-canopy-images/Test4/enviratron/d4/1668024922488282518.jpeg,1668024922.573485,178.11402627036108,0.9997786549534999,-128.7065150806473,-9.687,42.01300225666667,-93.76721623333333,339.688,4,2022-11-09-14-15-22-573,
/media/phenobot3/Extreme SSD/under-canopy-images/Test4/enviratron/d4/1668024922851447216.jpeg,1668024922.9448042,-178.6391582903202,0.47959860264139775,-129.3153393719467,-5.563,42.01300384166667,-93.76721485166667,339.693,4,2022-11-09-14-15-22-944,
/media/phenobot3/Extreme SSD/under-canopy-images/Test4/enviratron/d4/1668024923214138157.jpeg,1668024923.292382,178.6949483559892,1.3848653995984523,-128.13107484218918,-8.5,42.013006215,-93.76721558333334,339.688,4,2022-11-09-14-15-23-292,
/media/phenobot3/Extreme SSD/under-canopy-images/Test4/enviratron/d4/1668024923578514876.jpeg,1668024923.6668065,179.70975420675455,1.9998412153639171,-129.39492898390932,-9.562,42.01300850333333,-93.76721688333333,339.669,4,2022-11-09-14-15-23-666,
/media/phenobot3/Extreme SSD/under-canopy-images/Test4/enviratron/d4/1668024923940719531.jpeg,1668024924.0199025,-176.3478736704473,4.395751529538533,-130.3475208770945,-3.75,42.013011653333336,-93.767214005,339.649,4,2022-11-09-14-15-24-199,
/media/phenobot3/Extreme SSD/under-canopy-images/Test4/enviratron/d4/1668024924301476622.jpeg,1668024924.387449,-176.20694823327372,5.856300628467329,-131.55467989930153,-1.875,42.013014168333335,-93.76721234166666,339.623,4,2022-11-09-14-15-24-387,
/media/phenobot3/Extreme SSD/under-canopy-images/Test4/enviratron/d4/1668024924662184471.jpeg,1668024924.734508,177.4678268103239,7.246368978160161,-131.92425577166733,-11.562,42.01301690333333,-93.76721654666666,339.6,4,2022-11-09-14-15-24-734,
/media/phenobot3/Extreme SSD/under-canopy-images/Test4/enviratron/d4/1668024925023884688.jpeg,1668024925.1120436,179.80656674693515,7.5531627710976865,-131.73365189366822,-7.5,42.013019316666664,-93.76721588166667,339.583,4,2022-11-09-14-15-25-112,
/media/phenobot3/Extreme SSD/under-canopy-images/Test4/enviratron/d4/1668024925388249477.jpeg,1668024925.4663088,179.35380465052134,6.926787857899228,-131.9446527908374,-6.438,42.01302039833333,-93.76721416333334,339.581,4,2022-11-09-14-15-25-466,
/media/phenobot3/Extreme SSD/under-canopy-images/Test4/enviratron/d4/1668024925749929487.jpeg,1668024925.8388524,179.45427831906645,5.030053045811153,-132.35544600931195,-9.25,42.013021601666665,-93.767217075,339.553,4,2022-11-09-14-15-25-838,
/media/phenobot3/Extreme SSD/under-canopy-images/Test4/enviratron/d4/1668024926113610723.jpeg,1668024926.1934185,176.77548775921554,3.8299952477077057,-132.46164605309258,-12.5,42.013022676666665,-93.76721811833333,339.528,4,2022-11-09-14-15-26-193,
/media/phenobot3/Extreme SSD/under-canopy-images/Test4/enviratron/d4/1668024926477578437.jpeg,1668024926.5632403,-179.85710303088388,1.4998686631387839,-130.2708833690262,-7.125,42.01302455333333,-93.76721543666666,339.533,4,2022-11-09-14-15-26-563,
/media/phenobot3/Extreme SSD/under-canopy-images/Test4/enviratron/d4/1668024926849797216.jpeg,1668024926.9382758,-178.64027651313108,1.2138027343011628,-131.27135573884146,-5.063,42.013026456666665,-93.76721385833333,339.518,4,2022-11-09-14-15-26-938,
/media/phenobot3/Extreme SSD/under-canopy-images/Test4/enviratron/d4/1668024927216020704.jpeg,1668024927.2971487,179.35211456658203,0.9231435391372732,-130.86449177255204,-11.187,42.01302836833333,-93.767217795,339.507,4,2022-11-09-14-15-27-297,
/media/phenobot3/Extreme SSD/under-canopy-images/Test4/enviratron/d4/1668024927583893519.jpeg,1668024927.67171,178.77129477903983,1.0545023584978894,-131.1535260531847,-7.688,42.01303005166667,-93.767215555,339.504,4,2022-11-09-14-15-27-671,
/media/phenobot3/Extreme SSD/under-canopy-images/Test4/enviratron/d4/1668024927956211241.jpeg,1668024928.0491405,-178.75300341653985,0.08731665962858826,-129.48506527360612,-8.125,42.013031705,-93.76721696833333,339.507,4,2022-11-09-14-15-28-492,
/media/phenobot3/Extreme SSD/under-canopy-images/Test4/enviratron/d4/1668024928323234841.jpeg,1668024928.4084983,-178.70904951343562,0.6592305084723679,-130.8083764436521,-4.313,42.0130341,-93.76721321833334,339.493,4,2022-11-09-14-15-28-408,
/media/phenobot3/Extreme SSD/under-canopy-images/Test4/enviratron/d4/1668024928688337786.jpeg,1668024928.7732065,176.23114787580974,0.8367696352853078,-128.84836665465969,-14.687,42.01303591833334,-93.76721963166666,339.467,4,2022-11-09-14-15-28-773,
/media/phenobot3/Extreme SSD/under-canopy-images/Test4/enviratron/d4/1668024929053601907.jpeg,1668024929.1343007,-179.1043665006566,1.502035104560311,-129.66903013698237,-4.563,42.013037415,-93.767214895,339.493,4,2022-11-09-14-15-29-134,
/media/phenobot3/Extreme SSD/under-canopy-images/Test4/enviratron/d4/1668024929417464673.jpeg,1668024929.503789,178.17434037243603,1.2971075836730839,-129.29002007853208,-12.062,42.01303978666667,-93.767217755,339.477,4,2022-11-09-14-15-29-503,
/media/phenobot3/Extreme SSD/under-canopy-images/Test4/enviratron/d4/1668024929784217914.jpeg,1668024929.8647366,179.6305667419486,0.8934927026801109,-128.70205972275647,-8.25,42.013041333333334,-93.76721698,339.492,4,2022-11-09-14-15-29-864,
/media/phenobot3/Extreme SSD/under-canopy-images/Test4/enviratron/d4/1668024930151032930.jpeg,1668024930.2338657,-177.76198533733535,1.0813692526555558,-128.56884213029818,-6.813,42.01304329,-93.76721522666666,339.483,4,2022-11-09-14-15-30-233,
/media/phenobot3/Extreme SSD/under-canopy-images/Test4/enviratron/d4/1668024930514460964.jpeg,1668024930.5963893,179.93746528869897,1.9107577151796376,-128.6570052912164,-8.812,42.01304597666667,-93.76721640333334,339.474,4,2022-11-09-14-15-30-596,
/media/phenobot3/Extreme SSD/under-canopy-images/Test4/enviratron/d4/1668024930880008765.jpeg,1668024930.9682877,179.0197747274013,1.075761878736963,-128.64933376375424,-7.75,42.01304771833333,-93.76721598333333,339.467,4,2022-11-09-14-15-30-968,
/media/phenobot3/Extreme SSD/under-canopy-images/Test4/enviratron/d4/1668024931249224433.jpeg,1668024931.3220148,-179.19007640840007,0.44011669477048393,-127.53913650230932,-7.625,42.013049245,-93.76721588833334,339.461,4,2022-11-09-14-15-31-322,
/media/phenobot3/Extreme SSD/under-canopy-images/Test4/enviratron/d4/1668024931613322546.jpeg,1668024931.7003841,179.218038321205,0.7064399078528207,-127.57019758684753,-6.688,42.013051796666666,-93.76721525333333,339.458,4,2022-11-09-14-15-31-700,
/media/phenobot3/Extreme SSD/under-canopy-images/Test4/enviratron/d4/1668024931975640625.jpeg,1668024932.0552254,-179.26386862820712,0.7321334885955343,-126.09165866567508,-8.937,42.01305356333334,-93.76721688,339.444,4,2022-11-09-14-15-32-553,
/media/phenobot3/Extreme SSD/under-canopy-images/Test4/enviratron/d4/1668024932341452014.jpeg,1668024932.4300191,-179.22340800258144,0.1344291934776822,-126.81181914161564,-5.5,42.013055406666666,-93.76721479166666,339.451,4,2022-11-09-14-15-32-430,
/media/phenobot3/Extreme SSD/under-canopy-images/Test4/enviratron/d4/1668024932710387179.jpeg,1668024932.7927995,-178.8644972738981,-0.040495588848016816,-125.53843734774384,-9.375,42.013057125,-93.76721728,339.442,4,2022-11-09-14-15-32-793,
/media/phenobot3/Extreme SSD/under-canopy-images/Test4/enviratron/d4/1668024933080668072.jpeg,1668024933.1664398,-177.78908941469726,0.34802797089257603,-125.91014304456739,-3.75,42.013060155,-93.76721386,339.449,4,2022-11-09-14-15-33-166,
/media/phenobot3/Extreme SSD/under-canopy-images/Test4/enviratron/d4/1668024933450696431.jpeg,1668024933.5341146,-178.55621313299673,0.5233855379625487,-127.16079259709241,-8.437,42.01306124166667,-93.76721652833334,339.438,4,2022-11-09-14-15-33-534,
/media/phenobot3/Extreme SSD/under-canopy-images/Test4/enviratron/d4/1668024933819083386.jpeg,1668024933.9081144,-177.41650537218933,0.2869193585683541,-127.37998043441362,-4.813,42.013063225,-93.76721498833334,339.44,4,2022-11-09-14-15-33-908,
/media/phenobot3/Extreme SSD/under-canopy-images/Test4/enviratron/d4/1668024934186266645.jpeg,1668024934.2682703,-178.7714416392323,1.014728035583975,-128.50997945059,-6.563,42.01306547666667,-93.76721610333334,339.441,4,2022-11-09-14-15-34-268,
/media/phenobot3/Extreme SSD/under-canopy-images/Test4/enviratron/d4/1668024934553948289.jpeg,1668024934.6435328,-179.05971171148573,0.38425697072149495,-128.49887167439587,-6.813,42.013067723333336,-93.76721641,339.43,4,2022-11-09-14-15-34-643,
/media/phenobot3/Extreme SSD/under-canopy-images/Test4/enviratron/d4/1668024934919901473.jpeg,1668024935.0058527,-178.59557855021268,0.6444559694051727,-127.41809256458045,-5.75,42.013069718333334,-93.76721562166667,339.428,4,2022-11-09-14-15-35-593,
/media/phenobot3/Extreme SSD/under-canopy-images/Test4/enviratron/d4/1668024935287645744.jpeg,1668024935.3772786,-179.57792248032928,0.18560702696538497,-127.29762289082991,-6.813,42.013071866666664,-93.767216215,339.425,4,2022-11-09-14-15-35-377,
/media/phenobot3/Extreme SSD/under-canopy-images/Test4/enviratron/d4/1668024935651449786.jpeg,1668024935.7261593,179.468792992517,0.13776089707140848,-128.14585052509673,-7.625,42.01307391,-93.76721660166666,339.423,4,2022-11-09-14-15-35-726,
/media/phenobot3/Extreme SSD/under-canopy-images/Test4/enviratron/d4/1668024936016757415.jpeg,1668024936.1107416,179.51123214745576,-0.265034909522041,-128.42119129824508,-7.438,42.01307616333333,-93.767216785,339.42,4,2022-11-09-14-15-36-110,
/media/phenobot3/Extreme SSD/under-canopy-images/Test4/enviratron/d4/1668024936386758581.jpeg,1668024936.466911,-179.16541045520304,-0.510983852908263,-124.84390376952986,-7.438,42.01307869666667,-93.76721662666667,339.416,4,2022-11-09-14-15-36-466,
/media/phenobot3/Extreme SSD/under-canopy-images/Test4/enviratron/d4/1668024936757952725.jpeg,1668024936.840581,-179.42892509540238,-0.4666352229661137,-125.08484507420607,-7.5,42.013080245,-93.76721669166666,339.42,4,2022-11-09-14-15-36-840,
/media/phenobot3/Extreme SSD/under-canopy-images/Test4/enviratron/d4/1668024937125759074.jpeg,1668024937.2085707,-178.9451356731874,-0.479550936769764,-127.0218986870584,-6.375,42.013082625,-93.7672164,339.426,4,2022-11-09-14-15-37-208,
/media/phenobot3/Extreme SSD/under-canopy-images/Test4/enviratron/d4/1668024937492864352.jpeg,1668024937.5789778,-178.73866127269898,-0.4369822031820239,-127.91210355463146,-5.563,42.01308507833333,-93.76721604333333,339.42,4,2022-11-09-14-15-37-579,
/media/phenobot3/Extreme SSD/under-canopy-images/Test4/enviratron/d4/1668024937860501484.jpeg,1668024937.937554,-179.67428781380278,-0.264668780957606,-128.04298741399026,-6.25,42.01308722833333,-93.767216535,339.413,4,2022-11-09-14-15-37-937,
/media/phenobot3/Extreme SSD/under-canopy-images/Test4/enviratron/d4/1668024938226471592.jpeg,1668024938.3208535,179.95825239988687,-0.47901540361418293,-127.94850259842653,-9.187,42.01308958833334,-93.76721835,339.416,4,2022-11-09-14-15-38-320,
/media/phenobot3/Extreme SSD/under-canopy-images/Test4/enviratron/d4/1668024938594420287.jpeg,1668024938.6836703,-179.38538353135252,-0.2588316505998113,-127.65078560005801,-7.875,42.01309229,-93.76721767833334,339.423,4,2022-11-09-14-15-38-683,
/media/phenobot3/Extreme SSD/under-canopy-images/Test4/enviratron/d4/1668024938961919954.jpeg,1668024939.064236,178.54676317927692,-0.2359168870777397,-128.0897221992937,-9.187,42.01309410166667,-93.76721864333334,339.423,4,2022-11-09-14-15-39-643,
/media/phenobot3/Extreme SSD/under-canopy-images/Test4/enviratron/d4/1668024939327950096.jpeg,1668024939.400767,179.8029378456362,-0.4684752476322878,-128.2294407864458,-8.125,42.01309559833334,-93.76721810166667,339.422,4,2022-11-09-14-15-39-400,
/media/phenobot3/Extreme SSD/under-canopy-images/Test4/enviratron/d4/1668024939693825840.jpeg,1668024939.7838724,179.6609015770011,-0.26706156604710024,-128.8738773306509,-7.313,42.013098325,-93.76721760166667,339.422,4,2022-11-09-14-15-39-783,
/media/phenobot3/Extreme SSD/under-canopy-images/Test4/enviratron/d4/1668024940060519760.jpeg,1668024940.1338897,179.37682284430446,-0.4162267120649695,-129.00978591624718,-9.875,42.013100475,-93.76721889333334,339.416,4,2022-11-09-14-15-40-133,
/media/phenobot3/Extreme SSD/under-canopy-images/Test4/enviratron/d4/1668024940424648570.jpeg,1668024940.5168123,-179.41348011302028,0.0035614753842492103,-130.11530285815346,-8.812,42.01310325833333,-93.76721871333334,339.418,4,2022-11-09-14-15-40-516,
/media/phenobot3/Extreme SSD/under-canopy-images/Test4/enviratron/d4/1668024940791404962.jpeg,1668024940.8718643,179.48336554242186,0.35586893549436394,-129.72222735554305,-6.75,42.01310544333333,-93.76721716833333,339.422,4,2022-11-09-14-15-40-871,
/media/phenobot3/Extreme SSD/under-canopy-images/Test4/enviratron/d4/1668024941160370360.jpeg,1668024941.250904,179.39745394158854,-0.23684127866028498,-127.4361219404379,-9.5,42.013107168333335,-93.76721900833333,339.419,4,2022-11-09-14-15-41-251,
/media/phenobot3/Extreme SSD/under-canopy-images/Test4/enviratron/d4/1668024941527923869.jpeg,1668024941.606641,-179.85112228675138,-0.43383535182145205,-127.20079346476642,-8.937,42.01310976833334,-93.76721849833334,339.413,4,2022-11-09-14-15-41-606,
/media/phenobot3/Extreme SSD/under-canopy-images/Test4/enviratron/d4/1668024941894794089.jpeg,1668024941.9813395,179.0539260801163,-0.10688367646422184,-127.60046524249917,-8.187,42.01311221,-93.76721818333333,339.41,4,2022-11-09-14-15-41-981,
/media/phenobot3/Extreme SSD/under-canopy-images/Test4/enviratron/d4/1668024942260425195.jpeg,1668024942.3402016,177.29187379211632,-0.20976496656389348,-126.91096740240994,-11.375,42.01311347666667,-93.76721938166666,339.414,4,2022-11-09-14-15-42-340,
/media/phenobot3/Extreme SSD/under-canopy-images/Test4/enviratron/d4/1668024942625962079.jpeg,1668024942.7100687,179.5180586443012,-0.4190419697664265,-125.48118968572928,-6.438,42.013115711666664,-93.76721752166667,339.425,4,2022-11-09-14-15-42-710,
/media/phenobot3/Extreme SSD/under-canopy-images/Test4/enviratron/d4/1668024942991260704.jpeg,1668024943.0632272,179.43154060202687,0.0648455200245206,-127.39270288830313,-8.937,42.0131187,-93.76721892,339.416,4,2022-11-09-14-15-43-633,
/media/phenobot3/Extreme SSD/under-canopy-images/Test4/enviratron/d4/1668024943356049898.jpeg,1668024943.4377987,179.97236511927022,-0.09698417695257383,-127.62541802589037,-8.625,42.01312088666667,-93.76721909333334,339.41,4,2022-11-09-14-15-43-437,
/media/phenobot3/Extreme SSD/under-canopy-images/Test4/enviratron/d4/1668024943720908367.jpeg,1668024943.7917027,-179.52348074916046,0.4103429960811948,-124.30298244980759,-8.687,42.01312368333333,-93.76721899833333,339.413,4,2022-11-09-14-15-43-791,
/media/phenobot3/Extreme SSD/under-canopy-images/Test4/enviratron/d4/1668024944085546208.jpeg,1668024944.1656737,178.60297733634837,-0.04478805655139816,-123.480134652824,-8.562,42.013124133333335,-93.76721874333333,339.422,4,2022-11-09-14-15-44-165,
/media/phenobot3/Extreme SSD/under-canopy-images/Test4/enviratron/d4/1668024944449320351.jpeg,1668024944.5292437,179.3580930629411,0.3068470809274132,-124.86717414785686,-9.5,42.013126893333336,-93.76722012333333,339.408,4,2022-11-09-14-15-44-529,
/media/phenobot3/Extreme SSD/under-canopy-images/Test4/enviratron/d4/1668024944813385961.jpeg,1668024944.8907917,177.91257036664405,0.001815054052388697,-125.00058825642483,-8.25,42.01312948166667,-93.76721934833333,339.411,4,2022-11-09-14-15-44-890,
/media/phenobot3/Extreme SSD/under-canopy-images/Test4/enviratron/d4/1668024945177408958.jpeg,1668024945.2541802,178.60766840734277,0.24645534327416999,-126.926893924522,-8.437,42.013131183333336,-93.76722032,339.404,4,2022-11-09-14-15-45-254,
/media/phenobot3/Extreme SSD/under-canopy-images/Test4/enviratron/d4/1668024945542353609.jpeg,1668024945.6226814,-179.8334792610448,0.33925564665302277,-129.98728119435833,-8.5,42.013133843333335,-93.76722004166666,339.403,4,2022-11-09-14-15-45-622,
/media/phenobot3/Extreme SSD/under-canopy-images/Test4/enviratron/d4/1668024945909227291.jpeg,1668024945.9837022,178.85680800556491,0.1669334459210188,-129.93507312793298,-9.375,42.013136116666665,-93.76722069833333,339.404,4,2022-11-09-14-15-45-983,
/media/phenobot3/Extreme SSD/under-canopy-images/Test4/enviratron/d4/1668024946275966961.jpeg,1668024946.3551335,-178.21736842076402,-0.4819164681030751,-131.54949081942726,-6.688,42.013137815,-93.76721959833333,339.413,4,2022-11-09-14-15-46-355,
/media/phenobot3/Extreme SSD/under-canopy-images/Test4/enviratron/d4/1668024946642321882.jpeg,1668024946.7221916,-179.3053801765043,-0.15736500392412842,-132.12586830590743,-7.0,42.013140725,-93.76721891833333,339.413,4,2022-11-09-14-15-46-722,
/media/phenobot3/Extreme SSD/under-canopy-images/Test4/enviratron/d4/1668024947009138999.jpeg,1668024947.086568,178.9987143515696,-1.1778878632951724,-130.1446698284298,-10.625,42.013143113333335,-93.76722114,339.406,4,2022-11-09-14-15-47-866,
/media/phenobot3/Extreme SSD/under-canopy-images/Test4/enviratron/d4/1668024947377482006.jpeg,1668024947.4608674,-179.67274529546395,-0.8328733061829534,-132.11856623929108,-9.0,42.01314653666667,-93.76722047833333,339.398,4,2022-11-09-14-15-47-460,
/media/phenobot3/Extreme SSD/under-canopy-images/Test4/enviratron/d4/1668024947743597638.jpeg,1668024947.8168192,178.014317632691,0.1152599285162624,-128.8846058347698,-8.937,42.01314885,-93.76721941166667,339.414,4,2022-11-09-14-15-47-816,
/media/phenobot3/Extreme SSD/under-canopy-images/Test4/enviratron/d4/1668024948108245543.jpeg,1668024948.179301,178.76364702420244,0.3896527954904588,-127.3089247024734,-10.875,42.01315094833333,-93.76722111,339.4,4,2022-11-09-14-15-48-179,
/media/phenobot3/Extreme SSD/under-canopy-images/Test4/enviratron/d4/1668024948474621363.jpeg,1668024948.5539978,-177.95337354157397,0.8574200770595425,-125.59325517637414,-4.188,42.01315161,-93.76721745166667,339.418,4,2022-11-09-14-15-48-554,
/media/phenobot3/Extreme SSD/under-canopy-images/Test4/enviratron/d4/1668024948842188934.jpeg,1668024948.9247513,-179.32122838286398,0.6480319320111937,-122.98468170266239,-10.125,42.01315430166667,-93.76722060833333,339.408,4,2022-11-09-14-15-48-924,
/media/phenobot3/Extreme SSD/under-canopy-images/Test4/enviratron/d4/1668024949209022794.jpeg,1668024949.2824688,-179.34154253242525,-0.06200495762302031,-124.60553869032758,-7.188,42.013157315,-93.767219365,339.408,4,2022-11-09-14-15-49-282,
/media/phenobot3/Extreme SSD/under-canopy-images/Test4/enviratron/d4/1668024949576561308.jpeg,1668024949.6595383,-179.13507904888797,-0.4469305296012233,-124.40525533644204,-6.5,42.01315938,-93.76721911666667,339.401,4,2022-11-09-14-15-49-659,
/media/phenobot3/Extreme SSD/under-canopy-images/Test4/enviratron/d4/1668024949941358593.jpeg,1668024950.0166304,179.77259327081998,0.06359268245737096,-125.39590743744851,-8.562,42.01316189833334,-93.76721996333333,339.407,4,2022-11-09-14-15-50-167,
/media/phenobot3/Extreme SSD/under-canopy-images/Test4/enviratron/d4/1668024950306933624.jpeg,1668024950.3867297,176.52713581912883,-0.36971158721166886,-125.91341999605255,-10.562,42.01316375333333,-93.76722148333333,339.394,4,2022-11-09-14-15-50-386,
/media/phenobot3/Extreme SSD/under-canopy-images/Test4/enviratron/d4/1668024950675445530.jpeg,1668024950.75599,179.85995997017542,-0.3721447982901292,-126.47042695455174,-8.687,42.01316563666666,-93.76722094833333,339.394,4,2022-11-09-14-15-50-756,
/media/phenobot3/Extreme SSD/under-canopy-images/Test4/enviratron/d4/1668024951042737040.jpeg,1668024951.1245437,-179.64130792925772,0.04924473001623901,-125.62085795394978,-8.625,42.013168343333334,-93.76722007333333,339.394,4,2022-11-09-14-15-51-124,
/media/phenobot3/Extreme SSD/under-canopy-images/Test4/enviratron/d4/1668024951409850847.jpeg,1668024951.4867435,-177.82877161838346,-0.4297019121085571,-121.6806882717236,-7.688,42.01317091666667,-93.76721987833334,339.394,4,2022-11-09-14-15-51-486,
/media/phenobot3/Extreme SSD/under-canopy-images/Test4/enviratron/d4/1668024951777925458.jpeg,1668024951.8508563,-177.48667978500131,-0.9163833144930879,-124.60326934164769,-5.063,42.01317337333333,-93.76721803166667,339.399,4,2022-11-09-14-15-51-850,
/media/phenobot3/Extreme SSD/under-canopy-images/Test4/enviratron/d4/1668024952145810601.jpeg,1668024952.2276669,-178.81962691811358,-0.2771315695957556,-125.07476634726532,-6.813,42.013175911666664,-93.76721975333334,339.391,4,2022-11-09-14-15-52-227,
/media/phenobot3/Extreme SSD/under-canopy-images/Test4/enviratron/d4/1668024952513611619.jpeg,1668024952.5868833,179.3692977058377,-0.50752740381407,-125.00532515675782,-7.438,42.01317746,-93.76722004166666,339.397,4,2022-11-09-14-15-52-586,
/media/phenobot3/Extreme SSD/under-canopy-images/Test4/enviratron/d4/1668024952882491160.jpeg,1668024952.9608724,-178.96913569051193,-0.3061976868414874,-124.18967768852214,-7.313,42.01317949166667,-93.76722058666667,339.393,4,2022-11-09-14-15-52-960,
/media/phenobot3/Extreme SSD/under-canopy-images/Test4/enviratron/d4/1668024953252996306.jpeg,1668024953.3281546,-178.9033716208346,-0.350727895530257,-124.50909996739377,-7.25,42.01318269666667,-93.76722006833333,339.402,4,2022-11-09-14-15-53-328,
/media/phenobot3/Extreme SSD/under-canopy-images/Test4/enviratron/d4/1668024953619926094.jpeg,1668024953.6937,-179.12317900297393,-0.43175349179127814,-123.5566459304031,-8.375,42.01318529,-93.767220995,339.39,4,2022-11-09-14-15-53-693,
/media/phenobot3/Extreme SSD/under-canopy-images/Test4/enviratron/d4/1668024953987438602.jpeg,1668024954.059604,-179.14192691601215,-0.587912727935515,-124.11193533942884,-7.75,42.013186893333334,-93.76722084666666,339.388,4,2022-11-09-14-15-54-596,
/media/phenobot3/Extreme SSD/under-canopy-images/Test4/enviratron/d4/1668024954354052753.jpeg,1668024954.4366617,-177.32017297052653,-0.5711084701721979,-123.31568495611428,-5.688,42.013188895,-93.76721998,339.392,4,2022-11-09-14-15-54-436,
/media/phenobot3/Extreme SSD/under-canopy-images/Test4/enviratron/d4/1668024954719471433.jpeg,1668024954.8042195,-179.59108252566534,-0.2521860808438157,-123.72365797318582,-9.125,42.01319150166667,-93.76722177833334,339.394,4,2022-11-09-14-15-54-804,
/media/phenobot3/Extreme SSD/under-canopy-images/Test4/enviratron/d4/1668024955084432645.jpeg,1668024955.1567733,-179.241210319446,-0.19405041436268244,-123.5358563898786,-9.187,42.013192923333335,-93.76722201666666,339.386,4,2022-11-09-14-15-55-156,
/media/phenobot3/Extreme SSD/under-canopy-images/Test4/enviratron/d4/1668024955450628093.jpeg,1668024955.527731,-179.96320462772414,-0.36817132677048126,-124.2774452846416,-7.25,42.01319543333334,-93.76722087,339.395,4,2022-11-09-14-15-55-527,
/media/phenobot3/Extreme SSD/under-canopy-images/Test4/enviratron/d4/1668024955817472929.jpeg,1668024955.88934,-178.9979119068537,-0.471820685627008,-124.74688286215213,-5.875,42.013198233333334,-93.76722045833333,339.39,4,2022-11-09-14-15-55-889,
/media/phenobot3/Extreme SSD/under-canopy-images/Test4/enviratron/d4/1668024956185855477.jpeg,1668024956.2646663,179.7946524244795,-0.382199825641551,-126.10492247454191,-7.188,42.013200705,-93.76722076,339.4,4,2022-11-09-14-15-56-264,
/media/phenobot3/Extreme SSD/under-canopy-images/Test4/enviratron/d4/1668024956553479796.jpeg,1668024956.6317594,179.99721352530798,-0.4938627684911427,-126.68542744993127,-8.437,42.013203518333334,-93.767222025,339.392,4,2022-11-09-14-15-56-631,
/media/phenobot3/Extreme SSD/under-canopy-images/Test4/enviratron/d4/1668024956921062319.jpeg,1668024956.9957705,-178.09356937530595,-0.5401732858171989,-126.50432371125581,-8.187,42.01320552333333,-93.76722164833333,339.395,4,2022-11-09-14-15-56-995,
/media/phenobot3/Extreme SSD/under-canopy-images/Test4/enviratron/d4/1668024957295198874.jpeg,1668024957.3708875,-179.25963372653015,-0.5733592317532358,-125.52621264270867,-8.375,42.013207998333336,-93.76722162,339.398,4,2022-11-09-14-15-57-370,
/media/phenobot3/Extreme SSD/under-canopy-images/Test4/enviratron/d4/1668024957659112946.jpeg,1668024957.733728,-178.0052197007101,-0.5515735161264934,-122.23234474526758,-7.813,42.01321000666667,-93.76722149166666,339.395,4,2022-11-09-14-15-57-733,
/media/phenobot3/Extreme SSD/under-canopy-images/Test4/enviratron/d4/1668024958028293277.jpeg,1668024958.1032562,179.68357037511592,-0.2050226678238403,-123.92561156175923,-6.813,42.013212315,-93.76722053,339.398,4,2022-11-09-14-15-58-103,
/media/phenobot3/Extreme SSD/under-canopy-images/Test4/enviratron/d4/1668024958397765304.jpeg,1668024958.4864552,179.0143126901775,-0.5116084628679227,-122.58425590177882,-11.0,42.01321471333333,-93.76722306333333,339.398,4,2022-11-09-14-15-58-486,
/media/phenobot3/Extreme SSD/under-canopy-images/Test4/enviratron/d4/1668024958768735425.jpeg,1668024958.8481867,-177.6362300784262,-0.7147613728644154,-126.73031084848259,-4.563,42.01321720833333,-93.767220455,339.396,4,2022-11-09-14-15-58-848,
/media/phenobot3/Extreme SSD/under-canopy-images/Test4/enviratron/d4/1668024959139011824.jpeg,1668024959.2186825,-178.76083059128382,-0.881190168193712,-126.46288607210339,-7.938,42.013219595,-93.76722142833333,339.402,4,2022-11-09-14-15-59-218,
/media/phenobot3/Extreme SSD/under-canopy-images/Test4/enviratron/d4/1668024959508041612.jpeg,1668024959.5930579,-179.30042040682548,-0.30469507616218733,-125.29134212757472,-9.312,42.013222346666666,-93.76722228666667,339.394,4,2022-11-09-14-15-59-593,
/media/phenobot3/Extreme SSD/under-canopy-images/Test4/enviratron/d4/1668024959877885546.jpeg,1668024959.9510055,-179.35321404408734,-0.06565271665313994,-123.83689573177598,-9.0,42.01322377,-93.767222175,339.407,4,2022-11-09-14-15-59-951,
/media/phenobot3/Extreme SSD/under-canopy-images/Test4/enviratron/d4/1668024960245698768.jpeg,1668024960.322471,-178.52445722243232,-0.022518423114836376,-124.10370870157429,-6.25,42.01322649833333,-93.76722058833333,339.406,4,2022-11-09-14-16-00-322,
/media/phenobot3/Extreme SSD/under-canopy-images/Test4/enviratron/d4/1668024960612205736.jpeg,1668024960.6880205,179.86881855319885,0.04116787753323228,-123.88888268738283,-8.062,42.01322909833333,-93.76722178,339.402,4,2022-11-09-14-16-00-688,
/media/phenobot3/Extreme SSD/under-canopy-images/Test4/enviratron/d4/1668024960979759454.jpeg,1668024961.0506556,-179.086249733974,0.04015294660042209,-124.07526558789965,-6.625,42.013231463333334,-93.7672215,339.404,4,2022-11-09-14-16-01-507,
/media/phenobot3/Extreme SSD/under-canopy-images/Test4/enviratron/d4/1668024961346193402.jpeg,1668024961.4265525,-178.68515342889708,-0.05847079894163256,-122.92419462842348,-6.625,42.01323422666667,-93.76722112333333,339.397,4,2022-11-09-14-16-01-426,
/media/phenobot3/Extreme SSD/under-canopy-images/Test4/enviratron/d4/1668024961716844437.jpeg,1668024961.7983198,-177.9458557486107,-0.4122755753691346,-122.5103697633936,-6.688,42.013236983333336,-93.76722115666666,339.399,4,2022-11-09-14-16-01-798,
/media/phenobot3/Extreme SSD/under-canopy-images/Test4/enviratron/d4/1668024962083227586.jpeg,1668024962.1588547,-177.13194315427006,-0.6492490105794675,-123.33855429566866,-6.063,42.013238998333335,-93.76722091333333,339.398,4,2022-11-09-14-16-02-158,
/media/phenobot3/Extreme SSD/under-canopy-images/Test4/enviratron/d4/1668024962449178080.jpeg,1668024962.5265741,-177.87839844255797,0.1289417217506187,-124.43816398297575,-4.313,42.013241,-93.76721986333334,339.396,4,2022-11-09-14-16-02-526,
/media/phenobot3/Extreme SSD/under-canopy-images/Test4/enviratron/d4/1668024962816964885.jpeg,1668024962.8923953,-177.64186612063517,-0.31603498695412635,-124.5241076217088,-7.375,42.01324318166667,-93.76722216333333,339.403,4,2022-11-09-14-16-02-892,
/media/phenobot3/Extreme SSD/under-canopy-images/Test4/enviratron/d4/1668024963184135326.jpeg,1668024963.2646515,-176.9780734014563,-0.5212833226186268,-125.40888395787123,-3.937,42.013245096666665,-93.76722053666667,339.404,4,2022-11-09-14-16-03-264,
/media/phenobot3/Extreme SSD/under-canopy-images/Test4/enviratron/d4/1668024963553193840.jpeg,1668024963.6325946,-179.19835531019498,-0.48951551306926705,-124.82158091592798,-7.563,42.01324805833333,-93.76722179333333,339.407,4,2022-11-09-14-16-03-632,
/media/phenobot3/Extreme SSD/under-canopy-images/Test4/enviratron/d4/1668024963919957833.jpeg,1668024963.993543,-178.33247752039932,-0.8049247934083467,-119.10552378456933,-6.5,42.013251151666665,-93.76722149666666,339.405,4,2022-11-09-14-16-03-993,
/media/phenobot3/Extreme SSD/under-canopy-images/Test4/enviratron/d4/1668024964286407826.jpeg,1668024964.3610363,-179.04101902071744,-0.0699832468314491,-122.98321037009966,-5.563,42.01325370166666,-93.76722091,339.406,4,2022-11-09-14-16-04-361,
/media/phenobot3/Extreme SSD/under-canopy-images/Test4/enviratron/d4/1668024964653943730.jpeg,1668024964.7341084,-179.6618290724945,-0.16900015553793377,-124.09090667099713,-9.437,42.013256913333336,-93.76722378666666,339.407,4,2022-11-09-14-16-04-734,
/media/phenobot3/Extreme SSD/under-canopy-images/Test4/enviratron/d4/1668024965021034527.jpeg,1668024965.091592,-178.45379682013487,-0.5793336399697934,-124.18971276206356,-7.063,42.01326034833333,-93.76722275666667,339.405,4,2022-11-09-14-16-05-916,
/media/phenobot3/Extreme SSD/under-canopy-images/Test4/enviratron/d4/1668024965388976523.jpeg,1668024965.4561076,-179.55355633514787,-0.5984091856385599,-125.4930509671207,-6.938,42.01326241833333,-93.76722229333333,339.405,4,2022-11-09-14-16-05-456,
/media/phenobot3/Extreme SSD/under-canopy-images/Test4/enviratron/d4/1668024965755535870.jpeg,1668024965.8355613,-179.0915235948269,-0.3965771035855913,-125.85353752081706,-8.187,42.013265458333336,-93.76722349833334,339.404,4,2022-11-09-14-16-05-835,
/media/phenobot3/Extreme SSD/under-canopy-images/Test4/enviratron/d4/1668024966121551697.jpeg,1668024966.1934054,-178.77323459256257,-1.1181433226280841,-125.44382441728139,-7.313,42.01326837166667,-93.76722268166667,339.411,4,2022-11-09-14-16-06-193,
/media/phenobot3/Extreme SSD/under-canopy-images/Test4/enviratron/d4/1668024966489436990.jpeg,1668024966.5682178,-178.73401689063672,-1.425041368769653,-126.00939386506998,-6.625,42.013271386666666,-93.76722220666667,339.413,4,2022-11-09-14-16-06-568,
/media/phenobot3/Extreme SSD/under-canopy-images/Test4/enviratron/d4/1668024966855835922.jpeg,1668024966.9383712,-177.80218761118752,-0.7462349017131364,-123.9714886333824,-6.875,42.01327493,-93.76722258,339.418,4,2022-11-09-14-16-06-938,
/media/phenobot3/Extreme SSD/under-canopy-images/Test4/enviratron/d4/1668024967221363723.jpeg,1668024967.2944896,-177.5752000696301,-1.5417015399754626,-123.61302073251652,-6.375,42.01327751833333,-93.76722206,339.428,4,2022-11-09-14-16-07-294,
/media/phenobot3/Extreme SSD/under-canopy-images/Test4/enviratron/d4/1668024967586860559.jpeg,1668024967.6656613,-175.26911087105606,-1.5776559336504683,-121.81990657050588,-3.0,42.013279335,-93.76722095833334,339.424,4,2022-11-09-14-16-07-665,
/media/phenobot3/Extreme SSD/under-canopy-images/Test4/enviratron/d4/1668024967951788171.jpeg,1668024968.0291245,-179.701553540106,-1.0612141538218278,-119.96385827159911,-7.063,42.01328233833333,-93.76722224333334,339.427,4,2022-11-09-14-16-08-292,
/media/phenobot3/Extreme SSD/under-canopy-images/Test4/enviratron/d4/1668024968317092850.jpeg,1668024968.397377,-178.78279862730122,-0.5244679585465435,-121.56135307655207,-8.562,42.01328558833333,-93.767223995,339.433,4,2022-11-09-14-16-08-397,
/media/phenobot3/Extreme SSD/under-canopy-images/Test4/enviratron/d4/1668024968683538352.jpeg,1668024968.7642245,-176.30309054028635,-0.5347007441218234,-121.74429647597412,-2.437,42.013288743333334,-93.76722163333334,339.438,4,2022-11-09-14-16-08-764,
/media/phenobot3/Extreme SSD/under-canopy-images/Test4/enviratron/d4/1668024969049508479.jpeg,1668024969.122914,-178.23048092327764,-0.4445456878938594,-124.82091823080866,-6.0,42.013291728333336,-93.76722274833334,339.445,4,2022-11-09-14-16-09-123,
/media/phenobot3/Extreme SSD/under-canopy-images/Test4/enviratron/d4/1668024969414606993.jpeg,1668024969.4852746,-179.4688719840181,-0.6753696064157537,-124.78221494539764,-7.75,42.01329495,-93.76722440833333,339.442,4,2022-11-09-14-16-09-485,
/media/phenobot3/Extreme SSD/under-canopy-images/Test4/enviratron/d4/1668024969780716182.jpeg,1668024969.868489,-179.48689343032254,-0.5987389574467824,-125.0100277616047,-5.938,42.01329704333333,-93.76722357666667,339.44,4,2022-11-09-14-16-09-868,
/media/phenobot3/Extreme SSD/under-canopy-images/Test4/enviratron/d4/1668024970146782711.jpeg,1668024970.224632,-179.73369809334014,-1.359697768498892,-124.75551530866768,-8.25,42.013300183333335,-93.767224645,339.44,4,2022-11-09-14-16-10-224,
/media/phenobot3/Extreme SSD/under-canopy-images/Test4/enviratron/d4/1668024970513034273.jpeg,1668024970.5918326,-179.07011793500467,-0.89253950232189,-123.67348293039282,-6.375,42.01330311833333,-93.76722355333334,339.441,4,2022-11-09-14-16-10-591,
/media/phenobot3/Extreme SSD/under-canopy-images/Test4/enviratron/d4/1668024970879165417.jpeg,1668024970.95415,179.3255861989254,-1.0288548514589546,-123.7711738743286,-7.688,42.0133054,-93.76722419,339.446,4,2022-11-09-14-16-10-954,
/media/phenobot3/Extreme SSD/under-canopy-images/Test4/enviratron/d4/1668024971246593246.jpeg,1668024971.3259485,179.4622067776884,-0.5388918536704143,-123.72643492601496,-10.625,42.01330868666667,-93.76722649833333,339.445,4,2022-11-09-14-16-11-326,
/media/phenobot3/Extreme SSD/under-canopy-images/Test4/enviratron/d4/1668024971611851006.jpeg,1668024971.6888416,179.85967541416431,-0.37868287618048685,-123.53268051063773,-7.188,42.01331195,-93.76722452333334,339.458,4,2022-11-09-14-16-11-688,
/media/phenobot3/Extreme SSD/under-canopy-images/Test4/enviratron/d4/1668024971976177129.jpeg,1668024972.0495188,179.36569585850833,-1.3613579187579303,-124.82678402793006,-10.25,42.013314325,-93.76722582166667,339.462,4,2022-11-09-14-16-12-496,
/media/phenobot3/Extreme SSD/under-canopy-images/Test4/enviratron/d4/1668024972340649364.jpeg,1668024972.4269853,-179.98435681594293,-1.2527906876058006,-125.87776903623052,-8.687,42.01331749166667,-93.76722572,339.46,4,2022-11-09-14-16-12-427,
/media/phenobot3/Extreme SSD/under-canopy-images/Test4/enviratron/d4/1668024972704445953.jpeg,1668024972.7817757,-177.7491867005969,-0.9833364371279106,-126.96304515691769,-8.312,42.01332055666666,-93.76722517833333,339.472,4,2022-11-09-14-16-12-781,
/media/phenobot3/Extreme SSD/under-canopy-images/Test4/enviratron/d4/1668024973070524251.jpeg,1668024973.1489558,179.1765908883199,-1.0702221571945094,-127.73570099913911,-8.0,42.0133225,-93.76722456666667,339.486,4,2022-11-09-14-16-13-149,
/media/phenobot3/Extreme SSD/under-canopy-images/Test4/enviratron/d4/1668024973436373827.jpeg,1668024973.5089242,179.38315529415095,-1.633729655461464,-125.71317292616139,-9.812,42.013326168333336,-93.76722600166667,339.48,4,2022-11-09-14-16-13-509,
/media/phenobot3/Extreme SSD/under-canopy-images/Test4/enviratron/d4/1668024973802434151.jpeg,1668024973.8818698,-178.19974033854808,-1.2002274222061118,-121.48319638181047,-8.0,42.013329665,-93.76722472,339.486,4,2022-11-09-14-16-13-881,
/media/phenobot3/Extreme SSD/under-canopy-images/Test4/enviratron/d4/1668024974170878732.jpeg,1668024974.2534053,-178.36076750324125,-0.6613807116018696,-122.63720918309457,-5.563,42.01333141333333,-93.76722290666666,339.499,4,2022-11-09-14-16-14-253,
/media/phenobot3/Extreme SSD/under-canopy-images/Test4/enviratron/d4/1668024974538117330.jpeg,1668024974.6122055,179.84815204049656,-1.6874743539599468,-124.97697292427576,-9.75,42.01333382333333,-93.76722641166667,339.49,4,2022-11-09-14-16-14-612,
/media/phenobot3/Extreme SSD/under-canopy-images/Test4/enviratron/d4/1668024974905823788.jpeg,1668024974.9851918,-178.0845807243295,-1.0842702492814393,-125.21224578910217,-7.375,42.01333760333333,-93.767225085,339.505,4,2022-11-09-14-16-14-985,
/media/phenobot3/Extreme SSD/under-canopy-images/Test4/enviratron/d4/1668024975273729676.jpeg,1668024975.3563988,-177.62142866412455,-0.7316236376480953,-126.68516289897062,-4.875,42.01334019833333,-93.76722295666667,339.51,4,2022-11-09-14-16-15-356,
/media/phenobot3/Extreme SSD/under-canopy-images/Test4/enviratron/d4/1668024975639799374.jpeg,1668024975.7130773,178.4246465307905,-1.577759890970026,-126.29625562764477,-10.437,42.01334278666667,-93.76722646,339.512,4,2022-11-09-14-16-15-713,
/media/phenobot3/Extreme SSD/under-canopy-images/Test4/enviratron/d4/1668024976005301428.jpeg,1668024976.078453,-177.84942361197037,-1.2810991736048485,-121.97999042130712,-7.25,42.01334593333333,-93.767224415,339.512,4,2022-11-09-14-16-16-785,
/media/phenobot3/Extreme SSD/under-canopy-images/Test4/enviratron/d4/1668024976371801377.jpeg,1668024976.4533124,-178.43446442372823,-0.8992852831578403,-122.56678925596387,-6.063,42.01334773,-93.76722329333333,339.516,4,2022-11-09-14-16-16-453,
/media/phenobot3/Extreme SSD/under-canopy-images/Test4/enviratron/d4/1668024976737253294.jpeg,1668024976.8215759,178.63727506340277,-0.7085665899530805,-125.00700504223384,-9.5,42.01335155833333,-93.76722619833333,339.518,4,2022-11-09-14-16-16-821,
/media/phenobot3/Extreme SSD/under-canopy-images/Test4/enviratron/d4/1668024977101539652.jpeg,1668024977.1741824,179.90299641148567,-0.2847900008337697,-124.14653579324788,-10.0,42.01335474333333,-93.76722687666667,339.524,4,2022-11-09-14-16-17-174,
/media/phenobot3/Extreme SSD/under-canopy-images/Test4/enviratron/d4/1668024977468070988.jpeg,1668024977.5480316,-178.99412346604456,-0.5859822390857684,-125.36212780034155,-7.313,42.01335733333333,-93.76722500333334,339.537,4,2022-11-09-14-16-17-548,
/media/phenobot3/Extreme SSD/under-canopy-images/Test4/enviratron/d4/1668024977834019520.jpeg,1668024977.9189963,-179.50025388392382,-0.905181234238838,-122.31803301299604,-9.812,42.013360255,-93.767226415,339.529,4,2022-11-09-14-16-17-919,
/media/phenobot3/Extreme SSD/under-canopy-images/Test4/enviratron/d4/1668024978200697999.jpeg,1668024978.2742481,-179.94264628467045,-0.7392684479800856,-120.23879394823697,-9.687,42.013363608333336,-93.76722675666667,339.536,4,2022-11-09-14-16-18-274,
/media/phenobot3/Extreme SSD/under-canopy-images/Test4/enviratron/d4/1668024978566351979.jpeg,1668024978.64914,-179.21399935200898,-1.2019676191834259,-118.83663780280011,-5.938,42.013365351666664,-93.76722477166666,339.534,4,2022-11-09-14-16-18-649,
/media/phenobot3/Extreme SSD/under-canopy-images/Test4/enviratron/d4/1668024978933306260.jpeg,1668024979.0038357,-178.4719077448698,-1.1931422823300732,-121.05542008042036,-8.812,42.01336858333333,-93.76722742166666,339.537,4,2022-11-09-14-16-19-392,
/media/phenobot3/Extreme SSD/under-canopy-images/Test4/enviratron/d4/1668024979301577242.jpeg,1668024979.3797786,-177.15472296728862,-1.5876911847276034,-122.70775755605192,-4.063,42.01337225333333,-93.767225035,339.538,4,2022-11-09-14-16-19-379,
/media/phenobot3/Extreme SSD/under-canopy-images/Test4/enviratron/d4/1668024979668068675.jpeg,1668024979.7483068,-175.83177550291762,-1.3565892099790167,-123.5066112301627,-4.938,42.01337393833333,-93.76722573666666,339.555,4,2022-11-09-14-16-19-748,
/media/phenobot3/Extreme SSD/under-canopy-images/Test4/enviratron/d4/1668024980033981664.jpeg,1668024980.1161714,-176.12653879921234,-0.6949617671753019,-124.55355173200742,-5.813,42.01337701833334,-93.76722660166666,339.549,4,2022-11-09-14-16-20-116,
/media/phenobot3/Extreme SSD/under-canopy-images/Test4/enviratron/d4/1668024980400719391.jpeg,1668024980.4789722,-177.65124092966406,-0.8409879251746016,-127.31966196644869,-4.063,42.01338040833333,-93.76722561666666,339.555,4,2022-11-09-14-16-20-479,
/media/phenobot3/Extreme SSD/under-canopy-images/Test4/enviratron/d4/1668024980768498174.jpeg,1668024980.846129,-178.7175657793704,-0.6025075094357056,-127.13571012338627,-7.688,42.01338337166667,-93.76722791333333,339.567,4,2022-11-09-14-16-20-846,
/media/phenobot3/Extreme SSD/under-canopy-images/Test4/enviratron/d4/1668024981135124523.jpeg,1668024981.2134976,-177.87317780838387,-0.9247388839868977,-127.94794995481858,-7.75,42.013385871666664,-93.76722788666666,339.567,4,2022-11-09-14-16-21-213,
/media/phenobot3/Extreme SSD/under-canopy-images/Test4/enviratron/d4/1668024981500478803.jpeg,1668024981.5768442,-178.39230688612156,-0.7038324186299602,-127.8580419428733,-6.875,42.013388925,-93.76722722,339.572,4,2022-11-09-14-16-21-576,
/media/phenobot3/Extreme SSD/under-canopy-images/Test4/enviratron/d4/1668024981868058474.jpeg,1668024981.9483716,-177.59963718506572,-0.7978315517704236,-129.21503049788896,-8.187,42.013390265,-93.767227765,339.577,4,2022-11-09-14-16-21-948,
/media/phenobot3/Extreme SSD/under-canopy-images/Test4/enviratron/d4/1668024982234401735.jpeg,1668024982.3162086,-176.66292029521364,-1.6605267121181417,-128.28322815471537,-6.375,42.01339316833333,-93.76722642166666,339.587,4,2022-11-09-14-16-22-316,
/media/phenobot3/Extreme SSD/under-canopy-images/Test4/enviratron/d4/1668024982600839540.jpeg,1668024982.6870446,-177.33819486595874,-1.5119040224427114,-124.95319997722491,-5.188,42.01339609,-93.76722551666667,339.584,4,2022-11-09-14-16-22-687,
/media/phenobot3/Extreme SSD/under-canopy-images/Test4/enviratron/d4/1668024982967287643.jpeg,1668024983.041448,-179.40297367217934,-1.8365252772507852,-117.35245165859972,-8.875,42.01339807833333,-93.76722739166667,339.595,4,2022-11-09-14-16-23-415,
/media/phenobot3/Extreme SSD/under-canopy-images/Test4/enviratron/d4/1668024983333155582.jpeg,1668024983.4121733,-177.19365954057378,-1.112905714099201,-121.88471041499506,-6.188,42.013400901666664,-93.76722693333333,339.597,4,2022-11-09-14-16-23-412,
/media/phenobot3/Extreme SSD/under-canopy-images/Test4/enviratron/d4/1668024983697801609.jpeg,1668024983.7744057,-178.28453065605612,-1.2461167907962902,-123.17142915326639,-4.75,42.01340342666666,-93.767226485,339.603,4,2022-11-09-14-16-23-774,
/media/phenobot3/Extreme SSD/under-canopy-images/Test4/enviratron/d4/1668024984063405411.jpeg,1668024984.142331,-177.21230547835177,-0.8047501908713036,-125.43932994759079,-5.125,42.01340582,-93.76722686833334,339.602,4,2022-11-09-14-16-24-142,
/media/phenobot3/Extreme SSD/under-canopy-images/Test4/enviratron/d4/1668024984428423682.jpeg,1668024984.508973,-176.94436973669954,-1.0024632401331193,-124.93120764554988,-4.188,42.01340847833333,-93.76722626,339.604,4,2022-11-09-14-16-24-509,
/media/phenobot3/Extreme SSD/under-canopy-images/Test4/enviratron/d4/1668024984793345798.jpeg,1668024984.8799152,-178.01072127355403,-1.1199053645185715,-124.27022704348748,-5.438,42.013411401666666,-93.76722709833334,339.619,4,2022-11-09-14-16-24-880,
/media/phenobot3/Extreme SSD/under-canopy-images/Test4/enviratron/d4/1668024985160002777.jpeg,1668024985.2316542,-175.07030466021303,-0.7578265291489017,-124.01616768279148,-5.563,42.01341404,-93.76722793333333,339.617,4,2022-11-09-14-16-25-231,
/media/phenobot3/Extreme SSD/under-canopy-images/Test4/enviratron/d4/1668024985525947485.jpeg,1668024985.609236,-177.8431189533317,-0.6295623308383824,-124.83964975811247,-5.0,42.01341661166666,-93.767226625,339.626,4,2022-11-09-14-16-25-609,
/media/phenobot3/Extreme SSD/under-canopy-images/Test4/enviratron/d4/1668024985893442228.jpeg,1668024985.9672763,-178.82335807560077,-0.18711195688614674,-121.9241240195735,-9.125,42.01341895666667,-93.76722963,339.616,4,2022-11-09-14-16-25-967,
/media/phenobot3/Extreme SSD/under-canopy-images/Test4/enviratron/d4/1668024986259705742.jpeg,1668024986.339724,-178.62157948495246,-0.7015670401194509,-124.40212201958978,-7.688,42.013421575,-93.7672291,339.631,4,2022-11-09-14-16-26-339,
/media/phenobot3/Extreme SSD/under-canopy-images/Test4/enviratron/d4/1668024986623559122.jpeg,1668024986.701166,-174.9881144768181,-1.3211257601541853,-126.59071321986741,-3.125,42.013424326666666,-93.76722664166667,339.632,4,2022-11-09-14-16-26-701,
/media/phenobot3/Extreme SSD/under-canopy-images/Test4/enviratron/d4/1668024986988592772.jpeg,1668024987.0686731,-175.00387419933682,-0.7453285854921379,-128.6393028502462,-2.812,42.01342718833333,-93.76722610166667,339.627,4,2022-11-09-14-16-27-687,
/media/phenobot3/Extreme SSD/under-canopy-images/Test4/enviratron/d4/1668024987354830587.jpeg,1668024987.4343755,-177.90703109282632,-0.7226401263544208,-128.83691977657895,-7.125,42.01342920333333,-93.767228255,339.638,4,2022-11-09-14-16-27-434,
/media/phenobot3/Extreme SSD/under-canopy-images/Test4/enviratron/d4/1668024987716895064.jpeg,1668024987.7962768,-177.43655604229403,-0.6212565104215503,-129.24348014769572,-7.375,42.01343171166667,-93.76722873166666,339.636,4,2022-11-09-14-16-27-796,
/media/phenobot3/Extreme SSD/under-canopy-images/Test4/enviratron/d4/1668024988079530815.jpeg,1668024988.1592503,-176.27279959909797,-0.935741157186876,-125.92468753698367,-7.125,42.013433391666666,-93.76722794166666,339.64,4,2022-11-09-14-16-28-159,
/media/phenobot3/Extreme SSD/under-canopy-images/Test4/enviratron/d4/1668024988444244612.jpeg,1668024988.5216324,-177.14793873789833,-0.8626881335802957,-124.8906492866261,-8.5,42.01343612,-93.7672286,339.646,4,2022-11-09-14-16-28-521,
/media/phenobot3/Extreme SSD/under-canopy-images/Test4/enviratron/d4/1668024988808737213.jpeg,1668024988.8830068,-176.69636265949399,-0.8330224596191018,-120.57140279710879,-8.125,42.013439383333335,-93.76722842666666,339.647,4,2022-11-09-14-16-28-883,
/media/phenobot3/Extreme SSD/under-canopy-images/Test4/enviratron/d4/1668024989175620830.jpeg,1668024989.250445,-177.7814404072181,-1.1041965327710217,-123.77508778907146,-6.688,42.013441023333336,-93.76722762166666,339.653,4,2022-11-09-14-16-29-250,
/media/phenobot3/Extreme SSD/under-canopy-images/Test4/enviratron/d4/1668024989541790079.jpeg,1668024989.637213,-177.91892578774429,-1.280633206827876,-126.16196419136025,-6.563,42.013443295,-93.76722853,339.652,4,2022-11-09-14-16-29-637,
/media/phenobot3/Extreme SSD/under-canopy-images/Test4/enviratron/d4/1668024989909704094.jpeg,1668024990.0139525,-177.1786315920314,-1.6423285329936343,-124.19102004716906,-7.625,42.01344620333333,-93.76722890666667,339.658,4,2022-11-09-14-16-30-140,
/media/phenobot3/Extreme SSD/under-canopy-images/Test4/enviratron/d4/1668024990276851231.jpeg,1668024990.374033,-177.69308203821134,-1.430949415849617,-124.9168947433458,-5.625,42.013449485,-93.76722786333333,339.668,4,2022-11-09-14-16-30-374,
/media/phenobot3/Extreme SSD/under-canopy-images/Test4/enviratron/d4/1668024990642777889.jpeg,1668024990.7241628,-176.02962812432074,-0.3804135999131712,-124.03892405051994,-6.75,42.01345227,-93.76722909166666,339.67,4,2022-11-09-14-16-30-724,
/media/phenobot3/Extreme SSD/under-canopy-images/Test4/enviratron/d4/1668024991006973189.jpeg,1668024991.0866168,-176.3518957931223,0.17397291037934356,-125.18669146175203,-4.375,42.01345525833333,-93.767227225,339.664,4,2022-11-09-14-16-31-867,
/media/phenobot3/Extreme SSD/under-canopy-images/Test4/enviratron/d4/1668024991372531792.jpeg,1668024991.4470654,-177.21623920928278,-0.30782732275672214,-123.99813480516102,-3.937,42.01345695,-93.767227775,339.669,4,2022-11-09-14-16-31-447,
/media/phenobot3/Extreme SSD/under-canopy-images/Test4/enviratron/d4/1668024991736748991.jpeg,1668024991.816685,-175.72994498981546,-0.017820696337195643,-125.06633918202027,-6.125,42.013459915,-93.76722855666667,339.673,4,2022-11-09-14-16-31-816,
/media/phenobot3/Extreme SSD/under-canopy-images/Test4/enviratron/d4/1668024992100881694.jpeg,1668024992.185832,-174.84201638546224,-0.05830244144964206,-123.80656018561824,-1.625,42.01346235333333,-93.76722587666667,339.663,4,2022-11-09-14-16-32-185,
/media/phenobot3/Extreme SSD/under-canopy-images/Test4/enviratron/d4/1668024992467136797.jpeg,1668024992.5496168,-175.98329028556074,-0.6163247535196442,-124.17458423184004,-6.25,42.01346309,-93.76722833166667,339.668,4,2022-11-09-14-16-32-549,
/media/phenobot3/Extreme SSD/under-canopy-images/Test4/enviratron/d4/1668024992832227712.jpeg,1668024992.9124463,-179.58630353639967,-0.9379878290957143,-123.36166310047771,-7.188,42.013465911666664,-93.76722924166667,339.677,4,2022-11-09-14-16-32-912,
/media/phenobot3/Extreme SSD/under-canopy-images/Test4/enviratron/d4/1668024993196438076.jpeg,1668024993.276086,-178.4849781236817,-1.1316512872837383,-121.16816663345978,-7.063,42.013468421666666,-93.76722989166667,339.681,4,2022-11-09-14-16-33-276,
/media/phenobot3/Extreme SSD/under-canopy-images/Test4/enviratron/d4/1668024993562302566.jpeg,1668024993.6403065,-179.30512377239737,-0.15654261378965978,-124.36113030106888,-5.5,42.01347135,-93.76722848166666,339.681,4,2022-11-09-14-16-33-640,
/media/phenobot3/Extreme SSD/under-canopy-images/Test4/enviratron/d4/1668024993926609555.jpeg,1668024994.0031369,-179.77230896810343,-0.337517633007864,-127.0583741816313,-9.687,42.013473598333334,-93.76723248333333,339.68,4,2022-11-09-14-16-34-322,
/media/phenobot3/Extreme SSD/under-canopy-images/Test4/enviratron/d4/1668024994292134187.jpeg,1668024994.37342,-176.10109573625476,-0.30578953774263556,-131.61821057159037,-4.313,42.013476635,-93.76722871,339.682,4,2022-11-09-14-16-34-373,
/media/phenobot3/Extreme SSD/under-canopy-images/Test4/enviratron/d4/1668024994656059214.jpeg,1668024994.737357,-174.98232213993109,0.15061327293148397,-132.60152862008113,-3.187,42.01347878,-93.76722782166667,339.682,4,2022-11-09-14-16-34-737,
/media/phenobot3/Extreme SSD/under-canopy-images/Test4/enviratron/d4/1668024995017961642.jpeg,1668024995.088165,-177.78872950564985,-0.8725588064992369,-130.74149319388843,-9.187,42.013480808333334,-93.76723036166666,339.687,4,2022-11-09-14-16-35-882,
/media/phenobot3/Extreme SSD/under-canopy-images/Test4/enviratron/d4/1668024995381015261.jpeg,1668024995.4621325,-177.57510639439147,0.31475261834188306,-126.42887593472742,-8.812,42.01348281333333,-93.76723085833333,339.701,4,2022-11-09-14-16-35-462,
/media/phenobot3/Extreme SSD/under-canopy-images/Test4/enviratron/d4/1668024995746925933.jpeg,1668024995.8196254,-177.0333441448668,-0.6421947777422514,-127.16005279934907,-5.313,42.013485385,-93.76722832,339.686,4,2022-11-09-14-16-35-819,
/media/phenobot3/Extreme SSD/under-canopy-images/Test4/enviratron/d4/1668024996117340506.jpeg,1668024996.1970491,-178.01685048056467,-0.41164417981658674,-128.319181512492,-5.875,42.013488315,-93.76722879333333,339.7,4,2022-11-09-14-16-36-197,
/media/phenobot3/Extreme SSD/under-canopy-images/Test4/enviratron/d4/1668024996484785128.jpeg,1668024996.560939,-178.81830262139277,-1.557693585538985,-127.58048831877993,-7.875,42.013491251666665,-93.76723007166666,339.69,4,2022-11-09-14-16-36-561,
/media/phenobot3/Extreme SSD/under-canopy-images/Test4/enviratron/d4/1668024996851438721.jpeg,1668024996.9321723,-178.05095538425505,-0.8683442842164643,-125.51087634605207,-7.375,42.01349389666667,-93.76722991833333,339.687,4,2022-11-09-14-16-36-932,
/media/phenobot3/Extreme SSD/under-canopy-images/Test4/enviratron/d4/1668024997215776456.jpeg,1668024997.2898896,-178.460757398401,-0.41978668844668915,-125.05110750667953,-5.813,42.013496446666664,-93.767228985,339.685,4,2022-11-09-14-16-37-289,
/media/phenobot3/Extreme SSD/under-canopy-images/Test4/enviratron/d4/1668024997580290142.jpeg,1668024997.6612208,-178.81032081842673,-0.09074060037755155,-125.7802276507723,-8.0,42.01349720666666,-93.76723014666666,339.702,4,2022-11-09-14-16-37-661,
/media/phenobot3/Extreme SSD/under-canopy-images/Test4/enviratron/d4/1668024997946610805.jpeg,1668024998.0204995,-178.4789729831072,-0.7222965847005164,-126.80287695028737,-7.375,42.01349893,-93.767230285,339.712,4,2022-11-09-14-16-38-205,
/media/phenobot3/Extreme SSD/under-canopy-images/Test4/enviratron/d4/1668024998311981546.jpeg,1668024998.3868957,-178.08386896779473,-0.7629641115923458,-127.41903657317842,-5.063,42.013501325,-93.76722897666667,339.702,4,2022-11-09-14-16-38-386,
/media/phenobot3/Extreme SSD/under-canopy-images/Test4/enviratron/d4/1668024998677869051.jpeg,1668024998.753115,-179.8731930389519,-1.2585622995107844,-128.5863762323884,-7.75,42.0135047,-93.76722986,339.701,4,2022-11-09-14-16-38-753,
/media/phenobot3/Extreme SSD/under-canopy-images/Test4/enviratron/d4/1668024999043754228.jpeg,1668024999.1247559,179.9140179912377,-0.25052910921531196,-127.78273539763978,-9.625,42.013507695,-93.76723223666667,339.709,4,2022-11-09-14-16-39-124,
/media/phenobot3/Extreme SSD/under-canopy-images/Test4/enviratron/d4/1668024999411473250.jpeg,1668024999.4840946,-179.63285773720696,-1.0445831879983387,-128.53591265583393,-8.75,42.013510563333334,-93.76723155,339.709,4,2022-11-09-14-16-39-484,
/media/phenobot3/Extreme SSD/under-canopy-images/Test4/enviratron/d4/1668024999777772756.jpeg,1668024999.860561,-179.42278470532423,-0.9024070753170765,-128.73087749051416,-8.437,42.013511771666664,-93.76723107666666,339.711,4,2022-11-09-14-16-39-860,
/media/phenobot3/Extreme SSD/under-canopy-images/Test4/enviratron/d4/1668025000144315402.jpeg,1668025000.2232149,179.23788831690516,-0.4544400768192647,-129.9188464384612,-9.562,42.013514195,-93.767231575,339.708,4,2022-11-09-14-16-40-223,
/media/phenobot3/Extreme SSD/under-canopy-images/Test4/enviratron/d4/1668025000509667718.jpeg,1668025000.5842438,179.67156246612151,-0.21395704742254004,-129.76653335357102,-10.937,42.01351673333333,-93.76723245166667,339.719,4,2022-11-09-14-16-40-584,
/media/phenobot3/Extreme SSD/under-canopy-images/Test4/enviratron/d4/1668025000875962106.jpeg,1668025000.9508505,179.1115331722839,-0.6676381751175804,-127.16575187644601,-9.937,42.01351878333333,-93.76723202333334,339.719,4,2022-11-09-14-16-40-950,
/media/phenobot3/Extreme SSD/under-canopy-images/Test4/enviratron/d4/1668025001242078857.jpeg,1668025001.322936,179.32954282269424,-0.8618228662685063,-125.35745389243766,-9.25,42.01352121833333,-93.76723118,339.723,4,2022-11-09-14-16-41-323,
/media/phenobot3/Extreme SSD/under-canopy-images/Test4/enviratron/d4/1668025001608125450.jpeg,1668025001.6831038,178.4457148872543,-0.8523876612636802,-123.58490156063156,-11.25,42.013523991666666,-93.76723257833333,339.708,4,2022-11-09-14-16-41-683,
/media/phenobot3/Extreme SSD/under-canopy-images/Test4/enviratron/d4/1668025001972214575.jpeg,1668025002.0545816,179.47948396268424,0.014236223337447222,-122.21261681911977,-7.813,42.01352689,-93.76723126833333,339.719,4,2022-11-09-14-16-42-546,
/media/phenobot3/Extreme SSD/under-canopy-images/Test4/enviratron/d4/1668025002337537161.jpeg,1668025002.4179392,179.30186722911537,-0.49481792763055915,-125.60454007178498,-8.437,42.013529426666665,-93.76723188833333,339.722,4,2022-11-09-14-16-42-418,
/media/phenobot3/Extreme SSD/under-canopy-images/Test4/enviratron/d4/1668025002702721750.jpeg,1668025002.7838995,179.75218241728976,-0.7705839320408953,-125.4546458521172,-9.375,42.01353138166667,-93.76723258166666,339.717,4,2022-11-09-14-16-42-783,
/media/phenobot3/Extreme SSD/under-canopy-images/Test4/enviratron/d4/1668025003069858367.jpeg,1668025003.1534402,-177.08425001440267,-0.7864708250186901,-126.91855473402894,-5.938,42.013532848333334,-93.76723066666666,339.719,4,2022-11-09-14-16-43-153,
/media/phenobot3/Extreme SSD/under-canopy-images/Test4/enviratron/d4/1668025003438571590.jpeg,1668025003.5129185,-176.90374029074206,-0.6571155364214274,-128.1804047760145,-4.5,42.013535125,-93.767229205,339.721,4,2022-11-09-14-16-43-513,
/media/phenobot3/Extreme SSD/under-canopy-images/Test4/enviratron/d4/1668025003805536107.jpeg,1668025003.886555,-176.21513044776415,-0.42742301466248006,-128.27495040101547,-6.125,42.01353763666667,-93.76723050166666,339.725,4,2022-11-09-14-16-43-886,
/media/phenobot3/Extreme SSD/under-canopy-images/Test4/enviratron/d4/1668025004171314334.jpeg,1668025004.2548068,-176.3191453938116,-0.7030560262413603,-130.49772196028422,-5.5,42.01354126166667,-93.76723022166667,339.73,4,2022-11-09-14-16-44-254,
