image_location,TimeStamp,Roll,Pitch,Yaw,Mast Roll,Lat,Lon,Alt,GPS Qual,DateTime
/media/phenobot3/Extreme SSD/under-canopy-images/Test3/enviratron/r3/1667933655484807958.jpeg,1667933655.5903857,-178.6844395761092,4.0984142948779825,149.11651759386922,-5.813,42.018103206666666,-93.77303450666666,344.69,4,2022-11-08-12-54-15-590,
/media/phenobot3/Extreme SSD/under-canopy-images/Test3/enviratron/r3/1667933655809754137.jpeg,1667933655.8902857,-178.68446185518133,4.0984505587757445,149.11663835110167,-5.813,42.01810322,-93.773034535,344.688,4,2022-11-08-12-54-15-890,
/media/phenobot3/Extreme SSD/under-canopy-images/Test3/enviratron/r3/1667933656144241927.jpeg,1667933656.2269366,-178.6843473053772,4.098456779859446,149.11607501552928,-5.813,42.01810322,-93.77303453833333,344.686,4,2022-11-08-12-54-16-227,
/media/phenobot3/Extreme SSD/under-canopy-images/Test3/enviratron/r3/1667933656476273067.jpeg,1667933656.55489,-178.68428527846464,4.0984722113253245,149.1157722560935,-5.813,42.01810323666667,-93.77303453833333,344.688,4,2022-11-08-12-54-16-554,
/media/phenobot3/Extreme SSD/under-canopy-images/Test3/enviratron/r3/1667933656809897174.jpeg,1667933656.8884473,-178.68404646390636,4.098737878721133,149.11467424483575,-5.813,42.018103225,-93.773034555,344.691,4,2022-11-08-12-54-16-888,
/media/phenobot3/Extreme SSD/under-canopy-images/Test3/enviratron/r3/1667933657143560206.jpeg,1667933657.22278,-178.6841279652248,4.098302527156384,149.11494702361853,-5.813,42.01810321166667,-93.77303454833333,344.689,4,2022-11-08-12-54-17-222,
/media/phenobot3/Extreme SSD/under-canopy-images/Test3/enviratron/r3/1667933657476500698.jpeg,1667933657.5565858,-178.68392088914266,4.09846446194094,149.11398419842402,-5.875,42.01810320333333,-93.77303455666667,344.688,4,2022-11-08-12-54-17-556,
/media/phenobot3/Extreme SSD/under-canopy-images/Test3/enviratron/r3/1667933657809154779.jpeg,1667933657.880505,-178.67917488119602,4.100481314937884,149.1082785469401,-5.875,42.018103205,-93.77303455666667,344.688,4,2022-11-08-12-54-17-880,
/media/phenobot3/Extreme SSD/under-canopy-images/Test3/enviratron/r3/1667933658142239218.jpeg,1667933658.230343,-178.6770124725218,4.101426203564972,149.10812633033035,-5.875,42.018103198333336,-93.77303457833334,344.689,4,2022-11-08-12-54-18-230,
/media/phenobot3/Extreme SSD/under-canopy-images/Test3/enviratron/r3/1667933658476631916.jpeg,1667933658.5577326,-178.67977010558315,4.098849105370316,149.11280254514543,-5.875,42.01810317666666,-93.77303459833334,344.687,4,2022-11-08-12-54-18-557,
/media/phenobot3/Extreme SSD/under-canopy-images/Test3/enviratron/r3/1667933658810047364.jpeg,1667933658.8886487,-178.68767333989405,4.097649209473738,149.1090938421167,-5.875,42.01810319166667,-93.77303455,344.687,4,2022-11-08-12-54-18-888,
/media/phenobot3/Extreme SSD/under-canopy-images/Test3/enviratron/r3/1667933659143282765.jpeg,1667933659.216844,-178.6875290162653,4.0978188547129255,149.10847390389182,-5.875,42.018103206666666,-93.77303458833333,344.687,4,2022-11-08-12-54-19-216,
/media/phenobot3/Extreme SSD/under-canopy-images/Test3/enviratron/r3/1667933659476560878.jpeg,1667933659.5572805,-178.6872263839291,4.097886110998213,149.1070793511605,-5.875,42.01810323666667,-93.773034505,344.687,4,2022-11-08-12-54-19-557,
/media/phenobot3/Extreme SSD/under-canopy-images/Test3/enviratron/r3/1667933659810061334.jpeg,1667933659.8874161,-178.6869903166605,4.097988204531322,149.10602571098633,-5.875,42.01810323666667,-93.77303454666666,344.688,4,2022-11-08-12-54-19-887,
/media/phenobot3/Extreme SSD/under-canopy-images/Test3/enviratron/r3/1667933660142221036.jpeg,1667933660.2195666,-178.6867714457976,4.098089755077268,149.10505450555073,-5.875,42.01810324,-93.77303447333334,344.685,4,2022-11-08-12-54-20-219,
/media/phenobot3/Extreme SSD/under-canopy-images/Test3/enviratron/r3/1667933660476752929.jpeg,1667933660.5632825,-178.68680121752718,4.098107913117385,149.10519965657733,-5.938,42.0181032,-93.77303451666667,344.687,4,2022-11-08-12-54-20-563,
/media/phenobot3/Extreme SSD/under-canopy-images/Test3/enviratron/r3/1667933660810585023.jpeg,1667933660.9011447,-178.68646599970918,4.098226366860384,149.10371359657412,-5.938,42.01810323,-93.77303451666667,344.69,4,2022-11-08-12-54-20-901,
/media/phenobot3/Extreme SSD/under-canopy-images/Test3/enviratron/r3/1667933661142066170.jpeg,1667933661.2167835,-178.66940768505464,3.9927823376536566,149.08803136650477,-5.938,42.018103195,-93.77303453833333,344.691,4,2022-11-08-12-54-21-216,
/media/phenobot3/Extreme SSD/under-canopy-images/Test3/enviratron/r3/1667933661476075339.jpeg,1667933661.549337,-178.58049998942823,4.589574029588444,148.8624115998274,-6.125,42.01810252833333,-93.773034435,344.691,4,2022-11-08-12-54-21-549,
/media/phenobot3/Extreme SSD/under-canopy-images/Test3/enviratron/r3/1667933661810227808.jpeg,1667933661.8912761,-178.89599428278646,4.53526146561824,148.72984697821275,-6.125,42.01810169666667,-93.773034635,344.692,4,2022-11-08-12-54-21-891,
/media/phenobot3/Extreme SSD/under-canopy-images/Test3/enviratron/r3/1667933662143350171.jpeg,1667933662.221478,-179.036194391388,4.290518488280198,153.26099864364613,-6.813,42.01810109666667,-93.77303449,344.688,4,2022-11-08-12-54-22-221,
/media/phenobot3/Extreme SSD/under-canopy-images/Test3/enviratron/r3/1667933662476450169.jpeg,1667933662.5651681,-178.7124857910308,4.720509218775046,156.3708173254825,-6.0,42.018099855,-93.77303514333333,344.664,4,2022-11-08-12-54-22-565,
/media/phenobot3/Extreme SSD/under-canopy-images/Test3/enviratron/r3/1667933662809517189.jpeg,1667933662.8816679,178.98460080965972,2.58074055240664,158.08604386640172,-9.437,42.018099935,-93.77303319,344.653,4,2022-11-08-12-54-22-881,
/media/phenobot3/Extreme SSD/under-canopy-images/Test3/enviratron/r3/1667933663142976609.jpeg,1667933663.2148063,-179.43820428983278,1.1309038369388655,159.098201857766,-8.5,42.01809907,-93.77303346333333,344.649,4,2022-11-08-12-54-23-214,
/media/phenobot3/Extreme SSD/under-canopy-images/Test3/enviratron/r3/1667933663476672370.jpeg,1667933663.5515053,-178.4947417418181,1.526921472983545,154.1633251214134,-5.188,42.01809784833333,-93.77303538,344.652,4,2022-11-08-12-54-23-551,
/media/phenobot3/Extreme SSD/under-canopy-images/Test3/enviratron/r3/1667933663810204997.jpeg,1667933663.8874066,-179.3536086716203,2.304982097821619,151.94180853052384,-7.625,42.018095663333334,-93.77303391666666,344.648,4,2022-11-08-12-54-23-887,
/media/phenobot3/Extreme SSD/under-canopy-images/Test3/enviratron/r3/1667933664142513919.jpeg,1667933664.2200563,-178.6073633429988,2.211055297439944,152.9935526226598,-6.375,42.01809528333333,-93.77303468166667,344.639,4,2022-11-08-12-54-24-220,
/media/phenobot3/Extreme SSD/under-canopy-images/Test3/enviratron/r3/1667933664476634074.jpeg,1667933664.5648956,-179.02359809165392,1.5350570990618408,154.18412464341571,-6.5,42.018093846666666,-93.77303512666667,344.639,4,2022-11-08-12-54-24-564,
/media/phenobot3/Extreme SSD/under-canopy-images/Test3/enviratron/r3/1667933664810030061.jpeg,1667933664.890686,-179.7567412775089,0.496667281679355,155.7476006581507,-7.25,42.018092425,-93.77303455333333,344.621,4,2022-11-08-12-54-24-890,
/media/phenobot3/Extreme SSD/under-canopy-images/Test3/enviratron/r3/1667933665141985434.jpeg,1667933665.2306175,-179.2498033257169,-0.9346354466880442,158.3580721785798,-7.438,42.018092173333336,-93.77303441833334,344.622,4,2022-11-08-12-54-25-230,
/media/phenobot3/Extreme SSD/under-canopy-images/Test3/enviratron/r3/1667933665476699800.jpeg,1667933665.552841,-179.69569513385002,0.6840363333479826,158.08912264158838,-7.063,42.018090648333335,-93.77303470666666,344.631,4,2022-11-08-12-54-25-552,
/media/phenobot3/Extreme SSD/under-canopy-images/Test3/enviratron/r3/1667933665809572756.jpeg,1667933665.8878553,-179.0376224520215,0.7678079430770178,155.18126538007985,-7.188,42.01808803833333,-93.77303451666667,344.621,4,2022-11-08-12-54-25-887,
/media/phenobot3/Extreme SSD/under-canopy-images/Test3/enviratron/r3/1667933666143093980.jpeg,1667933666.2223897,179.97061666401535,-1.2207279844924452,153.0617131895145,-7.0,42.01808729,-93.77303500166667,344.628,4,2022-11-08-12-54-26-222,
/media/phenobot3/Extreme SSD/under-canopy-images/Test3/enviratron/r3/1667933666476576972.jpeg,1667933666.5565097,-179.2592159425903,-2.0635355119767422,153.26573753819662,-8.625,42.01808553666667,-93.77303357666666,344.629,4,2022-11-08-12-54-26-556,
/media/phenobot3/Extreme SSD/under-canopy-images/Test3/enviratron/r3/1667933666810491503.jpeg,1667933666.8874078,179.81251978393237,-0.6430184212138048,153.2342241140421,-7.75,42.01808267333333,-93.77303441,344.635,4,2022-11-08-12-54-26-887,
/media/phenobot3/Extreme SSD/under-canopy-images/Test3/enviratron/r3/1667933667142753264.jpeg,1667933667.2243931,-179.81479172305748,0.022723687770044767,157.10338988173675,-9.375,42.01808092,-93.77303347666667,344.619,4,2022-11-08-12-54-27-224,
/media/phenobot3/Extreme SSD/under-canopy-images/Test3/enviratron/r3/1667933667476666048.jpeg,1667933667.5556383,-179.7536010387432,-3.0154754480326096,159.45760005303458,-7.313,42.018080598333334,-93.77303440166666,344.613,4,2022-11-08-12-54-27-555,
/media/phenobot3/Extreme SSD/under-canopy-images/Test3/enviratron/r3/1667933667810037299.jpeg,1667933667.891203,-177.40414429883702,-2.0829317900604463,158.25515842223413,-5.75,42.018078095,-93.77303538166667,344.643,4,2022-11-08-12-54-27-891,
/media/phenobot3/Extreme SSD/under-canopy-images/Test3/enviratron/r3/1667933668141802042.jpeg,1667933668.223455,-177.7874761227269,-0.7029372384757171,154.9450994989077,-4.813,42.018076173333334,-93.77303587666667,344.648,4,2022-11-08-12-54-28-223,
/media/phenobot3/Extreme SSD/under-canopy-images/Test3/enviratron/r3/1667933668476855853.jpeg,1667933668.5600672,-179.26354491404348,-1.5221845702885783,154.12898424129486,-7.188,42.018074113333334,-93.77303479833333,344.64,4,2022-11-08-12-54-28-560,
/media/phenobot3/Extreme SSD/under-canopy-images/Test3/enviratron/r3/1667933668810072108.jpeg,1667933668.896941,-177.1944128333473,-2.515980749942457,154.9229119136226,-6.563,42.01807233833333,-93.77303476333333,344.628,4,2022-11-08-12-54-28-897,
/media/phenobot3/Extreme SSD/under-canopy-images/Test3/enviratron/r3/1667933669143069394.jpeg,1667933669.2253208,-176.2647672002945,-0.7645876563875552,155.08212144654803,-3.562,42.01806971,-93.773036825,344.65,4,2022-11-08-12-54-29-225,
/media/phenobot3/Extreme SSD/under-canopy-images/Test3/enviratron/r3/1667933669475727973.jpeg,1667933669.5465367,-178.10791611284276,-0.4758000165281999,157.2766224882465,-7.875,42.018067896666665,-93.77303470333334,344.657,4,2022-11-08-12-54-29-546,
/media/phenobot3/Extreme SSD/under-canopy-images/Test3/enviratron/r3/1667933669810025506.jpeg,1667933669.8812876,-176.48940965693703,-0.7243977591352946,156.97804403721287,-5.563,42.01806560833333,-93.773035295,344.643,4,2022-11-08-12-54-29-881,
/media/phenobot3/Extreme SSD/under-canopy-images/Test3/enviratron/r3/1667933670143100065.jpeg,1667933670.2150571,-176.8631051582439,-0.8878947418386895,156.12418556163612,-4.375,42.018064105,-93.77303599166666,344.651,4,2022-11-08-12-54-30-215,
/media/phenobot3/Extreme SSD/under-canopy-images/Test3/enviratron/r3/1667933670476642609.jpeg,1667933670.5568376,-177.83545230715114,0.13808735925954715,156.8528423499513,-5.438,42.01806169,-93.773035445,344.656,4,2022-11-08-12-54-30-556,
/media/phenobot3/Extreme SSD/under-canopy-images/Test3/enviratron/r3/1667933670810019164.jpeg,1667933670.8899622,179.7363422735193,0.09826225712158997,155.74682841874926,-8.25,42.018059155,-93.77303355,344.657,4,2022-11-08-12-54-30-890,
/media/phenobot3/Extreme SSD/under-canopy-images/Test3/enviratron/r3/1667933671143086059.jpeg,1667933671.2217238,-179.1440540542859,-0.2323679048820204,155.37320998275925,-8.75,42.01805752333333,-93.773032805,344.654,4,2022-11-08-12-54-31-221,
/media/phenobot3/Extreme SSD/under-canopy-images/Test3/enviratron/r3/1667933671476578109.jpeg,1667933671.5562859,-177.32334411488304,-0.2528285148315026,154.59104225575908,-4.438,42.018055688333334,-93.77303519833333,344.658,4,2022-11-08-12-54-31-556,
/media/phenobot3/Extreme SSD/under-canopy-images/Test3/enviratron/r3/1667933671809820395.jpeg,1667933671.881639,-177.86699745762462,-0.6905993561791673,153.4075549699524,-6.188,42.018053071666664,-93.77303465666667,344.659,4,2022-11-08-12-54-31-881,
/media/phenobot3/Extreme SSD/under-canopy-images/Test3/enviratron/r3/1667933672143288955.jpeg,1667933672.2224998,-177.59505915317362,-1.2245017821331916,152.34965386131725,-5.938,42.018051336666666,-93.77303467166666,344.659,4,2022-11-08-12-54-32-222,
/media/phenobot3/Extreme SSD/under-canopy-images/Test3/enviratron/r3/1667933672476759894.jpeg,1667933672.55456,-176.49745801325312,-1.1964164004513163,151.42104599831697,-5.25,42.01804924,-93.77303492166666,344.66,4,2022-11-08-12-54-32-554,
/media/phenobot3/Extreme SSD/under-canopy-images/Test3/enviratron/r3/1667933672810349059.jpeg,1667933672.879591,-178.62033960224525,-0.2064578981401203,151.32511064502984,-5.375,42.018047241666665,-93.77303569166666,344.671,4,2022-11-08-12-54-32-879,
/media/phenobot3/Extreme SSD/under-canopy-images/Test3/enviratron/r3/1667933673142788627.jpeg,1667933673.2223055,178.17156609629478,-0.15711729663946222,157.38023730621012,-12.375,42.01804516666667,-93.77303233333333,344.658,4,2022-11-08-12-54-33-222,
/media/phenobot3/Extreme SSD/under-canopy-images/Test3/enviratron/r3/1667933673476740286.jpeg,1667933673.5573814,179.75042620056803,-0.24738310350729723,158.94200319192333,-9.875,42.01804309333333,-93.77303285,344.662,4,2022-11-08-12-54-33-557,
/media/phenobot3/Extreme SSD/under-canopy-images/Test3/enviratron/r3/1667933673810343837.jpeg,1667933673.8887954,-178.35502435914978,-0.5981342920698425,156.74729468348275,-6.313,42.01804057166667,-93.773035305,344.668,4,2022-11-08-12-54-33-888,
/media/phenobot3/Extreme SSD/under-canopy-images/Test3/enviratron/r3/1667933674143169640.jpeg,1667933674.217196,-178.1850574469876,1.025270360693325,155.93609005618492,-6.125,42.01803791166667,-93.773035635,344.681,4,2022-11-08-12-54-34-217,
/media/phenobot3/Extreme SSD/under-canopy-images/Test3/enviratron/r3/1667933674476296366.jpeg,1667933674.5565813,-179.85368531593923,-0.022790858634491512,154.71387519604352,-9.562,42.018037191666664,-93.77303404166666,344.669,4,2022-11-08-12-54-34-556,
/media/phenobot3/Extreme SSD/under-canopy-images/Test3/enviratron/r3/1667933674810411463.jpeg,1667933674.8884492,179.30539858512353,0.3951449132516871,153.84413302152348,-8.125,42.01803421166667,-93.77303435,344.666,4,2022-11-08-12-54-34-888,
/media/phenobot3/Extreme SSD/under-canopy-images/Test3/enviratron/r3/1667933675142170518.jpeg,1667933675.2275794,-177.95682708008815,-0.7354284472269188,154.44885966432005,-6.875,42.01803271166666,-93.77303483333333,344.665,4,2022-11-08-12-54-35-227,
/media/phenobot3/Extreme SSD/under-canopy-images/Test3/enviratron/r3/1667933675476053117.jpeg,1667933675.5644355,-178.3302698243113,-0.35621622409842224,153.95027073792886,-5.438,42.01803063,-93.773036,344.663,4,2022-11-08-12-54-35-564,
/media/phenobot3/Extreme SSD/under-canopy-images/Test3/enviratron/r3/1667933675811428527.jpeg,1667933675.8887558,177.61979474407605,-0.7602192344014076,156.27985747973665,-12.187,42.01802830166667,-93.77303258666667,344.658,4,2022-11-08-12-54-35-888,
/media/phenobot3/Extreme SSD/under-canopy-images/Test3/enviratron/r3/1667933676143027945.jpeg,1667933676.2257514,178.4577006306327,-0.9193708825881335,160.3650533761018,-11.0,42.018027061666665,-93.77303270166666,344.653,4,2022-11-08-12-54-36-225,
/media/phenobot3/Extreme SSD/under-canopy-images/Test3/enviratron/r3/1667933676476611664.jpeg,1667933676.547734,-179.7123883435191,-0.9481223541195681,157.92368854430958,-7.313,42.018024598333334,-93.77303468166667,344.672,4,2022-11-08-12-54-36-547,
/media/phenobot3/Extreme SSD/under-canopy-images/Test3/enviratron/r3/1667933676809166348.jpeg,1667933676.8824873,179.94119654267504,-0.9839101696899989,156.48826352487202,-7.875,42.01802207833333,-93.77303474666667,344.675,4,2022-11-08-12-54-36-882,
/media/phenobot3/Extreme SSD/under-canopy-images/Test3/enviratron/r3/1667933677143300300.jpeg,1667933677.226858,-179.64661969741778,-1.1162114234197362,155.0170397003571,-9.875,42.01801986833333,-93.77303355833334,344.672,4,2022-11-08-12-54-37-226,
/media/phenobot3/Extreme SSD/under-canopy-images/Test3/enviratron/r3/1667933677476941716.jpeg,1667933677.5615144,-179.91813293715663,-1.2944088636187179,155.0451698209351,-8.375,42.018017928333336,-93.77303407666666,344.679,4,2022-11-08-12-54-37-561,
/media/phenobot3/Extreme SSD/under-canopy-images/Test3/enviratron/r3/1667933677810146292.jpeg,1667933677.8971503,179.83948160852307,-0.8252625109908748,154.92205135496604,-7.938,42.01801528166666,-93.77303465,344.682,4,2022-11-08-12-54-37-897,
/media/phenobot3/Extreme SSD/under-canopy-images/Test3/enviratron/r3/1667933678143346263.jpeg,1667933678.2266638,179.41824504596002,-1.0855338794343397,154.82612025531995,-9.812,42.01801346333333,-93.77303361833333,344.688,4,2022-11-08-12-54-38-226,
/media/phenobot3/Extreme SSD/under-canopy-images/Test3/enviratron/r3/1667933678476455445.jpeg,1667933678.5573041,-177.45935128619095,-1.3470305400133236,158.8067274985524,-6.813,42.01801146333333,-93.77303446666667,344.691,4,2022-11-08-12-54-38-557,
/media/phenobot3/Extreme SSD/under-canopy-images/Test3/enviratron/r3/1667933678810134155.jpeg,1667933678.8871596,-178.89776067304922,-0.5645320735096154,159.7273293598147,-7.5,42.018008396666666,-93.77303536333334,344.696,4,2022-11-08-12-54-38-887,
/media/phenobot3/Extreme SSD/under-canopy-images/Test3/enviratron/r3/1667933679141941339.jpeg,1667933679.2201498,179.0079969958004,-0.8195537997636817,157.98513094236054,-9.5,42.01800634666667,-93.77303394,344.691,4,2022-11-08-12-54-39-220,
/media/phenobot3/Extreme SSD/under-canopy-images/Test3/enviratron/r3/1667933679476781097.jpeg,1667933679.5566893,-179.68850694046637,-1.046051309669407,157.1614152631946,-9.5,42.018004186666666,-93.77303368666666,344.698,4,2022-11-08-12-54-39-556,
/media/phenobot3/Extreme SSD/under-canopy-images/Test3/enviratron/r3/1667933679810129934.jpeg,1667933679.881512,-179.15731257946618,-0.5644996701275061,157.50284259698802,-7.438,42.018001393333336,-93.77303496666667,344.703,4,2022-11-08-12-54-39-881,
/media/phenobot3/Extreme SSD/under-canopy-images/Test3/enviratron/r3/1667933680143079757.jpeg,1667933680.2160728,-179.2872017296486,-1.0555599197557528,156.41753455338488,-8.875,42.01799874333334,-93.77303412,344.7,4,2022-11-08-12-54-40-216,
/media/phenobot3/Extreme SSD/under-canopy-images/Test3/enviratron/r3/1667933680476679147.jpeg,1667933680.5579772,-179.30173761655448,-1.287863668153068,155.8782596015967,-9.437,42.01799713166667,-93.77303374666667,344.705,4,2022-11-08-12-54-40-558,
/media/phenobot3/Extreme SSD/under-canopy-images/Test3/enviratron/r3/1667933680809892948.jpeg,1667933680.8979905,-178.05747427285112,-0.9060737743119517,155.64047832333307,-6.688,42.01799405333333,-93.77303512166667,344.711,4,2022-11-08-12-54-40-898,
/media/phenobot3/Extreme SSD/under-canopy-images/Test3/enviratron/r3/1667933681141762120.jpeg,1667933681.2207153,-178.54200998666153,-0.35615468585942056,154.8530638593904,-6.563,42.017992085,-93.77303526,344.713,4,2022-11-08-12-54-41-220,
/media/phenobot3/Extreme SSD/under-canopy-images/Test3/enviratron/r3/1667933681476048028.jpeg,1667933681.55634,-178.83173667507364,-1.3802144261612497,154.54070436189144,-8.625,42.01799072666667,-93.77303428333333,344.711,4,2022-11-08-12-54-41-556,
/media/phenobot3/Extreme SSD/under-canopy-images/Test3/enviratron/r3/1667933681810471612.jpeg,1667933681.8881853,-178.6463587952379,-0.29228910572282973,153.68601089792898,-6.813,42.01798715,-93.77303529666666,344.722,4,2022-11-08-12-54-41-888,
/media/phenobot3/Extreme SSD/under-canopy-images/Test3/enviratron/r3/1667933682159774487.jpeg,1667933682.2293272,-178.1717948437212,-0.6862368232931578,154.46607925870435,-7.063,42.017985085,-93.77303507166667,344.714,4,2022-11-08-12-54-42-229,
/media/phenobot3/Extreme SSD/under-canopy-images/Test3/enviratron/r3/1667933682478261714.jpeg,1667933682.5618954,178.8666104225517,-0.2902913981966479,155.95637549782083,-9.187,42.017982485,-93.77303402666666,344.719,4,2022-11-08-12-54-42-561,
/media/phenobot3/Extreme SSD/under-canopy-images/Test3/enviratron/r3/1667933682841499754.jpeg,1667933682.9005332,179.87886127738741,0.22583655071226308,159.71872022719606,-11.562,42.0179799,-93.773032815,344.714,4,2022-11-08-12-54-42-900,
/media/phenobot3/Extreme SSD/under-canopy-images/Test3/enviratron/r3/1667933683143379664.jpeg,1667933683.2295742,-178.91190605723955,-0.6297834742716774,161.26658541496045,-6.438,42.01797818,-93.77303584,344.719,4,2022-11-08-12-54-43-229,
/media/phenobot3/Extreme SSD/under-canopy-images/Test3/enviratron/r3/1667933683509869266.jpeg,1667933683.570001,179.62661448686538,-1.1201123769698784,163.18154687107187,-10.125,42.017975505,-93.77303379166666,344.721,4,2022-11-08-12-54-43-570,
/media/phenobot3/Extreme SSD/under-canopy-images/Test3/enviratron/r3/1667933683810193384.jpeg,1667933683.88985,-179.03187789508212,-1.4465337644042902,161.09678404329134,-10.0,42.017973785,-93.77303338833333,344.724,4,2022-11-08-12-54-43-889,
/media/phenobot3/Extreme SSD/under-canopy-images/Test3/enviratron/r3/1667933684174841529.jpeg,1667933684.2343366,-175.4197787942421,-2.4677195177047486,160.0253891115922,-6.25,42.017971405,-93.773034645,344.73,4,2022-11-08-12-54-44-234,
/media/phenobot3/Extreme SSD/under-canopy-images/Test3/enviratron/r3/1667933684476061912.jpeg,1667933684.5615704,-172.64669961311685,-1.0612592467327204,157.34548210996257,0.563,42.01796947,-93.77303856333333,344.711,4,2022-11-08-12-54-44-561,
/media/phenobot3/Extreme SSD/under-canopy-images/Test3/enviratron/r3/1667933684843906715.jpeg,1667933684.9074638,-177.24214978457428,-1.8652852980178436,159.55111923751383,-7.313,42.017966785,-93.77303493166667,344.743,4,2022-11-08-12-54-44-907,
/media/phenobot3/Extreme SSD/under-canopy-images/Test3/enviratron/r3/1667933685143833143.jpeg,1667933685.2283897,-176.99948230658885,-2.0710441709572898,160.296765937288,-7.25,42.01796397,-93.77303422,344.757,4,2022-11-08-12-54-45-228,
/media/phenobot3/Extreme SSD/under-canopy-images/Test3/enviratron/r3/1667933685507781343.jpeg,1667933685.566817,-176.79675235915062,-0.39927980067939595,160.03846997033327,-5.063,42.017960198333334,-93.77303571333333,344.761,4,2022-11-08-12-54-45-566,
/media/phenobot3/Extreme SSD/under-canopy-images/Test3/enviratron/r3/1667933685810163803.jpeg,1667933685.8829618,-176.66921743986686,-0.9651973994347286,156.71578707441478,-7.438,42.017958416666666,-93.773034145,344.765,4,2022-11-08-12-54-45-883,
/media/phenobot3/Extreme SSD/under-canopy-images/Test3/enviratron/r3/1667933686172661393.jpeg,1667933686.2317324,-175.75465537035015,0.017046160227663434,155.55367949088568,-4.875,42.017955905,-93.773034545,344.775,4,2022-11-08-12-54-46-231,
/media/phenobot3/Extreme SSD/under-canopy-images/Test3/enviratron/r3/1667933686476602668.jpeg,1667933686.563643,-175.31506560541263,0.5014535230872671,153.22856754616402,-3.5,42.01795348,-93.77303620333333,344.767,4,2022-11-08-12-54-46-563,
/media/phenobot3/Extreme SSD/under-canopy-images/Test3/enviratron/r3/1667933686840413705.jpeg,1667933686.8990023,-177.56510838165744,-0.7019578389527308,151.7413955287505,-5.813,42.017950855,-93.77303484166667,344.775,4,2022-11-08-12-54-46-899,
/media/phenobot3/Extreme SSD/under-canopy-images/Test3/enviratron/r3/1667933687142910572.jpeg,1667933687.2230303,-179.75268326936805,-1.7262886517678444,152.5433860853533,-8.812,42.01794892833333,-93.77303338,344.779,4,2022-11-08-12-54-47-223,
/media/phenobot3/Extreme SSD/under-canopy-images/Test3/enviratron/r3/1667933687509145090.jpeg,1667933687.570157,-177.4055563960049,-2.316537626451752,153.9939962215412,-7.75,42.01794622,-93.77303399,344.778,4,2022-11-08-12-54-47-570,
/media/phenobot3/Extreme SSD/under-canopy-images/Test3/enviratron/r3/1667933687810030566.jpeg,1667933687.8925886,-179.67283326048215,-1.4756092979351887,155.08639516818823,-7.813,42.01794394,-93.77303451333333,344.785,4,2022-11-08-12-54-47-892,
/media/phenobot3/Extreme SSD/under-canopy-images/Test3/enviratron/r3/1667933688175338815.jpeg,1667933688.2438226,179.4218741727189,-0.8224375930836623,155.78902756849214,-11.75,42.01794113,-93.77303207333334,344.795,4,2022-11-08-12-54-48-243,
/media/phenobot3/Extreme SSD/under-canopy-images/Test3/enviratron/r3/1667933688476018390.jpeg,1667933688.5562649,-179.97365633233855,-0.7859738250890077,156.4287988395074,-10.5,42.017938408333336,-93.773032815,344.801,4,2022-11-08-12-54-48-556,
/media/phenobot3/Extreme SSD/under-canopy-images/Test3/enviratron/r3/1667933688843749146.jpeg,1667933688.9041765,-176.62457392811638,-0.248534113455445,156.8198749159813,-6.5,42.017935115,-93.77303494166667,344.803,4,2022-11-08-12-54-48-904,
/media/phenobot3/Extreme SSD/under-canopy-images/Test3/enviratron/r3/1667933689143212639.jpeg,1667933689.2261264,-178.139667590922,0.5528098055674292,155.92637487891997,-6.688,42.017933745,-93.773036065,344.796,4,2022-11-08-12-54-49-226,
/media/phenobot3/Extreme SSD/under-canopy-images/Test3/enviratron/r3/1667933689497495069.jpeg,1667933689.5600781,179.04623939391726,0.3037163591365612,158.0912138827661,-12.187,42.017930705,-93.77303238166667,344.8,4,2022-11-08-12-54-49-560,
/media/phenobot3/Extreme SSD/under-canopy-images/Test3/enviratron/r3/1667933689811850716.jpeg,1667933689.8921273,179.57325857961501,-1.1605248469561358,159.4221730169621,-9.187,42.017928078333334,-93.77303377833333,344.814,4,2022-11-08-12-54-49-892,
/media/phenobot3/Extreme SSD/under-canopy-images/Test3/enviratron/r3/1667933690174404762.jpeg,1667933690.2338798,-179.53628653247964,-1.6692417716110706,160.0275152391466,-7.438,42.017926233333334,-93.77303557,344.815,4,2022-11-08-12-54-50-233,
/media/phenobot3/Extreme SSD/under-canopy-images/Test3/enviratron/r3/1667933690476211088.jpeg,1667933690.561115,-178.9711607697461,-1.9017622911564285,160.19622465599642,-10.687,42.017923528333334,-93.77303311833333,344.811,4,2022-11-08-12-54-50-561,
/media/phenobot3/Extreme SSD/under-canopy-images/Test3/enviratron/r3/1667933690842419320.jpeg,1667933690.902939,-179.44105437833298,-1.8587284596107883,160.53904432700273,-7.25,42.01792112166667,-93.77303510333333,344.817,4,2022-11-08-12-54-50-903,
/media/phenobot3/Extreme SSD/under-canopy-images/Test3/enviratron/r3/1667933691142790388.jpeg,1667933691.2303848,-178.47149131353515,-2.4819089176900206,160.61122666191952,-7.938,42.01791900833334,-93.77303456333334,344.836,4,2022-11-08-12-54-51-230,
/media/phenobot3/Extreme SSD/under-canopy-images/Test3/enviratron/r3/1667933691507522911.jpeg,1667933691.5683866,-177.16696093648434,-2.143302126863189,158.74379464814172,-6.5,42.01791562333333,-93.77303509166667,344.843,4,2022-11-08-12-54-51-568,
/media/phenobot3/Extreme SSD/under-canopy-images/Test3/enviratron/r3/1667933691810282795.jpeg,1667933691.8949537,-177.32343357767195,-1.6604358982387564,158.4220610588387,-5.688,42.01791350166667,-93.77303562833333,344.845,4,2022-11-08-12-54-51-895,
/media/phenobot3/Extreme SSD/under-canopy-images/Test3/enviratron/r3/1667933692174252789.jpeg,1667933692.2342577,-179.77038541449704,-1.410739921642082,157.1917645970397,-8.937,42.017911213333335,-93.77303415666667,344.855,4,2022-11-08-12-54-52-234,
/media/phenobot3/Extreme SSD/under-canopy-images/Test3/enviratron/r3/1667933692476765110.jpeg,1667933692.5512934,178.97222674230332,-1.2441660356607167,157.64767432005286,-10.75,42.017908463333335,-93.77303233166667,344.863,4,2022-11-08-12-54-52-551,
/media/phenobot3/Extreme SSD/under-canopy-images/Test3/enviratron/r3/1667933692839990407.jpeg,1667933692.9003484,178.6413983387853,-1.6504631146644582,156.46279525293426,-12.187,42.01790615833333,-93.77303184333333,344.869,4,2022-11-08-12-54-52-900,
/media/phenobot3/Extreme SSD/under-canopy-images/Test3/enviratron/r3/1667933693143266760.jpeg,1667933693.22688,-178.65997713431858,-0.0431379503514043,156.04354586549616,-10.125,42.017902701666664,-93.77303219,344.866,4,2022-11-08-12-54-53-226,
/media/phenobot3/Extreme SSD/under-canopy-images/Test3/enviratron/r3/1667933693496856832.jpeg,1667933693.5618463,-178.8787061545066,0.7052570697076134,154.2018933441485,-7.188,42.01789966,-93.77303442,344.871,4,2022-11-08-12-54-53-561,
/media/phenobot3/Extreme SSD/under-canopy-images/Test3/enviratron/r3/1667933693811920021.jpeg,1667933693.8936715,178.50406542630643,0.7920479911333586,154.1788848994564,-12.312,42.017897405,-93.77303163833334,344.869,4,2022-11-08-12-54-53-893,
/media/phenobot3/Extreme SSD/under-canopy-images/Test3/enviratron/r3/1667933694173866685.jpeg,1667933694.2339938,177.58610619372524,0.4926666052270914,153.73111851369615,-13.625,42.017894575,-93.77303069,344.86,4,2022-11-08-12-54-54-234,
/media/phenobot3/Extreme SSD/under-canopy-images/Test3/enviratron/r3/1667933694476319745.jpeg,1667933694.5594988,-179.0526811896986,0.5065111326034856,155.6276886049009,-7.75,42.01789192333333,-93.773034445,344.864,4,2022-11-08-12-54-54-559,
/media/phenobot3/Extreme SSD/under-canopy-images/Test3/enviratron/r3/1667933694843109781.jpeg,1667933694.90413,179.34713237644542,-0.5672879275698035,155.92782008875184,-10.25,42.01789014166667,-93.77303335333333,344.866,4,2022-11-08-12-54-54-904,
/media/phenobot3/Extreme SSD/under-canopy-images/Test3/enviratron/r3/1667933695142212628.jpeg,1667933695.2219505,178.99604108866984,-0.5538948363240394,156.8000890502089,-12.75,42.0178875,-93.773031725,344.848,4,2022-11-08-12-54-55-222,
/media/phenobot3/Extreme SSD/under-canopy-images/Test3/enviratron/r3/1667933695507686062.jpeg,1667933695.5688376,-179.80790082035747,-1.0245417613872636,158.50998259129523,-10.062,42.01788482333333,-93.77303350666666,344.859,4,2022-11-08-12-54-55-568,
/media/phenobot3/Extreme SSD/under-canopy-images/Test3/enviratron/r3/1667933695809755581.jpeg,1667933695.8820245,-178.99047678237676,-1.2550875181118069,159.129772384662,-8.375,42.017882965,-93.77303444833333,344.863,4,2022-11-08-12-54-55-882,
/media/phenobot3/Extreme SSD/under-canopy-images/Test3/enviratron/r3/1667933696171087366.jpeg,1667933696.2304866,-179.14032774849125,-0.8238020036175433,157.31025271286578,-10.75,42.017880231666666,-93.77303305666666,344.868,4,2022-11-08-12-54-56-230,
/media/phenobot3/Extreme SSD/under-canopy-images/Test3/enviratron/r3/1667933696476475368.jpeg,1667933696.5714514,179.42846076437496,-1.6267665522740233,156.9546429275649,-9.75,42.017878286666665,-93.77303368166666,344.872,4,2022-11-08-12-54-56-571,
/media/phenobot3/Extreme SSD/under-canopy-images/Test3/enviratron/r3/1667933696830552796.jpeg,1667933696.8925524,179.64935221480394,-2.314288656622042,156.54681078787556,-10.562,42.017875491666665,-93.77303292833334,344.883,4,2022-11-08-12-54-56-892,
/media/phenobot3/Extreme SSD/under-canopy-images/Test3/enviratron/r3/1667933697144489247.jpeg,1667933697.2261996,179.801309702357,-3.0933557842584074,157.0950073911143,-9.687,42.017874213333336,-93.77303341166666,344.89,4,2022-11-08-12-54-57-226,
/media/phenobot3/Extreme SSD/under-canopy-images/Test3/enviratron/r3/1667933697496412145.jpeg,1667933697.5589445,-179.6060225515995,-4.445992393110949,159.30741181685207,-8.687,42.01787169833333,-93.77303409833333,344.892,4,2022-11-08-12-54-57-559,
/media/phenobot3/Extreme SSD/under-canopy-images/Test3/enviratron/r3/1667933697811990904.jpeg,1667933697.8863266,-177.56230902263226,-3.926554034550065,160.61583262056863,-8.25,42.017868455,-93.773034015,344.917,4,2022-11-08-12-54-57-886,
/media/phenobot3/Extreme SSD/under-canopy-images/Test3/enviratron/r3/1667933698162702079.jpeg,1667933698.2288606,-178.7131540053347,-2.4795650172580044,158.62242324975406,-8.0,42.01786562833333,-93.77303478666667,344.919,4,2022-11-08-12-54-58-228,
/media/phenobot3/Extreme SSD/under-canopy-images/Test3/enviratron/r3/1667933698478491371.jpeg,1667933698.556478,179.8413584813643,-1.810224947594074,157.5059181558695,-10.562,42.017863825,-93.77303302666667,344.934,4,2022-11-08-12-54-58-556,
/media/phenobot3/Extreme SSD/under-canopy-images/Test3/enviratron/r3/1667933698840385385.jpeg,1667933698.9032464,179.61147137012802,-0.4818842559306744,155.81510982622717,-9.187,42.017859845,-93.77303341666666,344.952,4,2022-11-08-12-54-58-903,
/media/phenobot3/Extreme SSD/under-canopy-images/Test3/enviratron/r3/1667933699143153948.jpeg,1667933699.2327585,178.8172391919455,-1.1726701461378377,156.49764811796368,-11.25,42.01785769333333,-93.773032365,344.948,4,2022-11-08-12-54-59-232,
/media/phenobot3/Extreme SSD/under-canopy-images/Test3/enviratron/r3/1667933699496263651.jpeg,1667933699.560606,177.38916924470558,-1.393986137936765,156.9367878357681,-13.812,42.017855016666665,-93.77303058,344.948,4,2022-11-08-12-54-59-560,
/media/phenobot3/Extreme SSD/under-canopy-images/Test3/enviratron/r3/1667933699814249720.jpeg,1667933699.8923476,179.86633152249604,0.4654159655316981,155.56605676232536,-11.687,42.01785185,-93.77303173166666,344.939,4,2022-11-08-12-54-59-892,
/media/phenobot3/Extreme SSD/under-canopy-images/Test3/enviratron/r3/1667933700172894620.jpeg,1667933700.2335224,-177.6787185622624,0.495016255285481,152.9745792468628,-6.375,42.017850343333336,-93.773034465,344.946,4,2022-11-08-12-55-00-233,
/media/phenobot3/Extreme SSD/under-canopy-images/Test3/enviratron/r3/1667933700476699187.jpeg,1667933700.5623326,-178.87790790285896,1.3786762617111714,152.24279597856162,-7.0,42.017846731666666,-93.77303462666667,344.949,4,2022-11-08-12-55-00-562,
/media/phenobot3/Extreme SSD/under-canopy-images/Test3/enviratron/r3/1667933700841312756.jpeg,1667933700.8999074,179.9005158553687,-0.34283682941781324,155.82410466523825,-12.125,42.01784460333333,-93.77303188166667,344.953,4,2022-11-08-12-55-00-899,
/media/phenobot3/Extreme SSD/under-canopy-images/Test3/enviratron/r3/1667933701143136804.jpeg,1667933701.2303343,178.17434632149167,-0.9610773387366637,159.3337297739257,-10.0,42.017842855,-93.77303330166667,344.943,4,2022-11-08-12-55-01-230,
/media/phenobot3/Extreme SSD/under-canopy-images/Test3/enviratron/r3/1667933701495700777.jpeg,1667933701.5598757,178.99851157837193,-1.7715284655170067,160.71682836525733,-11.562,42.01784026666667,-93.77303252333333,344.943,4,2022-11-08-12-55-01-559,
/media/phenobot3/Extreme SSD/under-canopy-images/Test3/enviratron/r3/1667933701812002319.jpeg,1667933701.8937607,179.98011624005875,-1.6008084463139651,158.6787428853211,-10.5,42.017837781666664,-93.77303301333333,344.949,4,2022-11-08-12-55-01-893,
/media/phenobot3/Extreme SSD/under-canopy-images/Test3/enviratron/r3/1667933702162374081.jpeg,1667933702.2262998,-179.95264560447907,-0.8564639704036406,158.67210379644953,-10.125,42.017834905,-93.77303303166667,344.962,4,2022-11-08-12-55-02-226,
/media/phenobot3/Extreme SSD/under-canopy-images/Test3/enviratron/r3/1667933702478101150.jpeg,1667933702.5616574,-177.28689910518744,-0.6125247738755342,154.81599163602465,-5.938,42.01783225166667,-93.77303528,344.956,4,2022-11-08-12-55-02-561,
/media/phenobot3/Extreme SSD/under-canopy-images/Test3/enviratron/r3/1667933702841552803.jpeg,1667933702.901537,177.35115206295583,-0.6777347319339265,156.74240569743068,-12.625,42.017829676666665,-93.77303215,344.964,4,2022-11-08-12-55-02-901,
/media/phenobot3/Extreme SSD/under-canopy-images/Test3/enviratron/r3/1667933703142898894.jpeg,1667933703.217446,179.14790392364955,-1.2016574291443143,157.3613599924427,-12.375,42.01782812166667,-93.77303096333333,344.957,4,2022-11-08-12-55-03-217,
/media/phenobot3/Extreme SSD/under-canopy-images/Test3/enviratron/r3/1667933703506754044.jpeg,1667933703.567035,-175.4869019250268,-0.8613684271325034,155.1970461985266,-3.562,42.01782520166667,-93.77303675666667,344.962,4,2022-11-08-12-55-03-567,
/media/phenobot3/Extreme SSD/under-canopy-images/Test3/enviratron/r3/1667933703810761893.jpeg,1667933703.9004924,178.77921293213373,-1.344546214314192,155.90987018665794,-9.5,42.017823426666666,-93.77303403,344.969,4,2022-11-08-12-55-03-900,
/media/phenobot3/Extreme SSD/under-canopy-images/Test3/enviratron/r3/1667933704173406585.jpeg,1667933704.2376747,176.2155021333939,-0.08163631517726744,157.76534775631984,-15.75,42.017820656666665,-93.77302904333334,344.949,4,2022-11-08-12-55-04-237,
/media/phenobot3/Extreme SSD/under-canopy-images/Test3/enviratron/r3/1667933704476867326.jpeg,1667933704.5592165,-179.4733328512179,0.5031128384478925,159.89115338169856,-9.687,42.01781681833333,-93.77303355,344.979,4,2022-11-08-12-55-04-559,
/media/phenobot3/Extreme SSD/under-canopy-images/Test3/enviratron/r3/1667933704841176457.jpeg,1667933704.9019048,-178.68463549104868,1.1942971681214245,158.76529928107743,-7.313,42.01781467166666,-93.77303479,344.98,4,2022-11-08-12-55-04-901,
/media/phenobot3/Extreme SSD/under-canopy-images/Test3/enviratron/r3/1667933705142926849.jpeg,1667933705.2248483,179.82320569062438,1.4786372271976793,157.32148990569087,-12.687,42.01781223166667,-93.7730318,344.974,4,2022-11-08-12-55-05-224,
/media/phenobot3/Extreme SSD/under-canopy-images/Test3/enviratron/r3/1667933705496476306.jpeg,1667933705.5649433,179.1501144564527,0.02980862820803699,157.46213554371934,-10.437,42.01780961,-93.77303263833333,344.976,4,2022-11-08-12-55-05-565,
/media/phenobot3/Extreme SSD/under-canopy-images/Test3/enviratron/r3/1667933705833156104.jpeg,1667933705.8951604,179.90962526152978,-0.0988539123695624,157.28449281927735,-8.812,42.01780756,-93.77303331166667,344.974,4,2022-11-08-12-55-05-895,
/media/phenobot3/Extreme SSD/under-canopy-images/Test3/enviratron/r3/1667933706143322421.jpeg,1667933706.22848,178.90086896728945,-0.6025863494546623,156.54770729165023,-10.5,42.01780524833333,-93.77303266166666,344.966,4,2022-11-08-12-55-06-228,
/media/phenobot3/Extreme SSD/under-canopy-images/Test3/enviratron/r3/1667933706476652711.jpeg,1667933706.55698,179.9624580340254,-0.6589838492472037,156.7018002380489,-11.187,42.017802696666664,-93.77303173833333,344.962,4,2022-11-08-12-55-06-557,
/media/phenobot3/Extreme SSD/under-canopy-images/Test3/enviratron/r3/1667933706809800178.jpeg,1667933706.8865232,-179.53481927456087,-0.20881156169837245,155.81347857186913,-8.875,42.01779949666667,-93.773033285,344.973,4,2022-11-08-12-55-06-886,
/media/phenobot3/Extreme SSD/under-canopy-images/Test3/enviratron/r3/1667933707145819853.jpeg,1667933707.2299163,179.6550818076495,-0.28157810110298825,155.25592348914174,-9.75,42.017797378333334,-93.773032845,344.974,4,2022-11-08-12-55-07-230,
/media/phenobot3/Extreme SSD/under-canopy-images/Test3/enviratron/r3/1667933707505917332.jpeg,1667933707.566476,179.206229276729,-1.047266322422357,152.4538562438328,-9.812,42.017794605,-93.77303288333333,344.975,4,2022-11-08-12-55-07-566,
/media/phenobot3/Extreme SSD/under-canopy-images/Test3/enviratron/r3/1667933707809559562.jpeg,1667933707.892121,178.64480258496872,-0.6426276569372441,155.3892588270443,-13.25,42.01779204166667,-93.77303131166667,344.965,4,2022-11-08-12-55-07-892,
/media/phenobot3/Extreme SSD/under-canopy-images/Test3/enviratron/r3/1667933708173221875.jpeg,1667933708.2342985,179.96581347305738,-0.772464305721533,156.2257725779054,-7.813,42.01779039833333,-93.77303367,344.978,4,2022-11-08-12-55-08-234,
/media/phenobot3/Extreme SSD/under-canopy-images/Test3/enviratron/r3/1667933708476960837.jpeg,1667933708.5598874,177.99025213966394,-0.4582870430802593,156.66673939145952,-12.437,42.01778847,-93.77303271,344.974,4,2022-11-08-12-55-08-559,
/media/phenobot3/Extreme SSD/under-canopy-images/Test3/enviratron/r3/1667933708842609669.jpeg,1667933708.9011614,179.7462986286927,-0.02091467367226161,155.7055845026934,-11.312,42.01778526,-93.77303232666667,344.979,4,2022-11-08-12-55-08-901,
/media/phenobot3/Extreme SSD/under-canopy-images/Test3/enviratron/r3/1667933709142718411.jpeg,1667933709.2245686,178.71881523102982,-0.15635213826851393,157.31261952372031,-11.0,42.01778278,-93.773032935,344.979,4,2022-11-08-12-55-09-224,
/media/phenobot3/Extreme SSD/under-canopy-images/Test3/enviratron/r3/1667933709493013176.jpeg,1667933709.550915,179.35100892162072,-0.5452624414180803,158.92853991313692,-10.812,42.01778009,-93.77303315166667,344.981,4,2022-11-08-12-55-09-551,
/media/phenobot3/Extreme SSD/under-canopy-images/Test3/enviratron/r3/1667933709812201544.jpeg,1667933709.8936565,179.73314419933604,-1.2211267034570727,160.4668225860205,-11.25,42.01777788166667,-93.77303272666667,344.987,4,2022-11-08-12-55-09-893,
/media/phenobot3/Extreme SSD/under-canopy-images/Test3/enviratron/r3/1667933710172855469.jpeg,1667933710.2294617,179.87740801903968,-1.6852374212340566,161.21053958319442,-8.562,42.01777602,-93.77303452166667,344.989,4,2022-11-08-12-55-10-229,
/media/phenobot3/Extreme SSD/under-canopy-images/Test3/enviratron/r3/1667933710476888934.jpeg,1667933710.559187,179.3977245031725,-2.043898910089445,163.19798977730528,-9.687,42.017773053333336,-93.77303338833333,344.99,4,2022-11-08-12-55-10-559,
/media/phenobot3/Extreme SSD/under-canopy-images/Test3/enviratron/r3/1667933710832802733.jpeg,1667933710.8939202,-178.1510584028676,-0.21703005150897223,166.3475120598631,-7.5,42.017769781666665,-93.77303440833333,344.997,4,2022-11-08-12-55-10-894,
/media/phenobot3/Extreme SSD/under-canopy-images/Test3/enviratron/r3/1667933711161324712.jpeg,1667933711.2274616,179.7110427854997,0.486533894219555,165.2213694838829,-8.0,42.017768106666665,-93.77303454333334,345.003,4,2022-11-08-12-55-11-227,
/media/phenobot3/Extreme SSD/under-canopy-images/Test3/enviratron/r3/1667933711476411790.jpeg,1667933711.5560193,177.34592579820583,1.0091545315138515,163.28711182986015,-14.75,42.01776602166667,-93.77302954333334,344.985,4,2022-11-08-12-55-11-556,
/media/phenobot3/Extreme SSD/under-canopy-images/Test3/enviratron/r3/1667933711810664761.jpeg,1667933711.8853955,-178.9479488777002,0.762433313494898,160.34426942196995,-6.313,42.017762428333334,-93.77303348833334,345.001,4,2022-11-08-12-55-11-885,
/media/phenobot3/Extreme SSD/under-canopy-images/Test3/enviratron/r3/1667933712143275692.jpeg,1667933712.2305229,-176.61055190995287,-0.5768239250370377,158.524087771421,-5.375,42.017761263333334,-93.77303397166666,344.992,4,2022-11-08-12-55-12-230,
/media/phenobot3/Extreme SSD/under-canopy-images/Test3/enviratron/r3/1667933712476453390.jpeg,1667933712.5547857,179.41984817376314,-0.13779908414392825,153.27020865330115,-8.5,42.017759336666664,-93.77303326,344.996,4,2022-11-08-12-55-12-554,
/media/phenobot3/Extreme SSD/under-canopy-images/Test3/enviratron/r3/1667933712810546454.jpeg,1667933712.8900912,179.62645761028645,-0.29481522587465336,153.26901133327974,-11.0,42.017756633333335,-93.77303038666666,344.993,4,2022-11-08-12-55-12-890,
/media/phenobot3/Extreme SSD/under-canopy-images/Test3/enviratron/r3/1667933713142727033.jpeg,1667933713.2168052,-177.5647353831635,-0.025258782089008298,154.82784785881572,-5.063,42.01775440833333,-93.77303414333333,344.99,4,2022-11-08-12-55-13-216,
/media/phenobot3/Extreme SSD/under-canopy-images/Test3/enviratron/r3/1667933713476701370.jpeg,1667933713.5566144,-178.939322694069,-0.48940234812432565,158.21696278364996,-7.063,42.01775267666667,-93.77303335166667,344.996,4,2022-11-08-12-55-13-556,
/media/phenobot3/Extreme SSD/under-canopy-images/Test3/enviratron/r3/1667933713811381660.jpeg,1667933713.8880737,-177.09181249728442,-0.9980734687650533,159.29783430411348,-6.813,42.017749755,-93.77303311,344.997,4,2022-11-08-12-55-13-888,
/media/phenobot3/Extreme SSD/under-canopy-images/Test3/enviratron/r3/1667933714143361573.jpeg,1667933714.2184274,-176.7309865713218,-1.2420245550294577,158.24808031940412,-5.125,42.017747973333336,-93.77303406166666,344.995,4,2022-11-08-12-55-14-218,
/media/phenobot3/Extreme SSD/under-canopy-images/Test3/enviratron/r3/1667933714476977296.jpeg,1667933714.5595546,-177.89286281380333,-0.4980438511382595,156.40230485038427,-5.438,42.01774567,-93.77303435,344.99,4,2022-11-08-12-55-14-559,
/media/phenobot3/Extreme SSD/under-canopy-images/Test3/enviratron/r3/1667933714813969382.jpeg,1667933714.8948212,-178.51577532424213,-0.9274823398813257,155.99064933508808,-7.438,42.01774270833333,-93.77303247333333,345.009,4,2022-11-08-12-55-14-894,
/media/phenobot3/Extreme SSD/under-canopy-images/Test3/enviratron/r3/1667933715172741133.jpeg,1667933715.2332957,-178.65424810925043,-0.14327879778720373,156.11640041029924,-7.0,42.017740528333334,-93.77303285833334,345.003,4,2022-11-08-12-55-15-233,
/media/phenobot3/Extreme SSD/under-canopy-images/Test3/enviratron/r3/1667933715476510818.jpeg,1667933715.5586057,-179.89505530330243,0.6982413405241645,156.27379760310296,-7.438,42.017738101666666,-93.77303322833333,345.0,4,2022-11-08-12-55-15-558,
/media/phenobot3/Extreme SSD/under-canopy-images/Test3/enviratron/r3/1667933715828739630.jpeg,1667933715.891106,-178.78767834887972,0.14651942019147554,159.93376222347413,-8.625,42.017735585,-93.77303242333333,345.004,4,2022-11-08-12-55-15-891,
/media/phenobot3/Extreme SSD/under-canopy-images/Test3/enviratron/r3/1667933716144843299.jpeg,1667933716.2258565,-179.21692171886312,0.2891179331922085,162.95217061284703,-7.125,42.017733056666664,-93.77303325666666,345.008,4,2022-11-08-12-55-16-225,
/media/phenobot3/Extreme SSD/under-canopy-images/Test3/enviratron/r3/1667933716507572155.jpeg,1667933716.5670633,-178.89206217867525,-0.9286763545859893,161.84181108232275,-8.5,42.01773087666667,-93.77303232,345.003,4,2022-11-08-12-55-16-567,
/media/phenobot3/Extreme SSD/under-canopy-images/Test3/enviratron/r3/1667933716810128974.jpeg,1667933716.8979137,-177.42627580057362,-1.591953228253921,159.7656697257523,-6.188,42.017729115,-93.77303333166667,345.001,4,2022-11-08-12-55-16-897,
/media/phenobot3/Extreme SSD/under-canopy-images/Test3/enviratron/r3/1667933717174845579.jpeg,1667933717.2352662,-176.4068787119477,-1.5717834028387732,158.83325769810693,-4.938,42.01772687333333,-93.77303387166667,345.001,4,2022-11-08-12-55-17-235,
/media/phenobot3/Extreme SSD/under-canopy-images/Test3/enviratron/r3/1667933717477415569.jpeg,1667933717.5627694,-176.14176037887836,-1.1455209925520728,156.15779959973332,-4.625,42.01772389833334,-93.77303406,345.002,4,2022-11-08-12-55-17-562,
/media/phenobot3/Extreme SSD/under-canopy-images/Test3/enviratron/r3/1667933717841566912.jpeg,1667933717.9014714,-176.77552807790852,-0.6609308025548124,155.09398559013562,-5.313,42.017722146666664,-93.77303370166666,345.008,4,2022-11-08-12-55-17-901,
/media/phenobot3/Extreme SSD/under-canopy-images/Test3/enviratron/r3/1667933718143232114.jpeg,1667933718.2327514,-177.98489798829405,0.22246952210119353,154.74887666779279,-6.313,42.01771939166667,-93.77303340166667,345.009,4,2022-11-08-12-55-18-232,
/media/phenobot3/Extreme SSD/under-canopy-images/Test3/enviratron/r3/1667933718508424229.jpeg,1667933718.5678074,-179.43061022075238,0.9106442460145259,154.57806841182716,-8.25,42.017716093333334,-93.77303224166667,345.007,4,2022-11-08-12-55-18-567,
/media/phenobot3/Extreme SSD/under-canopy-images/Test3/enviratron/r3/1667933718810065984.jpeg,1667933718.8954632,-179.65727549458077,0.884191456261984,154.60230563905253,-7.875,42.01771437166666,-93.77303265666667,345.008,4,2022-11-08-12-55-18-895,
/media/phenobot3/Extreme SSD/under-canopy-images/Test3/enviratron/r3/1667933719173985103.jpeg,1667933719.2338753,178.11551225051892,1.4471810215849987,159.6666581112398,-10.625,42.017711193333334,-93.77303142333334,345.006,4,2022-11-08-12-55-19-233,
/media/phenobot3/Extreme SSD/under-canopy-images/Test3/enviratron/r3/1667933719476647737.jpeg,1667933719.5526855,178.04113455069503,0.5776561427976491,161.10756374372136,-12.687,42.01770974833333,-93.77303026,345.003,4,2022-11-08-12-55-19-552,
/media/phenobot3/Extreme SSD/under-canopy-images/Test3/enviratron/r3/1667933719843752394.jpeg,1667933719.9031537,179.501274613058,0.5115245214749751,159.03527668209918,-8.5,42.017706855,-93.77303214833333,344.995,4,2022-11-08-12-55-19-903,
/media/phenobot3/Extreme SSD/under-canopy-images/Test3/enviratron/r3/1667933720143161139.jpeg,1667933720.2256248,-179.88980283143593,-0.7840095922859118,156.62508738772047,-9.187,42.01770498333333,-93.77303200666667,345.0,4,2022-11-08-12-55-20-225,
/media/phenobot3/Extreme SSD/under-canopy-images/Test3/enviratron/r3/1667933720507394391.jpeg,1667933720.5671601,179.83423729098692,-0.5425310808367761,155.96941628490887,-10.187,42.01770191333333,-93.77303116,344.999,4,2022-11-08-12-55-20-567,
/media/phenobot3/Extreme SSD/under-canopy-images/Test3/enviratron/r3/1667933720810077869.jpeg,1667933720.897051,-179.43555908968833,-0.5779669171939154,155.36134557936202,-8.625,42.0177,-93.773031955,344.998,4,2022-11-08-12-55-20-897,
/media/phenobot3/Extreme SSD/under-canopy-images/Test3/enviratron/r3/1667933721173758943.jpeg,1667933721.2337832,179.62885250146758,0.5727385206702289,154.31524319372375,-8.312,42.017698005,-93.773032875,344.992,4,2022-11-08-12-55-21-233,
/media/phenobot3/Extreme SSD/under-canopy-images/Test3/enviratron/r3/1667933721476677511.jpeg,1667933721.563404,-178.83871301549487,0.6357390440189074,154.21603726711265,-9.687,42.017694721666665,-93.773031835,344.997,4,2022-11-08-12-55-21-563,
/media/phenobot3/Extreme SSD/under-canopy-images/Test3/enviratron/r3/1667933721842341452.jpeg,1667933721.9031367,-179.39049223866652,0.3414749218437576,154.57275083232162,-8.312,42.01769217,-93.77303274,344.992,4,2022-11-08-12-55-21-903,
/media/phenobot3/Extreme SSD/under-canopy-images/Test3/enviratron/r3/1667933722143244067.jpeg,1667933722.2270675,-177.77981527812094,0.19574391935330912,158.3607388235106,-8.0,42.017689983333334,-93.773032905,344.993,4,2022-11-08-12-55-22-227,
/media/phenobot3/Extreme SSD/under-canopy-images/Test3/enviratron/r3/1667933722510891008.jpeg,1667933722.5722513,177.81620078136442,0.26473840396290066,160.82555758121546,-11.437,42.01768764,-93.77303145833334,344.982,4,2022-11-08-12-55-22-572,
/media/phenobot3/Extreme SSD/under-canopy-images/Test3/enviratron/r3/1667933722809917438.jpeg,1667933722.8956459,178.9255258912823,0.3651994151974596,163.76736716714524,-12.312,42.01768533166667,-93.77303043666667,344.981,4,2022-11-08-12-55-22-895,
/media/phenobot3/Extreme SSD/under-canopy-images/Test3/enviratron/r3/1667933723173792408.jpeg,1667933723.2326133,-179.48006978318574,0.3279002726957671,158.1247267686255,-7.688,42.01768233333333,-93.773033565,344.988,4,2022-11-08-12-55-23-232,
/media/phenobot3/Extreme SSD/under-canopy-images/Test3/enviratron/r3/1667933723476389298.jpeg,1667933723.5641515,178.38036138658646,-0.2019664893859682,156.62579420656377,-11.312,42.01767998166667,-93.77303103666667,344.989,4,2022-11-08-12-55-23-564,
/media/phenobot3/Extreme SSD/under-canopy-images/Test3/enviratron/r3/1667933723842235374.jpeg,1667933723.9025047,179.4405129172095,-0.19535029914087707,154.07115391699858,-12.812,42.01767828333333,-93.77302987,344.981,4,2022-11-08-12-55-23-902,
/media/phenobot3/Extreme SSD/under-canopy-images/Test3/enviratron/r3/1667933724143375477.jpeg,1667933724.2334228,-179.12031859951043,0.1065904770478803,153.74048017501607,-7.563,42.017676048333335,-93.77303275,344.987,4,2022-11-08-12-55-24-233,
/media/phenobot3/Extreme SSD/under-canopy-images/Test3/enviratron/r3/1667933724511149537.jpeg,1667933724.5710711,178.12971840723623,0.14207031375236526,152.7311544643454,-11.312,42.017673083333335,-93.77303106,344.981,4,2022-11-08-12-55-24-571,
/media/phenobot3/Extreme SSD/under-canopy-images/Test3/enviratron/r3/1667933724812132303.jpeg,1667933724.8934717,177.50971853740185,1.0761389766219687,158.24907114231428,-14.812,42.017670816666666,-93.77302923833334,344.969,4,2022-11-08-12-55-24-893,
/media/phenobot3/Extreme SSD/under-canopy-images/Test3/enviratron/r3/1667933725169967241.jpeg,1667933725.2293367,-179.28921509110012,0.7921148154163238,164.64549326310888,-9.312,42.01766874,-93.773032005,344.983,4,2022-11-08-12-55-25-229,
/media/phenobot3/Extreme SSD/under-canopy-images/Test3/enviratron/r3/1667933725476696562.jpeg,1667933725.5606632,-179.24730240547848,1.5868392761574157,158.74061980267024,-7.813,42.01766593833333,-93.77303311,344.977,4,2022-11-08-12-55-25-560,
/media/phenobot3/Extreme SSD/under-canopy-images/Test3/enviratron/r3/1667933725839851980.jpeg,1667933725.8999844,177.29400243264885,0.7423944383626168,156.90379501473276,-12.812,42.01766396,-93.77303023333333,344.968,4,2022-11-08-12-55-25-900,
/media/phenobot3/Extreme SSD/under-canopy-images/Test3/enviratron/r3/1667933726143141704.jpeg,1667933726.227536,179.2843170425573,1.2643180906663785,156.35045870582215,-11.687,42.01766155,-93.773030265,344.965,4,2022-11-08-12-55-26-227,
/media/phenobot3/Extreme SSD/under-canopy-images/Test3/enviratron/r3/1667933726507614407.jpeg,1667933726.5678055,-179.5971384855116,0.11185377289726055,155.62199857553017,-7.875,42.017659263333336,-93.77303298333334,344.967,4,2022-11-08-12-55-26-567,
/media/phenobot3/Extreme SSD/under-canopy-images/Test3/enviratron/r3/1667933726810505183.jpeg,1667933726.8949144,178.340331270867,-0.08745788526657808,156.5892362746273,-11.312,42.01765618,-93.77303140166667,344.961,4,2022-11-08-12-55-26-895,
/media/phenobot3/Extreme SSD/under-canopy-images/Test3/enviratron/r3/1667933727173316146.jpeg,1667933727.234782,179.27643586869584,1.0633293970858173,158.50374558086298,-12.625,42.017654801666666,-93.77302966166667,344.945,4,2022-11-08-12-55-27-234,
/media/phenobot3/Extreme SSD/under-canopy-images/Test3/enviratron/r3/1667933727475789175.jpeg,1667933727.561542,-179.76427165857575,0.9858289387615535,159.31803633868577,-7.875,42.017652055,-93.77303318833333,344.946,4,2022-11-08-12-55-27-561,
/media/phenobot3/Extreme SSD/under-canopy-images/Test3/enviratron/r3/1667933727843670876.jpeg,1667933727.9051323,179.84607257319817,0.5867561537227256,158.37053311326915,-10.937,42.01764970833333,-93.77303148333333,344.959,4,2022-11-08-12-55-27-905,
/media/phenobot3/Extreme SSD/under-canopy-images/Test3/enviratron/r3/1667933728142620393.jpeg,1667933728.2270024,178.38019513223742,0.572568335181422,157.08246881924345,-11.625,42.017648,-93.77303083666666,344.952,4,2022-11-08-12-55-28-227,
/media/phenobot3/Extreme SSD/under-canopy-images/Test3/enviratron/r3/1667933728508032626.jpeg,1667933728.5693226,176.20065404752643,-0.019886935158104094,159.95013410071968,-14.0,42.01764553666667,-93.77302974666667,344.937,4,2022-11-08-12-55-28-569,
/media/phenobot3/Extreme SSD/under-canopy-images/Test3/enviratron/r3/1667933728809937213.jpeg,1667933728.8918557,179.4011021260901,0.19597830315305317,160.1721068285568,-12.562,42.017643555,-93.77303038666666,344.932,4,2022-11-08-12-55-28-891,
/media/phenobot3/Extreme SSD/under-canopy-images/Test3/enviratron/r3/1667933729161470284.jpeg,1667933729.2318046,-179.0111558138414,0.6631583696758293,159.6050107678867,-8.625,42.017640783333334,-93.77303233,344.938,4,2022-11-08-12-55-29-231,
/media/phenobot3/Extreme SSD/under-canopy-images/Test3/enviratron/r3/1667933729478028241.jpeg,1667933729.5597188,-177.8766210414663,-0.01116259001864326,158.33594725303226,-7.75,42.01763871166666,-93.77303287833334,344.935,4,2022-11-08-12-55-29-559,
/media/phenobot3/Extreme SSD/under-canopy-images/Test3/enviratron/r3/1667933729841617669.jpeg,1667933729.9005003,-179.86642090248776,0.3402411521666146,156.79057392155616,-9.875,42.01763574,-93.77303176333334,344.937,4,2022-11-08-12-55-29-900,
/media/phenobot3/Extreme SSD/under-canopy-images/Test3/enviratron/r3/1667933730142765022.jpeg,1667933730.2306225,179.25543927512584,0.305093306265021,155.6983453492953,-10.0,42.017633841666665,-93.773031535,344.929,4,2022-11-08-12-55-30-230,
/media/phenobot3/Extreme SSD/under-canopy-images/Test3/enviratron/r3/1667933730508255115.jpeg,1667933730.5684395,179.8141413149049,-0.15345454051654986,155.9140938909177,-9.375,42.017631611666665,-93.77303206833334,344.927,4,2022-11-08-12-55-30-568,
/media/phenobot3/Extreme SSD/under-canopy-images/Test3/enviratron/r3/1667933730810283819.jpeg,1667933730.8982196,-179.59250155577354,-0.6050485284587115,155.94719121998432,-9.75,42.017629335,-93.77303182333333,344.936,4,2022-11-08-12-55-30-898,
/media/phenobot3/Extreme SSD/under-canopy-images/Test3/enviratron/r3/1667933731173514930.jpeg,1667933731.233541,179.2305979325067,0.3828328008109583,157.0897426460775,-9.375,42.01762687666667,-93.773032895,344.933,4,2022-11-08-12-55-31-233,
/media/phenobot3/Extreme SSD/under-canopy-images/Test3/enviratron/r3/1667933731476858452.jpeg,1667933731.561219,178.2123173244121,0.005548414570851149,160.72491819833337,-13.937,42.01762390166667,-93.77302964166667,344.913,4,2022-11-08-12-55-31-561,
/media/phenobot3/Extreme SSD/under-canopy-images/Test3/enviratron/r3/1667933731841247226.jpeg,1667933731.9027953,-178.73360085849413,-0.0691487660054017,162.7164501082922,-8.0,42.017621445,-93.773032615,344.923,4,2022-11-08-12-55-31-902,
/media/phenobot3/Extreme SSD/under-canopy-images/Test3/enviratron/r3/1667933732143067295.jpeg,1667933732.2282789,179.48036126038625,1.6604005076746091,159.97103744325545,-10.0,42.017619223333334,-93.773032895,344.924,4,2022-11-08-12-55-32-228,
/media/phenobot3/Extreme SSD/under-canopy-images/Test3/enviratron/r3/1667933732509094197.jpeg,1667933732.5675774,178.02307602564116,0.9263724826836021,158.67387779537046,-14.75,42.01761672333333,-93.77302891,344.899,4,2022-11-08-12-55-32-567,
/media/phenobot3/Extreme SSD/under-canopy-images/Test3/enviratron/r3/1667933732813133760.jpeg,1667933732.891467,177.9508275469725,1.040810762675223,159.1056659581854,-11.687,42.017614273333336,-93.77303055333333,344.916,4,2022-11-08-12-55-32-891,
/media/phenobot3/Extreme SSD/under-canopy-images/Test3/enviratron/r3/1667933733174747043.jpeg,1667933733.235608,179.59262767161013,0.8243629424030273,158.3315067459109,-11.187,42.01761170666666,-93.77303124333334,344.917,4,2022-11-08-12-55-33-235,
/media/phenobot3/Extreme SSD/under-canopy-images/Test3/enviratron/r3/1667933733476900970.jpeg,1667933733.5629084,177.43784034607827,1.2142139889775265,156.7150991162736,-15.125,42.01760929333334,-93.77302860833333,344.894,4,2022-11-08-12-55-33-562,
/media/phenobot3/Extreme SSD/under-canopy-images/Test3/enviratron/r3/1667933733839650280.jpeg,1667933733.8989682,-179.06800182939057,0.6566710413713196,154.84493204092584,-9.5,42.01760718166667,-93.773031155,344.904,4,2022-11-08-12-55-33-899,
/media/phenobot3/Extreme SSD/under-canopy-images/Test3/enviratron/r3/1667933734142587015.jpeg,1667933734.2290504,-178.55540266162126,0.841919021770943,152.48506316166814,-7.5,42.017605661666664,-93.77303254166667,344.902,4,2022-11-08-12-55-34-229,
/media/phenobot3/Extreme SSD/under-canopy-images/Test3/enviratron/r3/1667933734505663446.jpeg,1667933734.5656118,179.43162732384732,0.7742798234500081,157.11643203106277,-9.062,42.01760227,-93.77303217666666,344.891,4,2022-11-08-12-55-34-565,
/media/phenobot3/Extreme SSD/under-canopy-images/Test3/enviratron/r3/1667933734810378365.jpeg,1667933734.8944309,177.10447535561983,-0.30664832085911997,158.15295829586543,-16.0,42.01759981166666,-93.77302811833333,344.87,4,2022-11-08-12-55-34-894,
/media/phenobot3/Extreme SSD/under-canopy-images/Test3/enviratron/r3/1667933735174293127.jpeg,1667933735.234344,179.89916456244774,-0.5135432783885749,159.14575695941514,-9.687,42.017597975,-93.77303090333334,344.888,4,2022-11-08-12-55-35-234,
/media/phenobot3/Extreme SSD/under-canopy-images/Test3/enviratron/r3/1667933735476605305.jpeg,1667933735.565862,177.5455463563301,0.35441775503178247,155.81727834062644,-11.75,42.01759532166667,-93.77303063333333,344.884,4,2022-11-08-12-55-35-565,
/media/phenobot3/Extreme SSD/under-canopy-images/Test3/enviratron/r3/1667933735845190258.jpeg,1667933735.9041524,179.32068075581466,-0.4787215370317667,154.1198395274902,-13.187,42.01759327,-93.77302957166667,344.878,4,2022-11-08-12-55-35-904,
/media/phenobot3/Extreme SSD/under-canopy-images/Test3/enviratron/r3/1667933736143023010.jpeg,1667933736.2296915,179.49836170045634,0.9622644996372047,152.07610333892342,-9.0,42.017590213333335,-93.77303203666666,344.893,4,2022-11-08-12-55-36-229,
/media/phenobot3/Extreme SSD/under-canopy-images/Test3/enviratron/r3/1667933736507447251.jpeg,1667933736.5663066,-178.49663692975568,-0.0033853338000811254,152.44893626250015,-9.875,42.01758794,-93.77303189,344.892,4,2022-11-08-12-55-36-566,
