image_location,TimeStamp,Roll,Pitch,Yaw,Mast Roll,Lat,Lon,Alt,GPS Qual,DateTime
/media/phenobot3/Extreme SSD/under-canopy-images/Test4/enviratron/a1/1668021217616868832.jpeg,1668021218,-178.3931613,0.392387167,139.8584044,-6.688,42.01420468,-93.76707317,340.21,4,2022-11-09-13-13-37-698
/media/phenobot3/Extreme SSD/under-canopy-images/Test4/enviratron/a1/1668021217980374419.jpeg,1668021218,-179.0238805,-0.333911598,139.9186392,-5.75,42.01420722,-93.76707273,340.205,4,2022-11-09-13-13-38-626
/media/phenobot3/Extreme SSD/under-canopy-images/Test4/enviratron/a1/1668021218342204791.jpeg,1668021218,-178.0864304,-0.018864808,139.4575491,-5.438,42.01420932,-93.76707278,340.208,4,2022-11-09-13-13-38-425
/media/phenobot3/Extreme SSD/under-canopy-images/Test4/enviratron/a1/1668021218703881300.jpeg,1668021219,-179.0145851,0.094107789,143.2124724,-4.813,42.01421228,-93.76707239,340.205,4,2022-11-09-13-13-38-786
/media/phenobot3/Extreme SSD/under-canopy-images/Test4/enviratron/a1/1668021219065742353.jpeg,1668021219,-175.9567336,-0.962062469,144.8848816,-3.25,42.01421435,-93.76707221,340.216,4,2022-11-09-13-13-39-154
/media/phenobot3/Extreme SSD/under-canopy-images/Test4/enviratron/a1/1668021219427581943.jpeg,1668021220,-174.5488444,-0.489108934,145.3921624,1.25,42.01421733,-93.76706858,340.182,4,2022-11-09-13-13-39-509
/media/phenobot3/Extreme SSD/under-canopy-images/Test4/enviratron/a1/1668021219789899670.jpeg,1668021220,-177.3993702,-1.144922275,146.9261911,-4.438,42.01421974,-93.76707251,340.205,4,2022-11-09-13-13-39-870
/media/phenobot3/Extreme SSD/under-canopy-images/Test4/enviratron/a1/1668021220152110321.jpeg,1668021220,-175.491521,-0.618105484,146.5818821,-2.187,42.0142219,-93.76707203,340.201,4,2022-11-09-13-13-40-235
/media/phenobot3/Extreme SSD/under-canopy-images/Test4/enviratron/a1/1668021220515324261.jpeg,1668021221,-175.6497386,1.446100033,146.1297068,-0.187,42.01422545,-93.76707038,340.202,4,2022-11-09-13-13-40-593
/media/phenobot3/Extreme SSD/under-canopy-images/Test4/enviratron/a1/1668021220878215586.jpeg,1668021221,-176.9169089,0.727596011,146.4668121,-5.938,42.01422761,-93.76707463,340.21,4,2022-11-09-13-13-40-962
/media/phenobot3/Extreme SSD/under-canopy-images/Test4/enviratron/a1/1668021221242388586.jpeg,1668021221,-176.4637431,0.951048028,146.3166417,-1.687,42.01423035,-93.76707276,340.198,4,2022-11-09-13-13-41-325
/media/phenobot3/Extreme SSD/under-canopy-images/Test4/enviratron/a1/1668021221605192330.jpeg,1668021222,-178.2511308,1.141918358,146.6038097,-3.562,42.01423313,-93.76707366,340.196,4,2022-11-09-13-13-41-689
/media/phenobot3/Extreme SSD/under-canopy-images/Test4/enviratron/a1/1668021221967459416.jpeg,1668021222,-178.9071421,1.706197695,144.4662414,-6.688,42.01423626,-93.76707624,340.184,4,2022-11-09-13-13-42-513
/media/phenobot3/Extreme SSD/under-canopy-images/Test4/enviratron/a1/1668021222331760661.jpeg,1668021222,-177.8754272,1.290789414,141.0039893,-3.187,42.01423785,-93.76707474,340.183,4,2022-11-09-13-13-42-412
/media/phenobot3/Extreme SSD/under-canopy-images/Test4/enviratron/a1/1668021222693592879.jpeg,1668021223,-178.7043464,1.216663473,139.0527553,-3.5,42.01424054,-93.76707485,340.182,4,2022-11-09-13-13-42-773
/media/phenobot3/Extreme SSD/under-canopy-images/Test4/enviratron/a1/1668021223057661052.jpeg,1668021223,-178.1428493,1.061883422,139.5054855,-6,42.01424232,-93.76707641,340.176,4,2022-11-09-13-13-43-131
/media/phenobot3/Extreme SSD/under-canopy-images/Test4/enviratron/a1/1668021223421405068.jpeg,1668021223,-179.171381,0.015498734,140.4392949,-4.063,42.01424476,-93.76707549,340.173,4,2022-11-09-13-13-43-499
/media/phenobot3/Extreme SSD/under-canopy-images/Test4/enviratron/a1/1668021223789900690.jpeg,1668021224,-178.2045524,0.199036407,141.0689391,-4.188,42.01424824,-93.76707556,340.173,4,2022-11-09-13-13-43-866
/media/phenobot3/Extreme SSD/under-canopy-images/Test4/enviratron/a1/1668021224154886186.jpeg,1668021224,-176.5565984,-0.017313735,141.3224163,-4.313,42.01424967,-93.76707601,340.177,4,2022-11-09-13-13-44-229
/media/phenobot3/Extreme SSD/under-canopy-images/Test4/enviratron/a1/1668021224519601624.jpeg,1668021225,-177.374919,0.389981544,143.9687079,-1.812,42.01425274,-93.7670739,340.167,4,2022-11-09-13-13-44-594
/media/phenobot3/Extreme SSD/under-canopy-images/Test4/enviratron/a1/1668021224883772568.jpeg,1668021225,-179.330802,0.995482925,144.689426,-7.063,42.01425577,-93.76707758,340.162,4,2022-11-09-13-13-44-961
/media/phenobot3/Extreme SSD/under-canopy-images/Test4/enviratron/a1/1668021225249962169.jpeg,1668021225,-177.8376857,1.151894984,145.059314,-3.375,42.01425839,-93.76707624,340.159,4,2022-11-09-13-13-45-322
/media/phenobot3/Extreme SSD/under-canopy-images/Test4/enviratron/a1/1668021225612129871.jpeg,1668021226,-175.3227333,-0.256973089,144.5782406,-1.125,42.0142607,-93.76707468,340.156,4,2022-11-09-13-13-45-689
/media/phenobot3/Extreme SSD/under-canopy-images/Test4/enviratron/a1/1668021225976047485.jpeg,1668021226,-175.7844689,1.32445383,142.1687953,0.875,42.01426404,-93.76707383,340.14,4,2022-11-09-13-13-46-563
/media/phenobot3/Extreme SSD/under-canopy-images/Test4/enviratron/a1/1668021226339207319.jpeg,1668021226,-177.4194607,0.618817774,142.0113806,-5.313,42.01426507,-93.76707787,340.156,4,2022-11-09-13-13-46-416
/media/phenobot3/Extreme SSD/under-canopy-images/Test4/enviratron/a1/1668021226702632953.jpeg,1668021227,-176.8299433,-0.183122812,142.1106616,-0.625,42.01426781,-93.76707499,340.147,4,2022-11-09-13-13-46-788
/media/phenobot3/Extreme SSD/under-canopy-images/Test4/enviratron/a1/1668021227065807852.jpeg,1668021227,-177.9129815,0.005804636,142.4165618,-4.188,42.0142703,-93.76707636,340.164,4,2022-11-09-13-13-47-156
/media/phenobot3/Extreme SSD/under-canopy-images/Test4/enviratron/a1/1668021227429308277.jpeg,1668021228,-175.9975769,-1.558162579,143.1018715,-1.625,42.01427199,-93.7670762,340.153,4,2022-11-09-13-13-47-512
/media/phenobot3/Extreme SSD/under-canopy-images/Test4/enviratron/a1/1668021227791575452.jpeg,1668021228,-175.4056759,-1.79810407,144.1855652,0,42.01427487,-93.76707509,340.152,4,2022-11-09-13-13-47-876
/media/phenobot3/Extreme SSD/under-canopy-images/Test4/enviratron/a1/1668021228154728825.jpeg,1668021228,-177.5920173,-0.787524929,143.8252432,-2.187,42.01427744,-93.76707597,340.161,4,2022-11-09-13-13-48-241
/media/phenobot3/Extreme SSD/under-canopy-images/Test4/enviratron/a1/1668021228516452664.jpeg,1668021229,-173.3538538,-1.635086694,146.8087304,0,42.01427945,-93.76707595,340.178,4,2022-11-09-13-13-48-601
/media/phenobot3/Extreme SSD/under-canopy-images/Test4/enviratron/a1/1668021228879209646.jpeg,1668021229,-175.7676717,0.463139635,145.2124962,-0.063,42.01428323,-93.76707564,340.162,4,2022-11-09-13-13-48-955
/media/phenobot3/Extreme SSD/under-canopy-images/Test4/enviratron/a1/1668021229243601990.jpeg,1668021229,179.8296906,0.314393629,145.3411112,-6.313,42.01428568,-93.76707917,340.17,4,2022-11-09-13-13-49-319
/media/phenobot3/Extreme SSD/under-canopy-images/Test4/enviratron/a1/1668021229607052325.jpeg,1668021230,-179.9989349,0.443029887,143.3714556,-6.813,42.01428818,-93.76708008,340.161,4,2022-11-09-13-13-49-683
/media/phenobot3/Extreme SSD/under-canopy-images/Test4/enviratron/a1/1668021229969996725.jpeg,1668021230,-176.9101289,1.003241813,142.5194955,0.563,42.01429158,-93.76707567,340.164,4,2022-11-09-13-13-50-548
/media/phenobot3/Extreme SSD/under-canopy-images/Test4/enviratron/a1/1668021230332305368.jpeg,1668021230,-179.9260946,-0.05207777,143.597939,-5.75,42.01429309,-93.76707898,340.161,4,2022-11-09-13-13-50-415
/media/phenobot3/Extreme SSD/under-canopy-images/Test4/enviratron/a1/1668021230696277320.jpeg,1668021231,-178.4914208,0.426040454,142.1474755,-4.375,42.01429581,-93.76707908,340.164,4,2022-11-09-13-13-50-770
/media/phenobot3/Extreme SSD/under-canopy-images/Test4/enviratron/a1/1668021231059403035.jpeg,1668021231,-178.0571351,0.158461606,142.8655908,-1.687,42.01429727,-93.76707762,340.165,4,2022-11-09-13-13-51-146
/media/phenobot3/Extreme SSD/under-canopy-images/Test4/enviratron/a1/1668021231422825508.jpeg,1668021232,-179.4463045,0.420684799,146.3038813,-3.375,42.01430045,-93.76707783,340.166,4,2022-11-09-13-13-51-501
/media/phenobot3/Extreme SSD/under-canopy-images/Test4/enviratron/a1/1668021231786490219.jpeg,1668021232,179.8489804,-0.259915037,147.1720327,-6.438,42.01430303,-93.76707986,340.161,4,2022-11-09-13-13-51-867
/media/phenobot3/Extreme SSD/under-canopy-images/Test4/enviratron/a1/1668021232152606506.jpeg,1668021232,-178.0965151,0.120483703,146.6305179,-2.937,42.01430555,-93.76707831,340.157,4,2022-11-09-13-13-52-231
/media/phenobot3/Extreme SSD/under-canopy-images/Test4/enviratron/a1/1668021232517195168.jpeg,1668021233,-178.355849,0.141418207,145.3017904,-3.375,42.0143082,-93.76707826,340.159,4,2022-11-09-13-13-52-600
/media/phenobot3/Extreme SSD/under-canopy-images/Test4/enviratron/a1/1668021232884624988.jpeg,1668021233,-178.7136106,0.646558039,144.5546721,-4.188,42.01431142,-93.76707892,340.164,4,2022-11-09-13-13-52-959
/media/phenobot3/Extreme SSD/under-canopy-images/Test4/enviratron/a1/1668021233252876691.jpeg,1668021233,-178.5676137,0.468876257,144.1827808,-2.187,42.0143134,-93.76707804,340.162,4,2022-11-09-13-13-53-339
/media/phenobot3/Extreme SSD/under-canopy-images/Test4/enviratron/a1/1668021233616656733.jpeg,1668021234,-177.2531063,0.201543669,143.2601579,-1.812,42.01431609,-93.76707734,340.157,4,2022-11-09-13-13-53-701
/media/phenobot3/Extreme SSD/under-canopy-images/Test4/enviratron/a1/1668021233981545769.jpeg,1668021234,-177.421638,0.088182626,144.6607263,-1.687,42.01431894,-93.76707727,340.157,4,2022-11-09-13-13-54-631
/media/phenobot3/Extreme SSD/under-canopy-images/Test4/enviratron/a1/1668021234346560394.jpeg,1668021234,-177.8831093,0.345515982,147.3435472,-2.125,42.0143212,-93.76707729,340.151,4,2022-11-09-13-13-54-433
/media/phenobot3/Extreme SSD/under-canopy-images/Test4/enviratron/a1/1668021234711220935.jpeg,1668021235,-177.1391098,0.094591395,149.5458429,-1.312,42.014324,-93.76707714,340.154,4,2022-11-09-13-13-54-784
/media/phenobot3/Extreme SSD/under-canopy-images/Test4/enviratron/a1/1668021235077243337.jpeg,1668021235,-177.2093745,0.489944634,147.0198887,-1.125,42.01432682,-93.7670771,340.146,4,2022-11-09-13-13-55-161
/media/phenobot3/Extreme SSD/under-canopy-images/Test4/enviratron/a1/1668021235444790779.jpeg,1668021236,-176.7976039,0.059332851,146.2556587,-2.5,42.01432885,-93.76707816,340.149,4,2022-11-09-13-13-55-529
/media/phenobot3/Extreme SSD/under-canopy-images/Test4/enviratron/a1/1668021235814009404.jpeg,1668021236,-176.1408345,-0.082339726,145.1903949,-0.5,42.01433155,-93.76707692,340.144,4,2022-11-09-13-13-55-890
/media/phenobot3/Extreme SSD/under-canopy-images/Test4/enviratron/a1/1668021236179499474.jpeg,1668021236,-177.2769327,0.733467654,144.9643438,-1,42.01433457,-93.76707714,340.141,4,2022-11-09-13-13-56-261
/media/phenobot3/Extreme SSD/under-canopy-images/Test4/enviratron/a1/1668021236542559940.jpeg,1668021237,-178.2823467,0.362961155,144.3996639,-2.75,42.01433662,-93.76707814,340.137,4,2022-11-09-13-13-56-625
/media/phenobot3/Extreme SSD/under-canopy-images/Test4/enviratron/a1/1668021236906359388.jpeg,1668021237,-176.8002899,1.33025838,144.4915123,-0.563,42.01434011,-93.76707661,340.127,4,2022-11-09-13-13-56-983
/media/phenobot3/Extreme SSD/under-canopy-images/Test4/enviratron/a1/1668021237268668371.jpeg,1668021237,-177.3132167,0.881747247,145.4798592,-2.75,42.01434202,-93.76707774,340.133,4,2022-11-09-13-13-57-346
/media/phenobot3/Extreme SSD/under-canopy-images/Test4/enviratron/a1/1668021237630783731.jpeg,1668021238,-176.7130313,0.518946539,146.7967043,-2.125,42.01434465,-93.76707763,340.136,4,2022-11-09-13-13-57-715
/media/phenobot3/Extreme SSD/under-canopy-images/Test4/enviratron/a1/1668021237992993820.jpeg,1668021238,-177.760293,0.601329435,149.4428069,-1.687,42.0143471,-93.76707723,340.122,4,2022-11-09-13-13-58-676
/media/phenobot3/Extreme SSD/under-canopy-images/Test4/enviratron/a1/1668021238356210396.jpeg,1668021238,-177.5305392,-0.190077936,151.0233722,-2.875,42.01434929,-93.76707774,340.119,4,2022-11-09-13-13-58-435
/media/phenobot3/Extreme SSD/under-canopy-images/Test4/enviratron/a1/1668021238720273190.jpeg,1668021239,-177.6560077,0.769865631,149.0748375,-2.187,42.01435233,-93.7670779,340.116,4,2022-11-09-13-13-58-802
/media/phenobot3/Extreme SSD/under-canopy-images/Test4/enviratron/a1/1668021239085375533.jpeg,1668021239,-177.4748332,0.531016103,148.562461,-1.875,42.01435486,-93.7670777,340.117,4,2022-11-09-13-13-59-159
/media/phenobot3/Extreme SSD/under-canopy-images/Test4/enviratron/a1/1668021239451443879.jpeg,1668021240,-178.1791085,0.706216841,147.5642949,-3.25,42.01435718,-93.76707854,340.112,4,2022-11-09-13-13-59-533
/media/phenobot3/Extreme SSD/under-canopy-images/Test4/enviratron/a1/1668021239814740942.jpeg,1668021240,-178.2128468,0.436769225,147.2457634,-2.812,42.01435978,-93.76707848,340.112,4,2022-11-09-13-13-59-896
/media/phenobot3/Extreme SSD/under-canopy-images/Test4/enviratron/a1/1668021240178994950.jpeg,1668021240,-177.135651,0.253018805,146.7005338,-2.5,42.01436264,-93.76707828,340.11,4,2022-11-09-13-14-00-255
/media/phenobot3/Extreme SSD/under-canopy-images/Test4/enviratron/a1/1668021240542472731.jpeg,1668021241,-177.4139282,1.380112051,146.2870971,-2,42.01436522,-93.76707789,340.103,4,2022-11-09-13-14-00-623
/media/phenobot3/Extreme SSD/under-canopy-images/Test4/enviratron/a1/1668021240906371426.jpeg,1668021241,-178.3300277,1.096419096,145.6909459,-2.687,42.01436762,-93.76707844,340.1,4,2022-11-09-13-14-00-985
/media/phenobot3/Extreme SSD/under-canopy-images/Test4/enviratron/a1/1668021241270500866.jpeg,1668021241,-178.5151952,0.89002283,146.0431634,-2.875,42.0143705,-93.76707853,340.101,4,2022-11-09-13-14-01-354
/media/phenobot3/Extreme SSD/under-canopy-images/Test4/enviratron/a1/1668021241633975560.jpeg,1668021242,-178.5620443,0.352917717,146.8437931,-1.875,42.01437265,-93.76707768,340.094,4,2022-11-09-13-14-01-723
/media/phenobot3/Extreme SSD/under-canopy-images/Test4/enviratron/a1/1668021241999064751.jpeg,1668021242,-179.2564978,-0.51577421,147.5957139,-4.188,42.01437526,-93.76707918,340.086,4,2022-11-09-13-14-02-808
/media/phenobot3/Extreme SSD/under-canopy-images/Test4/enviratron/a1/1668021242363190941.jpeg,1668021242,-179.1951994,-0.142518419,147.798257,-4.313,42.01437805,-93.76707931,340.084,4,2022-11-09-13-14-02-457
/media/phenobot3/Extreme SSD/under-canopy-images/Test4/enviratron/a1/1668021242726454165.jpeg,1668021243,-178.6197637,0.394900512,146.9610478,-3.375,42.01438043,-93.76707895,340.092,4,2022-11-09-13-14-02-802
/media/phenobot3/Extreme SSD/under-canopy-images/Test4/enviratron/a1/1668021243091692435.jpeg,1668021243,-179.3321092,0.211301034,146.052303,-3.625,42.01438311,-93.76707912,340.092,4,2022-11-09-13-14-03-170
/media/phenobot3/Extreme SSD/under-canopy-images/Test4/enviratron/a1/1668021243457033430.jpeg,1668021244,-179.1221527,0.051061728,145.5915869,-3.5,42.01438513,-93.767079,340.091,4,2022-11-09-13-14-03-535
/media/phenobot3/Extreme SSD/under-canopy-images/Test4/enviratron/a1/1668021243825467537.jpeg,1668021244,-179.0317527,-0.013382146,144.9656128,-3.875,42.014388,-93.76707894,340.082,4,2022-11-09-13-14-03-906
/media/phenobot3/Extreme SSD/under-canopy-images/Test4/enviratron/a1/1668021244191260459.jpeg,1668021244,-179.8883979,0.238415435,144.8533594,-4.125,42.01439077,-93.76707893,340.079,4,2022-11-09-13-14-04-271
/media/phenobot3/Extreme SSD/under-canopy-images/Test4/enviratron/a1/1668021244558033946.jpeg,1668021245,-179.6133002,-0.072822116,146.5564426,-4.75,42.01439289,-93.7670795,340.083,4,2022-11-09-13-14-04-640
/media/phenobot3/Extreme SSD/under-canopy-images/Test4/enviratron/a1/1668021244922591471.jpeg,1668021245,-179.2820113,-0.037564215,149.4784308,-3.687,42.01439579,-93.76707855,340.084,4,2022-11-09-13-14-05-897
/media/phenobot3/Extreme SSD/under-canopy-images/Test4/enviratron/a1/1668021245287619706.jpeg,1668021245,-179.9880227,0.347590518,151.2075042,-4.938,42.0143988,-93.76707924,340.083,4,2022-11-09-13-14-05-366
/media/phenobot3/Extreme SSD/under-canopy-images/Test4/enviratron/a1/1668021245653099036.jpeg,1668021246,179.3159117,0.310357573,149.9734233,-5.375,42.01440072,-93.7670797,340.078,4,2022-11-09-13-14-05-735
/media/phenobot3/Extreme SSD/under-canopy-images/Test4/enviratron/a1/1668021246018000125.jpeg,1668021246,179.7372758,0.408360777,148.4181637,-5.25,42.01440364,-93.76707988,340.075,4,2022-11-09-13-14-06-978
/media/phenobot3/Extreme SSD/under-canopy-images/Test4/enviratron/a1/1668021246383843005.jpeg,1668021246,179.9117196,0.353529634,148.0003099,-5.563,42.01440643,-93.76708013,340.071,4,2022-11-09-13-14-06-462
/media/phenobot3/Extreme SSD/under-canopy-images/Test4/enviratron/a1/1668021246751610396.jpeg,1668021247,179.8592976,0.045378724,147.4982242,-5.5,42.01440826,-93.76708003,340.072,4,2022-11-09-13-14-06-831
/media/phenobot3/Extreme SSD/under-canopy-images/Test4/enviratron/a1/1668021247117894687.jpeg,1668021247,179.9446739,0.352432453,147.1684202,-6.75,42.01441126,-93.76708057,340.063,4,2022-11-09-13-14-07-215
/media/phenobot3/Extreme SSD/under-canopy-images/Test4/enviratron/a1/1668021247483318131.jpeg,1668021248,-179.4503661,0.198438277,148.595006,-6,42.01441404,-93.76707996,340.067,4,2022-11-09-13-14-07-565
/media/phenobot3/Extreme SSD/under-canopy-images/Test4/enviratron/a1/1668021247848087598.jpeg,1668021248,-179.3698788,0.117376839,149.8555629,-5.188,42.01441605,-93.7670797,340.063,4,2022-11-09-13-14-07-938
/media/phenobot3/Extreme SSD/under-canopy-images/Test4/enviratron/a1/1668021248211762408.jpeg,1668021248,-178.9996669,0.018449143,152.1502428,-5.625,42.01441896,-93.76707988,340.063,4,2022-11-09-13-14-08-295
/media/phenobot3/Extreme SSD/under-canopy-images/Test4/enviratron/a1/1668021248576079064.jpeg,1668021249,-179.106742,0.129893716,151.5599589,-5.063,42.01442183,-93.76707984,340.06,4,2022-11-09-13-14-08-653
/media/phenobot3/Extreme SSD/under-canopy-images/Test4/enviratron/a1/1668021248940366610.jpeg,1668021249,-179.8710626,0.591055678,150.1539474,-4.688,42.01442389,-93.76707973,340.059,4,2022-11-09-13-14-09-247
/media/phenobot3/Extreme SSD/under-canopy-images/Test4/enviratron/a1/1668021249304215607.jpeg,1668021249,-179.4805513,0.373201547,148.9729397,-4.938,42.01442705,-93.76708028,340.057,4,2022-11-09-13-14-09-374
/media/phenobot3/Extreme SSD/under-canopy-images/Test4/enviratron/a1/1668021249668671492.jpeg,1668021250,-178.7048546,0.518612016,147.1194063,-5.063,42.01443016,-93.76708057,340.056,4,2022-11-09-13-14-09-756
/media/phenobot3/Extreme SSD/under-canopy-images/Test4/enviratron/a1/1668021250036193962.jpeg,1668021250,-178.6487027,0.27464207,146.3069727,-4.938,42.01443198,-93.76708056,340.049,4,2022-11-09-13-14-10-118
/media/phenobot3/Extreme SSD/under-canopy-images/Test4/enviratron/a1/1668021250403714583.jpeg,1668021250,-178.833334,0.278127796,145.123858,-4.688,42.01443505,-93.76708049,340.047,4,2022-11-09-13-14-10-475
/media/phenobot3/Extreme SSD/under-canopy-images/Test4/enviratron/a1/1668021250772528763.jpeg,1668021251,-179.0503523,0.46441724,144.2136351,-5,42.01443802,-93.76708068,340.044,4,2022-11-09-13-14-10-855
/media/phenobot3/Extreme SSD/under-canopy-images/Test4/enviratron/a1/1668021251141124130.jpeg,1668021251,-178.7539512,0.373061857,144.500396,-4.938,42.01444028,-93.76708049,340.041,4,2022-11-09-13-14-11-216
/media/phenobot3/Extreme SSD/under-canopy-images/Test4/enviratron/a1/1668021251507153522.jpeg,1668021252,-179.5510524,0.336481692,144.4176298,-5.563,42.01444319,-93.76708079,340.037,4,2022-11-09-13-14-11-591
/media/phenobot3/Extreme SSD/under-canopy-images/Test4/enviratron/a1/1668021251873160007.jpeg,1668021252,179.1182718,1.041180803,144.1019728,-5.563,42.01444543,-93.76708023,340.035,4,2022-11-09-13-14-11-957
/media/phenobot3/Extreme SSD/under-canopy-images/Test4/enviratron/a1/1668021252240490158.jpeg,1668021252,179.224715,0.745942253,145.4899397,-8.187,42.01444862,-93.76708206,340.022,4,2022-11-09-13-14-12-330
/media/phenobot3/Extreme SSD/under-canopy-images/Test4/enviratron/a1/1668021252606443319.jpeg,1668021253,179.5197246,0.762398617,148.1841046,-6.313,42.01445171,-93.76708082,340.024,4,2022-11-09-13-14-12-679
/media/phenobot3/Extreme SSD/under-canopy-images/Test4/enviratron/a1/1668021252972750225.jpeg,1668021253,-178.5728017,0.503534662,148.7298547,-4.563,42.01445452,-93.76707997,340.029,4,2022-11-09-13-14-13-560
/media/phenobot3/Extreme SSD/under-canopy-images/Test4/enviratron/a1/1668021253341365116.jpeg,1668021253,-176.1284088,-0.109074362,145.8695403,-1.812,42.01445623,-93.76707882,340.019,4,2022-11-09-13-14-13-415
/media/phenobot3/Extreme SSD/under-canopy-images/Test4/enviratron/a1/1668021253707698436.jpeg,1668021254,-177.2974659,0.019164699,144.6036396,-2.25,42.014459,-93.76707865,340.016,4,2022-11-09-13-14-13-789
/media/phenobot3/Extreme SSD/under-canopy-images/Test4/enviratron/a1/1668021254075635340.jpeg,1668021254,-178.8671154,0.16864851,144.7544393,-3.562,42.0144621,-93.76707931,340.017,4,2022-11-09-13-14-14-151
/media/phenobot3/Extreme SSD/under-canopy-images/Test4/enviratron/a1/1668021254440503772.jpeg,1668021255,-179.0852,0.220259612,145.6717681,-4.188,42.01446444,-93.76707951,340.02,4,2022-11-09-13-14-14-520
/media/phenobot3/Extreme SSD/under-canopy-images/Test4/enviratron/a1/1668021254804048704.jpeg,1668021255,-178.9556106,0.385390394,145.5381195,-4.188,42.01446732,-93.76707929,340.017,4,2022-11-09-13-14-14-892
/media/phenobot3/Extreme SSD/under-canopy-images/Test4/enviratron/a1/1668021255169122412.jpeg,1668021255,-179.6944992,0.259121909,148.2531865,-6.125,42.01446966,-93.76708039,340.015,4,2022-11-09-13-14-15-250
/media/phenobot3/Extreme SSD/under-canopy-images/Test4/enviratron/a1/1668021255533032451.jpeg,1668021256,-178.5772282,0.383938658,152.2120771,-4.938,42.01447277,-93.76707981,340.014,4,2022-11-09-13-14-15-612
/media/phenobot3/Extreme SSD/under-canopy-images/Test4/enviratron/a1/1668021255899007148.jpeg,1668021256,-178.2396705,0.459770431,151.0884953,-4,42.01447564,-93.76707943,340.006,4,2022-11-09-13-14-15-989
/media/phenobot3/Extreme SSD/under-canopy-images/Test4/enviratron/a1/1668021256264710536.jpeg,1668021256,-178.7654419,0.940938622,148.1940063,-3.937,42.01447864,-93.76707974,339.999,4,2022-11-09-13-14-16-346
/media/phenobot3/Extreme SSD/under-canopy-images/Test4/enviratron/a1/1668021256629055067.jpeg,1668021257,-179.3847378,0.493868297,147.5609515,-5.438,42.01448074,-93.76708072,339.996,4,2022-11-09-13-14-16-715
/media/phenobot3/Extreme SSD/under-canopy-images/Test4/enviratron/a1/1668021256992707381.jpeg,1668021257,-178.4516171,0.517922278,146.5054286,-4.688,42.01448369,-93.76708042,339.996,4,2022-11-09-13-14-17-741
/media/phenobot3/Extreme SSD/under-canopy-images/Test4/enviratron/a1/1668021257357690635.jpeg,1668021257,-178.571136,-0.096678258,146.3914618,-4.063,42.01448558,-93.76708013,339.996,4,2022-11-09-13-14-17-440
/media/phenobot3/Extreme SSD/under-canopy-images/Test4/enviratron/a1/1668021257724278346.jpeg,1668021258,-177.6137612,-0.108925479,147.1376284,-4.563,42.01448829,-93.76708041,339.991,4,2022-11-09-13-14-17-805
/media/phenobot3/Extreme SSD/under-canopy-images/Test4/enviratron/a1/1668021258090771182.jpeg,1668021258,-177.9731054,-0.576385928,151.5609782,-3,42.0144913,-93.76707955,339.986,4,2022-11-09-13-14-18-164
/media/phenobot3/Extreme SSD/under-canopy-images/Test4/enviratron/a1/1668021258457480355.jpeg,1668021259,-178.5496236,-0.3471573,150.3156633,-3.437,42.01449357,-93.76707996,339.99,4,2022-11-09-13-14-18-540
/media/phenobot3/Extreme SSD/under-canopy-images/Test4/enviratron/a1/1668021258823622159.jpeg,1668021259,-178.9123978,-0.268902796,149.1699872,-3.062,42.01449649,-93.76708017,339.998,4,2022-11-09-13-14-18-905
/media/phenobot3/Extreme SSD/under-canopy-images/Test4/enviratron/a1/1668021259190837158.jpeg,1668021259,-178.0134421,-0.255969227,146.4965241,-2.687,42.01449951,-93.76708009,339.998,4,2022-11-09-13-14-19-264
