image_location,TimeStamp,Roll,Pitch,Yaw,Mast Roll,Lat,Lon,Alt,GPS Qual,DateTime
/media/phenobot3/Extreme SSD/under-canopy-images/Test4/enviratron/d3/1668024725189288871.jpeg,1668024725.2877874,-179.6937526003782,0.677118874208075,61.5661162182027,-7.25,42.014166728333336,-93.76721076333334,340.331,4,2022-11-09-14-12-05-287,
/media/phenobot3/Extreme SSD/under-canopy-images/Test4/enviratron/d3/1668024725560134501.jpeg,1668024725.6460483,-179.6929728958971,0.6771080666803071,61.566178809393186,-7.25,42.01416674166666,-93.767210725,340.333,4,2022-11-09-14-12-05-646,
/media/phenobot3/Extreme SSD/under-canopy-images/Test4/enviratron/d3/1668024725930373331.jpeg,1668024726.006379,-179.69955858738635,0.6794586773856081,61.56768431461372,-7.188,42.01416674666667,-93.76721072333333,340.336,4,2022-11-09-14-12-06-646,
/media/phenobot3/Extreme SSD/under-canopy-images/Test4/enviratron/d3/1668024726299915709.jpeg,1668024726.3850808,-179.6885703006571,0.6716983461436304,61.577113624082116,-7.188,42.014166728333336,-93.76721079000001,340.336,4,2022-11-09-14-12-06-385,
/media/phenobot3/Extreme SSD/under-canopy-images/Test4/enviratron/d3/1668024726670446945.jpeg,1668024726.7469108,-179.68894320926864,0.6721175672285854,61.64654510782358,-7.188,42.01416673666667,-93.767210755,340.333,4,2022-11-09-14-12-06-746,
/media/phenobot3/Extreme SSD/under-canopy-images/Test4/enviratron/d3/1668024727037744378.jpeg,1668024727.1252928,-179.68979152088826,0.6730311245144831,61.675618151364695,-7.25,42.014166725,-93.76721071166666,340.333,4,2022-11-09-14-12-07-125,
/media/phenobot3/Extreme SSD/under-canopy-images/Test4/enviratron/d3/1668024727406573331.jpeg,1668024727.4790528,-179.68897000207284,0.6730778995316551,61.67517154161819,-7.188,42.014166715,-93.767210755,340.333,4,2022-11-09-14-12-07-479,
/media/phenobot3/Extreme SSD/under-canopy-images/Test4/enviratron/d3/1668024727783383006.jpeg,1668024727.8675377,-179.6873215801916,0.6731451651125568,61.67424073817772,-7.125,42.014166695,-93.76721075666667,340.332,4,2022-11-09-14-12-07-867,
/media/phenobot3/Extreme SSD/under-canopy-images/Test4/enviratron/d3/1668024728150023431.jpeg,1668024728.2258847,-179.63488676116071,0.5891336971646003,61.76108861054668,-7.0,42.01416665666667,-93.76721077666667,340.333,4,2022-11-09-14-12-08-226,
/media/phenobot3/Extreme SSD/under-canopy-images/Test4/enviratron/d3/1668024728518309495.jpeg,1668024728.6047704,-179.30887317286653,1.4955193323968536,62.378858112879264,-6.563,42.01416501333333,-93.76721085166666,340.334,4,2022-11-09-14-12-08-604,
/media/phenobot3/Extreme SSD/under-canopy-images/Test4/enviratron/d3/1668024728889198918.jpeg,1668024728.97526,-179.97897405098635,2.003631013496078,58.754733886660816,-6.875,42.01416340833333,-93.76721026,340.333,4,2022-11-09-14-12-08-975,
/media/phenobot3/Extreme SSD/under-canopy-images/Test4/enviratron/d3/1668024729257007670.jpeg,1668024729.3457954,179.36938285028197,2.0280749103502456,51.06086397905478,-7.25,42.01416079166667,-93.767209455,340.328,4,2022-11-09-14-12-09-345,
/media/phenobot3/Extreme SSD/under-canopy-images/Test4/enviratron/d3/1668024729625540096.jpeg,1668024729.6923041,179.00352529696292,2.01871345653079,47.246138012008956,-7.188,42.014158245,-93.76720934,340.312,4,2022-11-09-14-12-09-692,
/media/phenobot3/Extreme SSD/under-canopy-images/Test4/enviratron/d3/1668024729994779891.jpeg,1668024730.0837386,178.59333516929573,1.349351596859881,42.444208249118304,-8.187,42.01415605166667,-93.76720885166667,340.301,4,2022-11-09-14-12-10-838,
/media/phenobot3/Extreme SSD/under-canopy-images/Test4/enviratron/d3/1668024730367764473.jpeg,1668024730.4457498,178.36225479639467,1.7169159617059122,38.04358362141096,-8.062,42.01415429,-93.76720927,340.292,4,2022-11-09-14-12-10-445,
/media/phenobot3/Extreme SSD/under-canopy-images/Test4/enviratron/d3/1668024730741460327.jpeg,1668024730.825086,179.6005932573789,2.5421248780450214,34.63135664253994,-7.813,42.014151445,-93.76720977833334,340.281,4,2022-11-09-14-12-10-825,
/media/phenobot3/Extreme SSD/under-canopy-images/Test4/enviratron/d3/1668024731113534230.jpeg,1668024731.187957,179.53093327287954,2.2651537634611936,32.17619890915116,-7.5,42.014149083333336,-93.767210865,340.274,4,2022-11-09-14-12-11-188,
/media/phenobot3/Extreme SSD/under-canopy-images/Test4/enviratron/d3/1668024731484239539.jpeg,1668024731.5756502,-179.8736551920728,1.7045136981249942,41.45684189773241,-7.438,42.01414690166666,-93.76721206666667,340.271,4,2022-11-09-14-12-11-575,
/media/phenobot3/Extreme SSD/under-canopy-images/Test4/enviratron/d3/1668024731854193064.jpeg,1668024731.9305727,179.71629235252908,0.608597013060692,43.01875437135932,-5.938,42.01414567333333,-93.76721314666666,340.27,4,2022-11-09-14-12-11-930,
/media/phenobot3/Extreme SSD/under-canopy-images/Test4/enviratron/d3/1668024732224100534.jpeg,1668024732.308039,178.68471392461322,0.04624233945979402,42.00702094622728,-6.188,42.01414280833333,-93.76721414333333,340.268,4,2022-11-09-14-12-12-308,
/media/phenobot3/Extreme SSD/under-canopy-images/Test4/enviratron/d3/1668024732595766449.jpeg,1668024732.6736922,179.8573195621631,1.2125860499815018,41.532726697745396,-7.438,42.014138771666666,-93.76721452833333,340.251,4,2022-11-09-14-12-12-673,
/media/phenobot3/Extreme SSD/under-canopy-images/Test4/enviratron/d3/1668024732965632637.jpeg,1668024733.0546186,-178.3521477641359,2.7109067489684775,40.5117341622419,-4.5,42.014135941666666,-93.767216755,340.246,4,2022-11-09-14-12-13-547,
/media/phenobot3/Extreme SSD/under-canopy-images/Test4/enviratron/d3/1668024733333085195.jpeg,1668024733.410892,-177.43593727278318,2.576659429900027,38.60828447633113,-2.75,42.014133375,-93.76721893833333,340.238,4,2022-11-09-14-12-13-410,
/media/phenobot3/Extreme SSD/under-canopy-images/Test4/enviratron/d3/1668024733699249942.jpeg,1668024733.785016,-179.90199049453705,2.4621993409376013,38.673511708855855,-5.875,42.014130218333335,-93.76721848,340.224,4,2022-11-09-14-12-13-785,
/media/phenobot3/Extreme SSD/under-canopy-images/Test4/enviratron/d3/1668024734063181421.jpeg,1668024734.1325746,179.06732276714587,3.144376276327596,44.68141906123642,-7.188,42.01412836833333,-93.76721845,340.198,4,2022-11-09-14-12-14-132,
/media/phenobot3/Extreme SSD/under-canopy-images/Test4/enviratron/d3/1668024734426532531.jpeg,1668024734.5085332,176.50478884689676,5.808594841377127,49.8247751253195,-7.25,42.014124386666666,-93.76722055166667,340.163,4,2022-11-09-14-12-14-508,
/media/phenobot3/Extreme SSD/under-canopy-images/Test4/enviratron/d3/1668024734788177110.jpeg,1668024734.862753,177.60365763427419,7.337006074330828,58.17286005275652,-12.812,42.014120131666665,-93.76721749833334,340.12,4,2022-11-09-14-12-14-862,
/media/phenobot3/Extreme SSD/under-canopy-images/Test4/enviratron/d3/1668024735149602854.jpeg,1668024735.230721,-178.3047023617258,5.505678499793115,53.20263365273025,-2.812,42.014118745,-93.76722276333334,340.112,4,2022-11-09-14-12-15-230,
/media/phenobot3/Extreme SSD/under-canopy-images/Test4/enviratron/d3/1668024735512170257.jpeg,1668024735.5870728,178.82848013644548,2.782254671513462,50.72225110621224,-6.625,42.01411741333333,-93.76722073833334,340.099,4,2022-11-09-14-12-15-587,
/media/phenobot3/Extreme SSD/under-canopy-images/Test4/enviratron/d3/1668024735875144080.jpeg,1668024735.9620779,178.11960421496315,-0.8202495330312206,50.814512318369,-9.875,42.01411507833333,-93.76721864833333,340.073,4,2022-11-09-14-12-15-962,
/media/phenobot3/Extreme SSD/under-canopy-images/Test4/enviratron/d3/1668024736252274734.jpeg,1668024736.3322048,-177.64916896618138,-1.3648381498363902,56.54750995666693,-1.312,42.01411429666667,-93.76722357666667,340.092,4,2022-11-09-14-12-16-332,
/media/phenobot3/Extreme SSD/under-canopy-images/Test4/enviratron/d3/1668024736621833647.jpeg,1668024736.6985044,179.18924639605436,-1.2811828470094344,57.13682221531649,-7.125,42.014111318333335,-93.76722125333333,340.075,4,2022-11-09-14-12-16-698,
/media/phenobot3/Extreme SSD/under-canopy-images/Test4/enviratron/d3/1668024736990587711.jpeg,1668024737.0729973,-178.79482550985068,-1.2907517414194856,61.909354312800374,-4.438,42.014108048333334,-93.76722243833333,340.094,4,2022-11-09-14-12-17-730,
/media/phenobot3/Extreme SSD/under-canopy-images/Test4/enviratron/d3/1668024737358801386.jpeg,1668024737.4557428,-177.37473351469748,-1.2999660942765905,65.86423281300972,-1.0,42.014104205,-93.76722444666666,340.104,4,2022-11-09-14-12-17-455,
/media/phenobot3/Extreme SSD/under-canopy-images/Test4/enviratron/d3/1668024737726150873.jpeg,1668024737.8044183,-177.81931297913312,-1.4868856908348702,60.541086542567456,-3.687,42.01410105666667,-93.76722246,340.106,4,2022-11-09-14-12-17-804,
/media/phenobot3/Extreme SSD/under-canopy-images/Test4/enviratron/d3/1668024738093346068.jpeg,1668024738.182378,-179.01122799644082,-0.5092547372070473,54.22272482677666,-4.438,42.01409722166667,-93.76722132166667,340.115,4,2022-11-09-14-12-18-182,
/media/phenobot3/Extreme SSD/under-canopy-images/Test4/enviratron/d3/1668024738462435837.jpeg,1668024738.5403013,179.0128554995572,-0.826600095622903,53.70490181766155,-6.25,42.01409485333333,-93.76722081666666,340.121,4,2022-11-09-14-12-18-540,
/media/phenobot3/Extreme SSD/under-canopy-images/Test4/enviratron/d3/1668024738830101566.jpeg,1668024738.9128852,-179.56728846655824,-1.1689212677874978,56.62326437879025,-7.5,42.01409236833333,-93.76721907333334,340.114,4,2022-11-09-14-12-18-913,
/media/phenobot3/Extreme SSD/under-canopy-images/Test4/enviratron/d3/1668024739198714541.jpeg,1668024739.2822416,-177.1320297309623,-0.6178536786247844,55.7902749329632,-0.688,42.014088755,-93.76722304833334,340.123,4,2022-11-09-14-12-19-282,
/media/phenobot3/Extreme SSD/under-canopy-images/Test4/enviratron/d3/1668024739569362938.jpeg,1668024739.6708024,-178.9996233555749,-0.18339783631332146,55.50822424240034,-6.25,42.014084813333334,-93.76721951166667,340.131,4,2022-11-09-14-12-19-670,
/media/phenobot3/Extreme SSD/under-canopy-images/Test4/enviratron/d3/1668024739937833576.jpeg,1668024740.0106297,179.5888646694951,0.8691961877482495,56.02907319468335,-4.188,42.014082105,-93.76722093166667,340.143,4,2022-11-09-14-12-20-107,
/media/phenobot3/Extreme SSD/under-canopy-images/Test4/enviratron/d3/1668024740305838567.jpeg,1668024740.3960023,-179.25669874907823,0.09878083512345519,55.93659781817911,-4.25,42.014078571666666,-93.76722099166666,340.135,4,2022-11-09-14-12-20-396,
/media/phenobot3/Extreme SSD/under-canopy-images/Test4/enviratron/d3/1668024740673287364.jpeg,1668024740.7487714,179.29373702412167,0.2591675385990841,56.041652368020614,-5.563,42.01407592166667,-93.76722033333333,340.13,4,2022-11-09-14-12-20-748,
/media/phenobot3/Extreme SSD/under-canopy-images/Test4/enviratron/d3/1668024741040531197.jpeg,1668024741.1253405,179.78520167521455,-0.7036951456403951,54.96659788609258,-5.813,42.01407256833333,-93.767219945,340.131,4,2022-11-09-14-12-21-125,
/media/phenobot3/Extreme SSD/under-canopy-images/Test4/enviratron/d3/1668024741409528706.jpeg,1668024741.4877508,-179.56851772754655,-0.4434798592726447,55.629061081601755,-5.0,42.01406928,-93.76722032333333,340.131,4,2022-11-09-14-12-21-487,
/media/phenobot3/Extreme SSD/under-canopy-images/Test4/enviratron/d3/1668024741778024861.jpeg,1668024741.8656085,-179.97627376293445,-0.7966782183410045,55.48160147904603,-3.75,42.01406591166667,-93.76722090666667,340.128,4,2022-11-09-14-12-21-865,
/media/phenobot3/Extreme SSD/under-canopy-images/Test4/enviratron/d3/1668024742147679907.jpeg,1668024742.2298257,-179.88443975055512,-0.7269800193095783,55.89376198472038,-5.688,42.014063855,-93.767219985,340.133,4,2022-11-09-14-12-22-229,
/media/phenobot3/Extreme SSD/under-canopy-images/Test4/enviratron/d3/1668024742516078513.jpeg,1668024742.6026,-178.46360769042468,-0.9129987820080789,57.81814852269976,-4.063,42.014060265,-93.76722059333333,340.14,4,2022-11-09-14-12-22-602,
/media/phenobot3/Extreme SSD/under-canopy-images/Test4/enviratron/d3/1668024742881786738.jpeg,1668024742.9516923,-179.89805361167893,-0.5235857047459402,59.16053504599791,-3.75,42.014057443333336,-93.76722155,340.141,4,2022-11-09-14-12-22-951,
/media/phenobot3/Extreme SSD/under-canopy-images/Test4/enviratron/d3/1668024743249983481.jpeg,1668024743.3333383,178.58202261854683,-0.3542625591805252,60.75267805900774,-7.063,42.014053805,-93.76721896166667,340.144,4,2022-11-09-14-12-23-333,
/media/phenobot3/Extreme SSD/under-canopy-images/Test4/enviratron/d3/1668024743616966169.jpeg,1668024743.6944764,-179.99933802852755,0.43860933978737443,61.172860711036854,-5.0,42.01404994,-93.767219735,340.141,4,2022-11-09-14-12-23-694,
/media/phenobot3/Extreme SSD/under-canopy-images/Test4/enviratron/d3/1668024743982467359.jpeg,1668024744.067773,-179.927203376723,-0.11497927145397929,58.263453689335584,-6.25,42.01404745333333,-93.76721912666666,340.142,4,2022-11-09-14-12-24-678,
/media/phenobot3/Extreme SSD/under-canopy-images/Test4/enviratron/d3/1668024744352397392.jpeg,1668024744.4294066,179.82455697471454,-1.1884636876053614,56.04021601413997,-5.188,42.014043775,-93.76721874833333,340.142,4,2022-11-09-14-12-24-429,
/media/phenobot3/Extreme SSD/under-canopy-images/Test4/enviratron/d3/1668024744721932167.jpeg,1668024744.8141747,-179.39482080148602,-0.7327626740899308,55.388450990178555,-3.687,42.014040263333335,-93.767219575,340.147,4,2022-11-09-14-12-24-814,
/media/phenobot3/Extreme SSD/under-canopy-images/Test4/enviratron/d3/1668024745089315611.jpeg,1668024745.1723976,-178.62009737908951,-0.5794020397152163,55.51798351022647,-3.687,42.01403699833333,-93.76721948833334,340.149,4,2022-11-09-14-12-25-172,
/media/phenobot3/Extreme SSD/under-canopy-images/Test4/enviratron/d3/1668024745457709614.jpeg,1668024745.5470665,-177.93619205072187,-0.11966372643397981,53.995628686320636,-2.25,42.01403380166666,-93.76722011333334,340.154,4,2022-11-09-14-12-25-547,
/media/phenobot3/Extreme SSD/under-canopy-images/Test4/enviratron/d3/1668024745826457193.jpeg,1668024745.8976204,-178.8311946296604,0.1723827911994901,54.082053568340235,-2.5,42.01403096666667,-93.76722028833333,340.154,4,2022-11-09-14-12-25-897,
/media/phenobot3/Extreme SSD/under-canopy-images/Test4/enviratron/d3/1668024746194502045.jpeg,1668024746.2811778,-179.19438189684345,-0.3255188251516439,53.97058333700309,-5.063,42.01402688,-93.76721882166666,340.158,4,2022-11-09-14-12-26-281,
/media/phenobot3/Extreme SSD/under-canopy-images/Test4/enviratron/d3/1668024746562687202.jpeg,1668024746.6382582,-177.5307273384388,-0.2639439013114988,59.7057774844038,-3.875,42.014024471666666,-93.76721947666667,340.148,4,2022-11-09-14-12-26-638,
/media/phenobot3/Extreme SSD/under-canopy-images/Test4/enviratron/d3/1668024746928923169.jpeg,1668024747.0115993,-175.24233885843734,0.3529088827512157,58.050633178213246,3.312,42.014021295,-93.76722372666667,340.15,4,2022-11-09-14-12-27-116,
/media/phenobot3/Extreme SSD/under-canopy-images/Test4/enviratron/d3/1668024747295702764.jpeg,1668024747.3762078,179.02425979059026,1.0679728553321897,56.73343804661697,-5.063,42.01401774166666,-93.76721886333333,340.161,4,2022-11-09-14-12-27-376,
/media/phenobot3/Extreme SSD/under-canopy-images/Test4/enviratron/d3/1668024747662130481.jpeg,1668024747.7500684,-178.97745083414486,0.24646353958049158,58.53411241460137,-5.063,42.01401505333333,-93.76721821666666,340.148,4,2022-11-09-14-12-27-750,
/media/phenobot3/Extreme SSD/under-canopy-images/Test4/enviratron/d3/1668024748027207314.jpeg,1668024748.1044526,-177.43048019894857,0.5100388539140739,57.3177543898157,0.0,42.01401146833334,-93.76722158,340.148,4,2022-11-09-14-12-28-104,
/media/phenobot3/Extreme SSD/under-canopy-images/Test4/enviratron/d3/1668024748394744881.jpeg,1668024748.490214,-178.18322330085715,-0.41667135604643174,58.28184257791117,-3.312,42.014007703333334,-93.76721958833333,340.152,4,2022-11-09-14-12-28-490,
/media/phenobot3/Extreme SSD/under-canopy-images/Test4/enviratron/d3/1668024748762883606.jpeg,1668024748.8375847,-178.5029398616222,-0.5626518777429557,59.07616420065991,-1.5,42.01400500166667,-93.76722017,340.146,4,2022-11-09-14-12-28-837,
/media/phenobot3/Extreme SSD/under-canopy-images/Test4/enviratron/d3/1668024749129865619.jpeg,1668024749.2144036,-179.67536881249842,0.11056361266030568,59.36590301281497,-2.562,42.014001613333335,-93.767219985,340.149,4,2022-11-09-14-12-29-214,
/media/phenobot3/Extreme SSD/under-canopy-images/Test4/enviratron/d3/1668024749493896207.jpeg,1668024749.570892,-179.5814386752343,0.02283568538886156,59.513056465920194,-4.188,42.013998171666664,-93.76721848333334,340.144,4,2022-11-09-14-12-29-570,
/media/phenobot3/Extreme SSD/under-canopy-images/Test4/enviratron/d3/1668024749857747404.jpeg,1668024749.9372025,-179.13157943484364,0.3197033663143705,58.45148110389948,-2.562,42.01399544666667,-93.76721913166666,340.147,4,2022-11-09-14-12-29-937,
/media/phenobot3/Extreme SSD/under-canopy-images/Test4/enviratron/d3/1668024750224170614.jpeg,1668024750.302803,-179.34334007955317,-0.25610220055809535,57.19123596521188,-5.125,42.01399207,-93.767217225,340.143,4,2022-11-09-14-12-30-302,
/media/phenobot3/Extreme SSD/under-canopy-images/Test4/enviratron/d3/1668024750596215272.jpeg,1668024750.6756253,-179.37795946503277,-0.2641992078215687,56.11617632839326,-2.437,42.013987925,-93.76721849333333,340.141,4,2022-11-09-14-12-30-675,
/media/phenobot3/Extreme SSD/under-canopy-images/Test4/enviratron/d3/1668024750984905954.jpeg,1668024751.0458498,-179.47980069052798,0.11791278985791823,55.690459689985246,-3.0,42.013985676666664,-93.76721823333334,340.142,4,2022-11-09-14-12-31-459,
/media/phenobot3/Extreme SSD/under-canopy-images/Test4/enviratron/d3/1668024751353734836.jpeg,1668024751.4399776,179.44825242344987,-0.22983466214703246,54.99031024621898,-2.687,42.01398265,-93.76721799666667,340.145,4,2022-11-09-14-12-31-440,
/media/phenobot3/Extreme SSD/under-canopy-images/Test4/enviratron/d3/1668024751752161256.jpeg,1668024751.8201227,-179.59434470200307,-0.22135168477958167,54.9999137130552,-4.375,42.01397869,-93.767217215,340.141,4,2022-11-09-14-12-31-820,
/media/phenobot3/Extreme SSD/under-canopy-images/Test4/enviratron/d3/1668024752121261148.jpeg,1668024752.2170568,178.9726254141597,-0.6829027849012258,54.064064740201964,-3.875,42.013975351666666,-93.76721727333333,340.14,4,2022-11-09-14-12-32-217,
/media/phenobot3/Extreme SSD/under-canopy-images/Test4/enviratron/d3/1668024752525557175.jpeg,1668024752.5870326,178.49140511878952,-0.17258050689038282,52.67769605340244,-4.375,42.013971391666665,-93.76721695166667,340.144,4,2022-11-09-14-12-32-587,
/media/phenobot3/Extreme SSD/under-canopy-images/Test4/enviratron/d3/1668024752894695825.jpeg,1668024752.9849854,179.38625940069574,-0.10452455334672082,52.6503312828382,-2.625,42.01396806333333,-93.76721811,340.145,4,2022-11-09-14-12-32-985,
/media/phenobot3/Extreme SSD/under-canopy-images/Test4/enviratron/d3/1668024753280856045.jpeg,1668024753.3483539,-179.31249338454785,-0.381765706114358,51.51055354192337,-3.25,42.01396514166667,-93.767217715,340.147,4,2022-11-09-14-12-33-348,
/media/phenobot3/Extreme SSD/under-canopy-images/Test4/enviratron/d3/1668024753645884315.jpeg,1668024753.7342858,-179.0589291577677,-0.7023791717162783,51.884971628083214,-2.25,42.01396171166667,-93.76721826,340.146,4,2022-11-09-14-12-33-734,
/media/phenobot3/Extreme SSD/under-canopy-images/Test4/enviratron/d3/1668024754030126002.jpeg,1668024754.0966206,179.1098455489164,-0.25072513696987336,50.70604276061721,-3.687,42.013958905,-93.76721779333333,340.151,4,2022-11-09-14-12-34-967,
/media/phenobot3/Extreme SSD/under-canopy-images/Test4/enviratron/d3/1668024754398161725.jpeg,1668024754.4832625,-179.4314182351009,0.10817621315433917,53.38155687522058,-2.875,42.01395493333333,-93.76721840333333,340.147,4,2022-11-09-14-12-34-483,
/media/phenobot3/Extreme SSD/under-canopy-images/Test4/enviratron/d3/1668024754779835827.jpeg,1668024754.843216,178.61726701518356,-0.15341093404856876,64.88113871360417,-2.062,42.01395255,-93.767219435,340.146,4,2022-11-09-14-12-34-843,
/media/phenobot3/Extreme SSD/under-canopy-images/Test4/enviratron/d3/1668024755146902381.jpeg,1668024755.233198,178.88412964997013,-0.7475767342529015,68.68597658604628,-2.437,42.013948551666665,-93.767218615,340.151,4,2022-11-09-14-12-35-233,
/media/phenobot3/Extreme SSD/under-canopy-images/Test4/enviratron/d3/1668024755532502244.jpeg,1668024755.59711,-178.2339290128459,-0.045761335693859845,60.6532734063908,-1.875,42.013945068333335,-93.767218435,340.143,4,2022-11-09-14-12-35-597,
/media/phenobot3/Extreme SSD/under-canopy-images/Test4/enviratron/d3/1668024755904200929.jpeg,1668024755.9895139,-178.33290206734065,-0.1686608609061137,62.102887278221864,-0.875,42.01394178,-93.76721867333333,340.141,4,2022-11-09-14-12-35-989,
/media/phenobot3/Extreme SSD/under-canopy-images/Test4/enviratron/d3/1668024756294315339.jpeg,1668024756.3559682,-179.25449854957233,0.16882590019697377,63.718204037642586,-1.375,42.013938515,-93.76721785333334,340.145,4,2022-11-09-14-12-36-356,
/media/phenobot3/Extreme SSD/under-canopy-images/Test4/enviratron/d3/1668024756663500286.jpeg,1668024756.738252,177.90359310559077,-0.17123985579124337,61.73858700604407,-4.75,42.01393681,-93.767215975,340.14,4,2022-11-09-14-12-36-738,
/media/phenobot3/Extreme SSD/under-canopy-images/Test4/enviratron/d3/1668024757048550698.jpeg,1668024757.1103852,179.32329735852605,0.15421071713463808,60.783700187373995,-4.938,42.01393331,-93.767214875,340.138,4,2022-11-09-14-12-37-110,
/media/phenobot3/Extreme SSD/under-canopy-images/Test4/enviratron/d3/1668024757417354970.jpeg,1668024757.4871576,179.9893786647245,0.1371953384845531,58.44462049625105,-1.937,42.013929696666665,-93.76721617833333,340.129,4,2022-11-09-14-12-37-487,
/media/phenobot3/Extreme SSD/under-canopy-images/Test4/enviratron/d3/1668024757804238126.jpeg,1668024757.8647056,-179.79171441514558,-0.20849669088726494,55.36950543320044,-2.687,42.013926123333334,-93.767215155,340.131,4,2022-11-09-14-12-37-864,
/media/phenobot3/Extreme SSD/under-canopy-images/Test4/enviratron/d3/1668024758173525981.jpeg,1668024758.2508626,179.34712717649256,0.33690486401642245,54.19453474586418,-3.062,42.01392357666667,-93.76721491166667,340.128,4,2022-11-09-14-12-38-250,
/media/phenobot3/Extreme SSD/under-canopy-images/Test4/enviratron/d3/1668024758555303638.jpeg,1668024758.6225946,-179.729506752337,0.11766511499211031,53.82639154777387,-3.062,42.013920265,-93.76721472333334,340.127,4,2022-11-09-14-12-38-622,
/media/phenobot3/Extreme SSD/under-canopy-images/Test4/enviratron/d3/1668024758921771315.jpeg,1668024758.9976826,178.52517515312118,-0.11286913082879509,57.86829568600744,-2.312,42.01391679166667,-93.76721531666666,340.128,4,2022-11-09-14-12-38-997,
/media/phenobot3/Extreme SSD/under-canopy-images/Test4/enviratron/d3/1668024759323225048.jpeg,1668024759.3973656,178.87811892413015,-0.4628360846372793,59.455806424382494,-2.625,42.01391354,-93.76721495666666,340.128,4,2022-11-09-14-12-39-397,
/media/phenobot3/Extreme SSD/under-canopy-images/Test4/enviratron/d3/1668024759686908357.jpeg,1668024759.7699087,-179.53445134487262,-0.5629614270793747,57.07664961329111,-0.688,42.01390974666667,-93.76721591166667,340.134,4,2022-11-09-14-12-39-769,
/media/phenobot3/Extreme SSD/under-canopy-images/Test4/enviratron/d3/1668024760088924937.jpeg,1668024760.1501815,-178.33406421919923,-0.13509612234561122,56.98653865025276,-1.875,42.013907385,-93.76721517166666,340.129,4,2022-11-09-14-12-40-150,
/media/phenobot3/Extreme SSD/under-canopy-images/Test4/enviratron/d3/1668024760457329006.jpeg,1668024760.5323632,-177.19116287688402,-0.3011549519118252,57.46834121900827,0.125,42.01390387833333,-93.7672159,340.129,4,2022-11-09-14-12-40-532,
/media/phenobot3/Extreme SSD/under-canopy-images/Test4/enviratron/d3/1668024760842236935.jpeg,1668024760.9112659,-178.4705765765788,0.3353901392141384,57.34005611392426,1.187,42.0139003,-93.76721666833333,340.13,4,2022-11-09-14-12-40-911,
/media/phenobot3/Extreme SSD/under-canopy-images/Test4/enviratron/d3/1668024761215976910.jpeg,1668024761.2940664,-179.26918296130023,-0.29975872305065493,59.167846381216314,-0.063,42.0138972,-93.767215615,340.126,4,2022-11-09-14-12-41-294,
/media/phenobot3/Extreme SSD/under-canopy-images/Test4/enviratron/d3/1668024761602279903.jpeg,1668024761.6642787,-179.50290918619052,-0.0878432259239121,58.63393631945736,-1.125,42.01389363333333,-93.76721483166666,340.128,4,2022-11-09-14-12-41-664,
/media/phenobot3/Extreme SSD/under-canopy-images/Test4/enviratron/d3/1668024761972562395.jpeg,1668024762.0382774,-179.3003141614405,0.2386191405129409,58.587772645386316,-1.5,42.01389081166667,-93.76721459,340.124,4,2022-11-09-14-12-42-383,
/media/phenobot3/Extreme SSD/under-canopy-images/Test4/enviratron/d3/1668024762362442801.jpeg,1668024762.4225116,-179.743019978307,0.30962225612276534,57.81803585116751,-1.687,42.01388727,-93.76721405833334,340.122,4,2022-11-09-14-12-42-422,
/media/phenobot3/Extreme SSD/under-canopy-images/Test4/enviratron/d3/1668024762731966823.jpeg,1668024762.8090856,-179.03273730548608,-0.05691042391373385,57.023964017083046,-1.625,42.01388429166666,-93.76721350666666,340.118,4,2022-11-09-14-12-42-809,
/media/phenobot3/Extreme SSD/under-canopy-images/Test4/enviratron/d3/1668024763135270767.jpeg,1668024763.202507,-179.62069476423434,-0.28671723165158886,55.9889981735344,-0.125,42.01388076666667,-93.76721420333334,340.115,4,2022-11-09-14-12-43-202,
/media/phenobot3/Extreme SSD/under-canopy-images/Test4/enviratron/d3/1668024763504701902.jpeg,1668024763.5781124,-179.29823203517952,-0.1268262342665153,54.84357590879715,-0.813,42.013877793333336,-93.767213665,340.109,4,2022-11-09-14-12-43-578,
/media/phenobot3/Extreme SSD/under-canopy-images/Test4/enviratron/d3/1668024763892031023.jpeg,1668024763.9593003,-179.76999111195605,0.11782933281206573,53.93336386973678,-0.125,42.01387582666667,-93.76721377833333,340.113,4,2022-11-09-14-12-43-959,
/media/phenobot3/Extreme SSD/under-canopy-images/Test4/enviratron/d3/1668024764261290395.jpeg,1668024764.3290043,-178.7413424976347,-0.06183091787332138,53.945194142468296,-1.562,42.013873315,-93.76721311833333,340.108,4,2022-11-09-14-12-44-329,
/media/phenobot3/Extreme SSD/under-canopy-images/Test4/enviratron/d3/1668024764643169328.jpeg,1668024764.7044866,-179.0736525897408,-0.05063563822514789,52.36474927702497,-0.438,42.013870125,-93.767213725,340.115,4,2022-11-09-14-12-44-704,
/media/phenobot3/Extreme SSD/under-canopy-images/Test4/enviratron/d3/1668024765009666338.jpeg,1668024765.084248,-178.0847012743055,-0.2740622908699589,51.71294946855907,-0.438,42.01386705,-93.76721381833333,340.109,4,2022-11-09-14-12-45-843,
/media/phenobot3/Extreme SSD/under-canopy-images/Test4/enviratron/d3/1668024765396085179.jpeg,1668024765.457738,-179.06858491822126,-0.36061174399451235,51.34810116312047,1.062,42.013864223333336,-93.76721485666667,340.112,4,2022-11-09-14-12-45-457,
/media/phenobot3/Extreme SSD/under-canopy-images/Test4/enviratron/d3/1668024765764872313.jpeg,1668024765.8342345,-178.18269122985672,0.08538493455042913,56.8378732100955,-0.375,42.013861775,-93.767214005,340.113,4,2022-11-09-14-12-45-834,
/media/phenobot3/Extreme SSD/under-canopy-images/Test4/enviratron/d3/1668024766147843643.jpeg,1668024766.2054298,-177.75447074940715,-0.5723726577351823,61.79596000636531,1.687,42.013858123333335,-93.76721518333333,340.109,4,2022-11-09-14-12-46-205,
/media/phenobot3/Extreme SSD/under-canopy-images/Test4/enviratron/d3/1668024766515565908.jpeg,1668024766.5925138,-178.15246260112932,-0.1705618150816008,65.70170863579528,1.375,42.013855035,-93.76721527666666,340.113,4,2022-11-09-14-12-46-592,
/media/phenobot3/Extreme SSD/under-canopy-images/Test4/enviratron/d3/1668024766903051371.jpeg,1668024766.9643173,179.79633739869664,0.05362780979593729,56.97398529548209,-1.25,42.01385214166667,-93.76721335833334,340.115,4,2022-11-09-14-12-46-964,
/media/phenobot3/Extreme SSD/under-canopy-images/Test4/enviratron/d3/1668024767270652367.jpeg,1668024767.34716,179.6657418784212,-0.37043907816176663,56.203493096040354,-1.0,42.01385040833333,-93.76721299666667,340.112,4,2022-11-09-14-12-47-347,
/media/phenobot3/Extreme SSD/under-canopy-images/Test4/enviratron/d3/1668024767653574992.jpeg,1668024767.7214212,-179.8186286352595,0.687934911583427,54.34922214068673,1.062,42.01384676833333,-93.76721398666666,340.105,4,2022-11-09-14-12-47-721,
/media/phenobot3/Extreme SSD/under-canopy-images/Test4/enviratron/d3/1668024768019192811.jpeg,1668024768.0908442,178.6832466410461,-0.1875820550515825,53.681361551975755,-2.0,42.01384379,-93.76721208666666,340.105,4,2022-11-09-14-12-48-909,
/media/phenobot3/Extreme SSD/under-canopy-images/Test4/enviratron/d3/1668024768406156372.jpeg,1668024768.4647267,179.45845376336663,0.38925443636117074,54.20846873871724,-2.562,42.01383994166667,-93.76721163,340.104,4,2022-11-09-14-12-48-464,
/media/phenobot3/Extreme SSD/under-canopy-images/Test4/enviratron/d3/1668024768772910041.jpeg,1668024768.839599,-178.43738948687835,0.2109027733574119,53.080897091095316,1.437,42.01383732,-93.76721365833333,340.105,4,2022-11-09-14-12-48-839,
/media/phenobot3/Extreme SSD/under-canopy-images/Test4/enviratron/d3/1668024769156518689.jpeg,1668024769.217769,-178.74980707201337,-0.36609382738070645,52.676201901120166,0.875,42.01383429333333,-93.76721350333334,340.111,4,2022-11-09-14-12-49-217,
/media/phenobot3/Extreme SSD/under-canopy-images/Test4/enviratron/d3/1668024769522089386.jpeg,1668024769.591402,-179.19408140579165,-0.3478563657955736,56.42760287627134,-1.125,42.013831045,-93.7672123,340.098,4,2022-11-09-14-12-49-591,
/media/phenobot3/Extreme SSD/under-canopy-images/Test4/enviratron/d3/1668024769908856987.jpeg,1668024769.966386,179.52621906013331,-0.440519308010526,56.988699970069625,0.312,42.01382798666667,-93.76721324833333,340.098,4,2022-11-09-14-12-49-966,
/media/phenobot3/Extreme SSD/under-canopy-images/Test4/enviratron/d3/1668024770274363042.jpeg,1668024770.3551972,179.05935685267255,0.30967971503201963,55.48517927272748,-0.187,42.01382410666667,-93.76721284666667,340.106,4,2022-11-09-14-12-50-355,
/media/phenobot3/Extreme SSD/under-canopy-images/Test4/enviratron/d3/1668024770674213890.jpeg,1668024770.732278,177.78213929086186,0.19990137563628843,54.76084985699139,-2.5,42.013821531666665,-93.76721148166666,340.09,4,2022-11-09-14-12-50-732,
/media/phenobot3/Extreme SSD/under-canopy-images/Test4/enviratron/d3/1668024771040305666.jpeg,1668024771.1173077,177.91471802392797,0.06270839655000869,54.49413826561114,-1.687,42.013818498333336,-93.76721172,340.091,4,2022-11-09-14-12-51-117,
/media/phenobot3/Extreme SSD/under-canopy-images/Test4/enviratron/d3/1668024771422475329.jpeg,1668024771.4925354,178.1373400047555,0.3290517142354769,54.36121493062781,-1.375,42.01381527833333,-93.76721202833333,340.091,4,2022-11-09-14-12-51-492,
/media/phenobot3/Extreme SSD/under-canopy-images/Test4/enviratron/d3/1668024771787355534.jpeg,1668024771.8577266,179.53784274616655,0.3644575720084306,56.24156881822088,-2.312,42.013812673333334,-93.76721128166666,340.088,4,2022-11-09-14-12-51-857,
/media/phenobot3/Extreme SSD/under-canopy-images/Test4/enviratron/d3/1668024772168604174.jpeg,1668024772.2321138,179.76569918546008,0.0067712193946781706,58.19646445769788,0.5,42.01380807,-93.76721238666667,340.086,4,2022-11-09-14-12-52-232,
/media/phenobot3/Extreme SSD/under-canopy-images/Test4/enviratron/d3/1668024772533361483.jpeg,1668024772.6076193,178.64764799569824,0.1295783799267689,57.28761392968062,0.0,42.013804115,-93.76721248333334,340.096,4,2022-11-09-14-12-52-607,
/media/phenobot3/Extreme SSD/under-canopy-images/Test4/enviratron/d3/1668024772917663627.jpeg,1668024772.9794855,178.69750801609987,-0.42239444302292856,56.32283485411672,-1.687,42.01379960333333,-93.76721104,340.091,4,2022-11-09-14-12-52-979,
/media/phenobot3/Extreme SSD/under-canopy-images/Test4/enviratron/d3/1668024773285291578.jpeg,1668024773.3603644,179.01019783653155,0.22964280447531335,57.341775439098605,-1.0,42.013795996666666,-93.76721126166666,340.096,4,2022-11-09-14-12-53-360,
/media/phenobot3/Extreme SSD/under-canopy-images/Test4/enviratron/d3/1668024773670389972.jpeg,1668024773.7294505,178.11507805787153,0.10238887413991733,57.83138640920769,-2.0,42.01379188166667,-93.76721046,340.09,4,2022-11-09-14-12-53-729,
/media/phenobot3/Extreme SSD/under-canopy-images/Test4/enviratron/d3/1668024774037120426.jpeg,1668024774.1052866,178.2065001874468,0.0652363335412403,57.1576698912466,-0.938,42.013787648333334,-93.767210595,340.094,4,2022-11-09-14-12-54-105,
/media/phenobot3/Extreme SSD/under-canopy-images/Test4/enviratron/d3/1668024774422238964.jpeg,1668024774.480664,177.9735327208945,0.7865059677969256,57.072851768936815,-2.937,42.01378354333333,-93.76720928333333,340.083,4,2022-11-09-14-12-54-480,
/media/phenobot3/Extreme SSD/under-canopy-images/Test4/enviratron/d3/1668024774790675640.jpeg,1668024774.8687615,176.6283248129972,0.4878063211842139,56.42326070084805,-4.313,42.01377994333333,-93.76720816833334,340.069,4,2022-11-09-14-12-54-868,
/media/phenobot3/Extreme SSD/under-canopy-images/Test4/enviratron/d3/1668024775174821391.jpeg,1668024775.238726,177.4592605831471,0.7147043660872507,56.20131352987473,-4.375,42.013775835,-93.76720744666666,340.068,4,2022-11-09-14-12-55-238,
/media/phenobot3/Extreme SSD/under-canopy-images/Test4/enviratron/d3/1668024775541390951.jpeg,1668024775.608289,177.93757257566753,0.8685124263664189,54.30183669470042,-0.875,42.01377141333333,-93.76720939166667,340.072,4,2022-11-09-14-12-55-608,
/media/phenobot3/Extreme SSD/under-canopy-images/Test4/enviratron/d3/1668024775925508160.jpeg,1668024775.9866138,178.3555384791372,-0.01678267423600582,53.593611107253835,-1.312,42.013768015,-93.767208945,340.07,4,2022-11-09-14-12-55-986,
/media/phenobot3/Extreme SSD/under-canopy-images/Test4/enviratron/d3/1668024776290645908.jpeg,1668024776.3656757,178.07751544660914,-0.007807772946439203,53.4307492780257,0.0,42.01376358666667,-93.76720974166666,340.063,4,2022-11-09-14-12-56-365,
/media/phenobot3/Extreme SSD/under-canopy-images/Test4/enviratron/d3/1668024776674205954.jpeg,1668024776.731911,178.7021565519702,0.10836024630104774,54.08359856303826,-0.563,42.01375989666667,-93.76720924166666,340.068,4,2022-11-09-14-12-56-732,
/media/phenobot3/Extreme SSD/under-canopy-images/Test4/enviratron/d3/1668024777039957874.jpeg,1668024777.1132362,178.6859537234319,-0.1749027651863359,53.840900480073095,0.187,42.013755705,-93.76720968166667,340.058,4,2022-11-09-14-12-57-113,
/media/phenobot3/Extreme SSD/under-canopy-images/Test4/enviratron/d3/1668024777423472497.jpeg,1668024777.484228,179.3362360031735,0.593054343076617,54.95638424388244,-1.5,42.01375128,-93.76720872333334,340.051,4,2022-11-09-14-12-57-484,
/media/phenobot3/Extreme SSD/under-canopy-images/Test4/enviratron/d3/1668024777789597572.jpeg,1668024777.8673866,178.78959593542012,0.6121719393387569,54.94964804164303,0.0,42.01374662,-93.76720958166666,340.047,4,2022-11-09-14-12-57-867,
/media/phenobot3/Extreme SSD/under-canopy-images/Test4/enviratron/d3/1668024778174370018.jpeg,1668024778.2352333,177.36213487583268,0.732824713317323,54.538272696950145,-0.688,42.013743595,-93.767209295,340.042,4,2022-11-09-14-12-58-235,
/media/phenobot3/Extreme SSD/under-canopy-images/Test4/enviratron/d3/1668024778540025123.jpeg,1668024778.6142716,178.57662883491406,1.0509538082082124,54.13149900867143,-2.062,42.013739711666666,-93.76720812333333,340.021,4,2022-11-09-14-12-58-614,
/media/phenobot3/Extreme SSD/under-canopy-images/Test4/enviratron/d3/1668024778923146536.jpeg,1668024778.9806955,178.23456834684328,0.6581692072714648,53.3416086685155,-0.375,42.01373517,-93.76720895,340.022,4,2022-11-09-14-12-58-980,
/media/phenobot3/Extreme SSD/under-canopy-images/Test4/enviratron/d3/1668024779288668662.jpeg,1668024779.3714788,179.1168460210577,0.9152204733949465,52.323786145828926,0.312,42.01373093833333,-93.767209555,340.013,4,2022-11-09-14-12-59-371,
/media/phenobot3/Extreme SSD/under-canopy-images/Test4/enviratron/d3/1668024779670592900.jpeg,1668024779.728383,178.44585014864,1.8021428942874875,58.45802989015634,-1.937,42.01372752333333,-93.76720836166666,340.004,4,2022-11-09-14-12-59-728,
/media/phenobot3/Extreme SSD/under-canopy-images/Test4/enviratron/d3/1668024780036816953.jpeg,1668024780.115081,178.55967440646492,0.9450988745205932,61.80766812739563,-0.187,42.01372335,-93.767208965,340.003,4,2022-11-09-14-13-00-115,
/media/phenobot3/Extreme SSD/under-canopy-images/Test4/enviratron/d3/1668024780420976902.jpeg,1668024780.478318,177.9244337627178,0.7285852358312023,57.19085815567903,-2.0,42.013719605,-93.76720760666667,339.989,4,2022-11-09-14-13-00-478,
/media/phenobot3/Extreme SSD/under-canopy-images/Test4/enviratron/d3/1668024780788526747.jpeg,1668024780.8668742,179.3278145422159,0.8316713611663245,57.13037343076687,1.875,42.013716216666666,-93.76720843,339.988,4,2022-11-09-14-13-00-866,
/media/phenobot3/Extreme SSD/under-canopy-images/Test4/enviratron/d3/1668024781171173537.jpeg,1668024781.231388,178.78319138472568,0.6362832592460349,56.15442444535763,1.687,42.01371185833333,-93.76720942333333,339.983,4,2022-11-09-14-13-01-231,
/media/phenobot3/Extreme SSD/under-canopy-images/Test4/enviratron/d3/1668024781539293201.jpeg,1668024781.6167078,178.50330935484004,0.5695234179620152,56.77529420821317,-1.5,42.01370741666667,-93.767206935,339.971,4,2022-11-09-14-13-01-616,
/media/phenobot3/Extreme SSD/under-canopy-images/Test4/enviratron/d3/1668024781924833783.jpeg,1668024781.9865537,177.72238640010121,0.809985055633388,55.640577635051784,0.625,42.013703035,-93.767207925,339.965,4,2022-11-09-14-13-01-986,
/media/phenobot3/Extreme SSD/under-canopy-images/Test4/enviratron/d3/1668024782294365864.jpeg,1668024782.379884,179.44330474205685,0.9119431305636488,54.473216181155514,-0.563,42.01369902,-93.76720677833333,339.959,4,2022-11-09-14-13-02-380,
/media/phenobot3/Extreme SSD/under-canopy-images/Test4/enviratron/d3/1668024782694712763.jpeg,1668024782.7654939,179.88612330774325,1.3653876940419727,52.592468258023146,3.75,42.013694355,-93.76720933666667,339.947,4,2022-11-09-14-13-02-765,
/media/phenobot3/Extreme SSD/under-canopy-images/Test4/enviratron/d3/1668024783062423660.jpeg,1668024783.1413736,-179.20601155822797,0.9880756370986624,52.33152094650089,1.25,42.013691105,-93.76720801833333,339.951,4,2022-11-09-14-13-03-141,
/media/phenobot3/Extreme SSD/under-canopy-images/Test4/enviratron/d3/1668024783462342570.jpeg,1668024783.5202906,179.44181440491943,0.3554602819752356,53.436483912897785,3.375,42.01368709333333,-93.76720904833333,339.938,4,2022-11-09-14-13-03-520,
/media/phenobot3/Extreme SSD/under-canopy-images/Test4/enviratron/d3/1668024783829018950.jpeg,1668024783.9128978,178.8037096934952,0.4227626993493143,54.96279648381928,0.375,42.013682581666664,-93.767207805,339.93,4,2022-11-09-14-13-03-912,
/media/phenobot3/Extreme SSD/under-canopy-images/Test4/enviratron/d3/1668024784228635168.jpeg,1668024784.2880628,-179.9658171294049,0.49679780384991795,58.09805320950099,1.062,42.01367835666667,-93.76720825666666,339.917,4,2022-11-09-14-13-04-288,
/media/phenobot3/Extreme SSD/under-canopy-images/Test4/enviratron/d3/1668024784596041050.jpeg,1668024784.6771462,179.00950781371725,0.9381235697843575,61.20794829411361,1.875,42.01367448,-93.76720864666666,339.922,4,2022-11-09-14-13-04-677,
/media/phenobot3/Extreme SSD/under-canopy-images/Test4/enviratron/d3/1668024784994564370.jpeg,1668024785.05623,178.19153536749513,0.23210518358920523,60.44027148459436,1.75,42.013670145,-93.76720833,339.918,4,2022-11-09-14-13-05-563,
/media/phenobot3/Extreme SSD/under-canopy-images/Test4/enviratron/d3/1668024785361212748.jpeg,1668024785.4439275,177.89248167553615,0.8775851975107422,58.78558461509522,-1.5,42.013667043333335,-93.767206135,339.901,4,2022-11-09-14-13-05-444,
/media/phenobot3/Extreme SSD/under-canopy-images/Test4/enviratron/d3/1668024785763532510.jpeg,1668024785.8276274,179.61199404024623,0.10222562466524283,56.76033120004526,1.625,42.013662878333335,-93.76720708,339.902,4,2022-11-09-14-13-05-827,
/media/phenobot3/Extreme SSD/under-canopy-images/Test4/enviratron/d3/1668024786131491397.jpeg,1668024786.211895,177.63464868471738,0.18591454977113236,55.99841662227652,-1.375,42.013658735,-93.767205635,339.891,4,2022-11-09-14-13-06-211,
/media/phenobot3/Extreme SSD/under-canopy-images/Test4/enviratron/d3/1668024786527934471.jpeg,1668024786.5924287,178.6486633534373,0.7242506680107196,55.213617408217495,-0.5,42.01365439833334,-93.76720539166666,339.885,4,2022-11-09-14-13-06-592,
/media/phenobot3/Extreme SSD/under-canopy-images/Test4/enviratron/d3/1668024786896961102.jpeg,1668024786.975851,176.87974847449394,0.5643591646111863,53.57404381139325,0.938,42.013649785,-93.76720616833333,339.883,4,2022-11-09-14-13-06-975,
/media/phenobot3/Extreme SSD/under-canopy-images/Test4/enviratron/d3/1668024787300207183.jpeg,1668024787.3633742,177.53932907839328,0.3271409611736362,54.365782993868514,-1.375,42.01364555333333,-93.76720464666667,339.864,4,2022-11-09-14-13-07-363,
/media/phenobot3/Extreme SSD/under-canopy-images/Test4/enviratron/d3/1668024787667762595.jpeg,1668024787.745464,179.87873479227866,0.26039374367990364,53.79383466812513,2.312,42.01364215666667,-93.76720614833333,339.871,4,2022-11-09-14-13-07-745,
/media/phenobot3/Extreme SSD/under-canopy-images/Test4/enviratron/d3/1668024788066090609.jpeg,1668024788.1376057,179.95561304879212,0.8452281395102534,55.114109391255084,2.875,42.013637945,-93.767207135,339.872,4,2022-11-09-14-13-08-137,
/media/phenobot3/Extreme SSD/under-canopy-images/Test4/enviratron/d3/1668024788433669221.jpeg,1668024788.510523,178.89462208429904,0.2676345727874722,61.84928423298522,1.562,42.01363395166667,-93.76720643666667,339.852,4,2022-11-09-14-13-08-510,
/media/phenobot3/Extreme SSD/under-canopy-images/Test4/enviratron/d3/1668024788832431157.jpeg,1668024788.892847,-179.416260824564,1.0756458029438152,64.65825791810033,4.0,42.013629941666665,-93.76720752,339.852,4,2022-11-09-14-13-08-892,
/media/phenobot3/Extreme SSD/under-canopy-images/Test4/enviratron/d3/1668024789199425981.jpeg,1668024789.2791371,-179.28553591553532,1.6620237878774615,59.73957784958262,4.188,42.01362561,-93.767207245,339.838,4,2022-11-09-14-13-09-279,
/media/phenobot3/Extreme SSD/under-canopy-images/Test4/enviratron/d3/1668024789600169733.jpeg,1668024789.6686757,-179.41562441524962,0.878761048601926,58.09722232412353,2.125,42.01362138,-93.76720539833333,339.836,4,2022-11-09-14-13-09-668,
/media/phenobot3/Extreme SSD/under-canopy-images/Test4/enviratron/d3/1668024789970163303.jpeg,1668024790.0515492,178.91114825902213,0.8158143831158967,57.906304077081515,2.75,42.01361802,-93.767205415,339.831,4,2022-11-09-14-13-10-516,
/media/phenobot3/Extreme SSD/under-canopy-images/Test4/enviratron/d3/1668024790371113187.jpeg,1668024790.4363222,179.98473377415803,0.1283911217052804,56.754755688464776,2.062,42.013613801666665,-93.76720446833333,339.821,4,2022-11-09-14-13-10-436,
/media/phenobot3/Extreme SSD/under-canopy-images/Test4/enviratron/d3/1668024790741353843.jpeg,1668024790.8271937,178.87286189614395,0.20267629390825773,55.71794240205051,2.125,42.0136094,-93.76720419333333,339.817,4,2022-11-09-14-13-10-827,
/media/phenobot3/Extreme SSD/under-canopy-images/Test4/enviratron/d3/1668024791138861614.jpeg,1668024791.2112534,177.8256507491542,-0.055747275472243916,54.11854867568927,1.375,42.013605155,-93.76720341833334,339.807,4,2022-11-09-14-13-11-211,
/media/phenobot3/Extreme SSD/under-canopy-images/Test4/enviratron/d3/1668024791507599243.jpeg,1668024791.590505,179.24004894229105,0.5623931454738169,54.17685271534754,2.562,42.01360049666667,-93.76720376666667,339.804,4,2022-11-09-14-13-11-590,
/media/phenobot3/Extreme SSD/under-canopy-images/Test4/enviratron/d3/1668024791912023210.jpeg,1668024791.9755821,-179.78393821750666,0.3829589197369547,54.09717389484063,3.5,42.01359657333333,-93.76720434833334,339.804,4,2022-11-09-14-13-11-975,
/media/phenobot3/Extreme SSD/under-canopy-images/Test4/enviratron/d3/1668024792277179646.jpeg,1668024792.3677008,179.1969763776617,0.7392782023352779,57.53734735414208,4.188,42.01359340333333,-93.76720469833333,339.795,4,2022-11-09-14-13-12-367,
/media/phenobot3/Extreme SSD/under-canopy-images/Test4/enviratron/d3/1668024792680598040.jpeg,1668024792.7427323,179.42158418972795,0.14377815015812814,59.450804466663186,3.75,42.013589315,-93.76720458333334,339.795,4,2022-11-09-14-13-12-742,
/media/phenobot3/Extreme SSD/under-canopy-images/Test4/enviratron/d3/1668024793049326954.jpeg,1668024793.1358874,-179.09587016502837,0.9787659001935548,57.6459123171768,5.875,42.01358503833333,-93.76720552666667,339.781,4,2022-11-09-14-13-13-135,
/media/phenobot3/Extreme SSD/under-canopy-images/Test4/enviratron/d3/1668024793451827385.jpeg,1668024793.517142,-179.38024243121,0.3008669316888976,57.18791484409777,5.063,42.013581478333336,-93.767205215,339.777,4,2022-11-09-14-13-13-517,
/media/phenobot3/Extreme SSD/under-canopy-images/Test4/enviratron/d3/1668024793821247650.jpeg,1668024793.8995092,-179.19569463345857,0.3534798558894042,56.562405488699426,3.375,42.01357736666667,-93.767204035,339.778,4,2022-11-09-14-13-13-899,
/media/phenobot3/Extreme SSD/under-canopy-images/Test4/enviratron/d3/1668024794221304794.jpeg,1668024794.2834551,176.55160931819202,-0.2129420546151325,57.41913121080657,1.125,42.01357293666667,-93.767202975,339.775,4,2022-11-09-14-13-14-283,
/media/phenobot3/Extreme SSD/under-canopy-images/Test4/enviratron/d3/1668024794587569850.jpeg,1668024794.6683435,178.16064565108076,0.9079341450660295,58.054079630801375,0.938,42.013568545,-93.76720232166667,339.767,4,2022-11-09-14-13-14-668,
/media/phenobot3/Extreme SSD/under-canopy-images/Test4/enviratron/d3/1668024794987440123.jpeg,1668024795.0546947,-174.72556593245756,2.285101337802853,55.891217324836234,6.438,42.01356532333333,-93.76720442333334,339.753,4,2022-11-09-14-13-15-547,
/media/phenobot3/Extreme SSD/under-canopy-images/Test4/enviratron/d3/1668024795350560687.jpeg,1668024795.4323359,-173.47605636172042,0.22185633452341144,49.64905908993865,12.062,42.01356235,-93.76720867833333,339.757,4,2022-11-09-14-13-15-432,
/media/phenobot3/Extreme SSD/under-canopy-images/Test4/enviratron/d3/1668024795746198161.jpeg,1668024795.809459,179.63560456943983,1.0182163170389908,51.48307270454481,2.0,42.01355684666667,-93.76720384833334,339.742,4,2022-11-09-14-13-15-809,
/media/phenobot3/Extreme SSD/under-canopy-images/Test4/enviratron/d3/1668024796113879493.jpeg,1668024796.1919653,-178.6838476163838,0.5868518912044628,58.831753521080266,5.813,42.013554623333334,-93.76720577833333,339.725,4,2022-11-09-14-13-16-192,
/media/phenobot3/Extreme SSD/under-canopy-images/Test4/enviratron/d3/1668024796510009191.jpeg,1668024796.5745137,-179.97764172762078,1.4025778684239878,52.425542063058245,3.562,42.013553275,-93.767204265,339.743,4,2022-11-09-14-13-16-574,
/media/phenobot3/Extreme SSD/under-canopy-images/Test4/enviratron/d3/1668024796876146517.jpeg,1668024796.9584224,-179.0421659591584,-0.5895642683601106,55.42301067444552,4.25,42.01355092666667,-93.767205225,339.731,4,2022-11-09-14-13-16-958,
/media/phenobot3/Extreme SSD/under-canopy-images/Test4/enviratron/d3/1668024797275468420.jpeg,1668024797.3493423,-179.91579000622744,0.4605975321575144,53.42602245765735,5.25,42.01354796333333,-93.76720583333334,339.748,4,2022-11-09-14-13-17-349,
/media/phenobot3/Extreme SSD/under-canopy-images/Test4/enviratron/d3/1668024797640326526.jpeg,1668024797.7192855,178.7789406283498,-0.4531280258763174,54.24982740964607,3.687,42.01354525,-93.76720418333333,339.734,4,2022-11-09-14-13-17-719,
/media/phenobot3/Extreme SSD/under-canopy-images/Test4/enviratron/d3/1668024798055260828.jpeg,1668024798.114465,179.8187628031832,-0.39214966643500365,57.64929685668559,4.875,42.01354211666666,-93.76720458333334,339.735,4,2022-11-09-14-13-18-114,
/media/phenobot3/Extreme SSD/under-canopy-images/Test4/enviratron/d3/1668024798419625174.jpeg,1668024798.4992156,-179.65937007964212,0.3235985393860252,58.55001829618207,3.0,42.01353923666667,-93.767203475,339.741,4,2022-11-09-14-13-18-499,
/media/phenobot3/Extreme SSD/under-canopy-images/Test4/enviratron/d3/1668024798806295528.jpeg,1668024798.8711853,-179.50038976086796,-0.4244748759759531,58.30261185114927,4.0,42.013536306666666,-93.76720372,339.727,4,2022-11-09-14-13-18-871,
/media/phenobot3/Extreme SSD/under-canopy-images/Test4/enviratron/d3/1668024799175807683.jpeg,1668024799.258955,-179.46142275002128,-0.6601822045535284,56.16336947895482,5.563,42.0135336,-93.767204255,339.728,4,2022-11-09-14-13-19-259,
/media/phenobot3/Extreme SSD/under-canopy-images/Test4/enviratron/d3/1668024799581040300.jpeg,1668024799.6469564,-179.27044369343656,-0.13029463501278132,54.77712876062388,5.688,42.01353076833333,-93.76720401333333,339.729,4,2022-11-09-14-13-19-647,
/media/phenobot3/Extreme SSD/under-canopy-images/Test4/enviratron/d3/1668024799947263784.jpeg,1668024800.0293472,-177.9161631786947,-0.3585531248239732,54.240856952366855,4.563,42.013528038333334,-93.76720279833333,339.736,4,2022-11-09-14-13-20-294,
/media/phenobot3/Extreme SSD/under-canopy-images/Test4/enviratron/d3/1668024800345862742.jpeg,1668024800.4052763,-177.56550160833578,0.1983000052097477,54.007620344235505,6.25,42.013524458333336,-93.76720358666667,339.731,4,2022-11-09-14-13-20-405,
/media/phenobot3/Extreme SSD/under-canopy-images/Test4/enviratron/d3/1668024800713130201.jpeg,1668024800.7956305,-179.21081752835337,-0.029739839889687054,53.72593242323132,5.938,42.013521723333334,-93.767203375,339.723,4,2022-11-09-14-13-20-795,
/media/phenobot3/Extreme SSD/under-canopy-images/Test4/enviratron/d3/1668024801115520284.jpeg,1668024801.1786268,-179.96723524616252,0.3841981000663447,53.44857006721855,3.625,42.013518741666665,-93.76720187666666,339.728,4,2022-11-09-14-13-21-178,
/media/phenobot3/Extreme SSD/under-canopy-images/Test4/enviratron/d3/1668024801484322133.jpeg,1668024801.5643582,-179.17301508209104,0.21247898783173721,52.949687451441896,3.5,42.013516198333335,-93.76720147166667,339.717,4,2022-11-09-14-13-21-564,
/media/phenobot3/Extreme SSD/under-canopy-images/Test4/enviratron/d3/1668024801885538858.jpeg,1668024801.9509296,-178.11719220444905,0.4331193552039708,51.585602685585435,5.813,42.01351359666667,-93.76720241666666,339.717,4,2022-11-09-14-13-21-951,
/media/phenobot3/Extreme SSD/under-canopy-images/Test4/enviratron/d3/1668024802249990925.jpeg,1668024802.3273273,-178.6366616770755,0.8112505590778899,51.47455243835312,5.688,42.013510538333335,-93.76720241166667,339.719,4,2022-11-09-14-13-22-327,
/media/phenobot3/Extreme SSD/under-canopy-images/Test4/enviratron/d3/1668024802644133651.jpeg,1668024802.7111347,178.49159561968835,0.9112492863257879,49.99835405251003,4.25,42.013507106666665,-93.76720170833333,339.713,4,2022-11-09-14-13-22-711,
/media/phenobot3/Extreme SSD/under-canopy-images/Test4/enviratron/d3/1668024803010958632.jpeg,1668024803.0892355,179.82095761222408,0.763701290209115,51.149833604313535,4.375,42.01350432833333,-93.76720147666667,339.705,4,2022-11-09-14-13-23-893,
/media/phenobot3/Extreme SSD/under-canopy-images/Test4/enviratron/d3/1668024803411818986.jpeg,1668024803.4720824,179.98897568494095,0.5413289667974119,58.572366886235436,5.313,42.01350118166667,-93.76720205166667,339.708,4,2022-11-09-14-13-23-472,
/media/phenobot3/Extreme SSD/under-canopy-images/Test4/enviratron/d3/1668024803778530926.jpeg,1668024803.864744,-179.5512430165272,0.20589929181772632,55.76330033811757,7.25,42.013498665,-93.76720331333334,339.696,4,2022-11-09-14-13-23-864,
/media/phenobot3/Extreme SSD/under-canopy-images/Test4/enviratron/d3/1668024804177626088.jpeg,1668024804.2432282,178.2059646235433,-0.0742562332886446,51.82049372015265,4.875,42.0134963,-93.767202095,339.699,4,2022-11-09-14-13-24-243,
/media/phenobot3/Extreme SSD/under-canopy-images/Test4/enviratron/d3/1668024804545866070.jpeg,1668024804.628456,-179.80368607446053,0.16009277184407608,50.598537382976666,4.75,42.013492883333335,-93.76720087666666,339.689,4,2022-11-09-14-13-24-628,
/media/phenobot3/Extreme SSD/under-canopy-images/Test4/enviratron/d3/1668024804952657881.jpeg,1668024805.0141735,-178.0052169691632,1.2386618701573235,48.721122205120494,9.687,42.01348938333334,-93.76720405333333,339.686,4,2022-11-09-14-13-25-142,
/media/phenobot3/Extreme SSD/under-canopy-images/Test4/enviratron/d3/1668024805320870172.jpeg,1668024805.407195,178.2049943225876,0.19191569328453056,49.06815542584207,4.563,42.01348652666667,-93.76720163666667,339.694,4,2022-11-09-14-13-25-407,
/media/phenobot3/Extreme SSD/under-canopy-images/Test4/enviratron/d3/1668024805724688943.jpeg,1668024805.795578,-178.32685603800184,-0.4636897849361292,55.53204827392555,9.062,42.01348348166667,-93.76720328833333,339.694,4,2022-11-09-14-13-25-795,
/media/phenobot3/Extreme SSD/under-canopy-images/Test4/enviratron/d3/1668024806094005013.jpeg,1668024806.1778016,-179.48186647180026,-0.5600823107247412,57.38589949582182,7.75,42.01348017833333,-93.76720374333334,339.691,4,2022-11-09-14-13-26-177,
/media/phenobot3/Extreme SSD/under-canopy-images/Test4/enviratron/d3/1668024806492498829.jpeg,1668024806.5632408,178.7387483932238,0.06204255413122598,55.46245983574497,3.0,42.01347658,-93.767200625,339.678,4,2022-11-09-14-13-26-563,
/media/phenobot3/Extreme SSD/under-canopy-images/Test4/enviratron/d3/1668024806862036786.jpeg,1668024806.9426568,178.95460513862645,0.37418564935336146,55.23086997578951,5.938,42.013473753333336,-93.76720241666666,339.685,4,2022-11-09-14-13-26-942,
/media/phenobot3/Extreme SSD/under-canopy-images/Test4/enviratron/d3/1668024807265323766.jpeg,1668024807.3331895,177.06044900917306,-0.31531876343508825,54.212104386637535,2.937,42.01346999,-93.76720063666667,339.685,4,2022-11-09-14-13-27-333,
/media/phenobot3/Extreme SSD/under-canopy-images/Test4/enviratron/d3/1668024807632744822.jpeg,1668024807.7139578,178.93866560947296,0.4100159485798126,53.395796524564595,2.75,42.01346643666667,-93.767199815,339.671,4,2022-11-09-14-13-27-714,
/media/phenobot3/Extreme SSD/under-canopy-images/Test4/enviratron/d3/1668024808031339447.jpeg,1668024808.0928323,179.21216081293173,1.6875444899055787,50.9408103898719,6.125,42.01346236333333,-93.76720182,339.68,4,2022-11-09-14-13-28-929,
/media/phenobot3/Extreme SSD/under-canopy-images/Test4/enviratron/d3/1668024808399513654.jpeg,1668024808.4879527,-179.3022899833935,0.553837274122736,50.19236007537981,5.563,42.013459653333335,-93.76720112666666,339.678,4,2022-11-09-14-13-28-488,
/media/phenobot3/Extreme SSD/under-canopy-images/Test4/enviratron/d3/1668024808805225827.jpeg,1668024808.8733997,179.00288150628535,-0.11894147628673403,50.957614364397905,5.625,42.01345668166667,-93.76720134333334,339.659,4,2022-11-09-14-13-28-873,
/media/phenobot3/Extreme SSD/under-canopy-images/Test4/enviratron/d3/1668024809173246617.jpeg,1668024809.2534013,177.66668933155643,0.20641172700362223,59.023568687517304,1.75,42.01345421,-93.76719993,339.648,4,2022-11-09-14-13-29-253,
/media/phenobot3/Extreme SSD/under-canopy-images/Test4/enviratron/d3/1668024809574473063.jpeg,1668024809.6346254,179.53807274618103,1.137895896413538,70.96965944382504,7.0,42.01345018166667,-93.76720188,339.661,4,2022-11-09-14-13-29-634,
/media/phenobot3/Extreme SSD/under-canopy-images/Test4/enviratron/d3/1668024809941529361.jpeg,1668024810.033848,179.6963279895802,0.5037800616690156,60.61625742466564,7.0,42.01344748166667,-93.767202565,339.661,4,2022-11-09-14-13-30-339,
/media/phenobot3/Extreme SSD/under-canopy-images/Test4/enviratron/d3/1668024810348518341.jpeg,1668024810.408172,-179.01518754807267,0.27012868301585136,57.76293994843754,4.813,42.01344451666667,-93.76719983333334,339.652,4,2022-11-09-14-13-30-408,
/media/phenobot3/Extreme SSD/under-canopy-images/Test4/enviratron/d3/1668024810718449447.jpeg,1668024810.8082645,-179.76676723526055,1.0652085474085893,57.691466263212355,6.938,42.01344049,-93.76720106833334,339.653,4,2022-11-09-14-13-30-808,
/media/phenobot3/Extreme SSD/under-canopy-images/Test4/enviratron/d3/1668024811125479743.jpeg,1668024811.1907444,-178.91135972371012,0.7813488056476654,56.13272165462158,7.188,42.01343713833333,-93.76720040166667,339.648,4,2022-11-09-14-13-31-190,
/media/phenobot3/Extreme SSD/under-canopy-images/Test4/enviratron/d3/1668024811494173987.jpeg,1668024811.580142,-178.79829377889746,1.2477990507120382,55.91206848461918,9.375,42.01343404333333,-93.76720128666666,339.641,4,2022-11-09-14-13-31-580,
/media/phenobot3/Extreme SSD/under-canopy-images/Test4/enviratron/d3/1668024811899295139.jpeg,1668024811.963255,-179.3013173826034,0.9210446922064363,55.980979046550836,4.875,42.01343118166667,-93.76719896,339.641,4,2022-11-09-14-13-31-963,
/media/phenobot3/Extreme SSD/under-canopy-images/Test4/enviratron/d3/1668024812268574490.jpeg,1668024812.3483055,-177.02758995456333,0.7808459505349848,55.96619343611765,9.312,42.01342774333333,-93.767200155,339.642,4,2022-11-09-14-13-32-348,
/media/phenobot3/Extreme SSD/under-canopy-images/Test4/enviratron/d3/1668024812670384370.jpeg,1668024812.7369616,-178.78632921057473,0.6811276814714079,56.64916159388579,10.187,42.013424645,-93.76720217,339.627,4,2022-11-09-14-13-32-737,
/media/phenobot3/Extreme SSD/under-canopy-images/Test4/enviratron/d3/1668024813040825525.jpeg,1668024813.1298952,-179.56364184071182,0.8057424951062676,59.96798078409943,5.25,42.013421576666666,-93.76719784833334,339.625,4,2022-11-09-14-13-33-129,
/media/phenobot3/Extreme SSD/under-canopy-images/Test4/enviratron/d3/1668024813444520070.jpeg,1668024813.5072243,-175.80694119434182,0.17989827513185816,56.001633825381546,10.312,42.013418173333335,-93.76720041333333,339.628,4,2022-11-09-14-13-33-507,
/media/phenobot3/Extreme SSD/under-canopy-images/Test4/enviratron/d3/1668024813815663860.jpeg,1668024813.893132,-179.57450014883995,0.3054700757078686,53.61847349527998,5.75,42.013415093333336,-93.76719813833333,339.614,4,2022-11-09-14-13-33-893,
/media/phenobot3/Extreme SSD/under-canopy-images/Test4/enviratron/d3/1668024814219060075.jpeg,1668024814.280776,-179.82223996812507,0.18874232990232506,54.12879602382623,6.063,42.01341207,-93.76719796666667,339.616,4,2022-11-09-14-13-34-280,
/media/phenobot3/Extreme SSD/under-canopy-images/Test4/enviratron/d3/1668024814586686346.jpeg,1668024814.6661394,179.94555134483497,1.118981095065772,54.91386608688181,7.688,42.013408505,-93.767198815,339.618,4,2022-11-09-14-13-34-666,
/media/phenobot3/Extreme SSD/under-canopy-images/Test4/enviratron/d3/1668024814987108897.jpeg,1668024815.0525675,-177.55620767183723,0.9379857347390048,53.33578734669255,7.625,42.013406741666664,-93.76719834333333,339.605,4,2022-11-09-14-13-35-526,
/media/phenobot3/Extreme SSD/under-canopy-images/Test4/enviratron/d3/1668024815358208591.jpeg,1668024815.437064,-175.6081428826215,0.32262904375736684,54.45352788879439,13.5,42.01340397166667,-93.76720157666666,339.598,4,2022-11-09-14-13-35-437,
/media/phenobot3/Extreme SSD/under-canopy-images/Test4/enviratron/d3/1668024815763879012.jpeg,1668024815.8258488,179.2326942982102,0.3363681058979436,55.27451700195905,7.813,42.013400526666665,-93.76719979333333,339.607,4,2022-11-09-14-13-35-825,
/media/phenobot3/Extreme SSD/under-canopy-images/Test4/enviratron/d3/1668024816136064610.jpeg,1668024816.2118275,-178.45063066481836,1.104014066900991,57.05642775943459,6.813,42.013396891666666,-93.76719770333334,339.59,4,2022-11-09-14-13-36-211,
/media/phenobot3/Extreme SSD/under-canopy-images/Test4/enviratron/d3/1668024816536099183.jpeg,1668024816.5989928,-176.67679054734737,1.3592601353508387,55.61837985630613,12.937,42.01339402,-93.76720211166666,339.587,4,2022-11-09-14-13-36-599,
/media/phenobot3/Extreme SSD/under-canopy-images/Test4/enviratron/d3/1668024816904556621.jpeg,1668024816.982526,-177.37543097575391,1.148176147620982,54.46215097170201,7.375,42.013390881666666,-93.76719828333333,339.592,4,2022-11-09-14-13-36-982,
/media/phenobot3/Extreme SSD/under-canopy-images/Test4/enviratron/d3/1668024817312069081.jpeg,1668024817.3701756,-179.06538520985816,1.3658429624126118,54.57734340229273,10.437,42.013387681666664,-93.76720067666666,339.584,4,2022-11-09-14-13-37-370,
