image_location,TimeStamp,Roll,Pitch,Yaw,Mast Roll,Lat,Lon,Alt,GPS Qual,DateTime
/media/phenobot3/Extreme SSD/under-canopy-images/Test4/enviratron/d1/1668024307278213951.jpeg,1668024307.3840683,-178.20985292678253,1.5422626255240561,43.67431481220176,-6.313,42.01408680833333,-93.76706364166667,340.142,4,2022-11-09-14-05-07-384,
/media/phenobot3/Extreme SSD/under-canopy-images/Test4/enviratron/d1/1668024307650646162.jpeg,1668024307.736758,-178.2097384860845,1.5421988166136695,43.67427219820372,-6.375,42.014086793333334,-93.767063545,340.139,4,2022-11-09-14-05-07-736,
/media/phenobot3/Extreme SSD/under-canopy-images/Test4/enviratron/d1/1668024308023243370.jpeg,1668024308.096424,-178.21001542657058,1.5420378287221572,43.67461633052446,-6.313,42.014086765,-93.767063595,340.141,4,2022-11-09-14-05-08-965,
/media/phenobot3/Extreme SSD/under-canopy-images/Test4/enviratron/d1/1668024308402941275.jpeg,1668024308.4916394,-178.2102477176976,1.5418854362053491,43.67491486699511,-6.313,42.01408675333333,-93.76706362,340.14,4,2022-11-09-14-05-08-491,
/media/phenobot3/Extreme SSD/under-canopy-images/Test4/enviratron/d1/1668024308775357446.jpeg,1668024308.845479,-178.21031868160807,1.5257543074178972,43.67696922389635,-6.313,42.014086766666665,-93.76706356666666,340.141,4,2022-11-09-14-05-08-845,
/media/phenobot3/Extreme SSD/under-canopy-images/Test4/enviratron/d1/1668024309139795954.jpeg,1668024309.2241013,-178.20713775764793,1.5255912442418211,43.68022266987998,-6.25,42.01408673833333,-93.76706360166666,340.141,4,2022-11-09-14-05-09-224,
/media/phenobot3/Extreme SSD/under-canopy-images/Test4/enviratron/d1/1668024309505087708.jpeg,1668024309.584044,-178.2118937504716,1.526084557784505,43.684095648948855,-6.25,42.01408675333333,-93.76706359666667,340.143,4,2022-11-09-14-05-09-584,
/media/phenobot3/Extreme SSD/under-canopy-images/Test4/enviratron/d1/1668024309870991715.jpeg,1668024309.9615176,-178.22279064258856,1.5215558868613137,43.68589499768268,-6.375,42.014086858333336,-93.76706362333333,340.144,4,2022-11-09-14-05-09-961,
/media/phenobot3/Extreme SSD/under-canopy-images/Test4/enviratron/d1/1668024310239217226.jpeg,1668024310.311378,-178.2198671453472,1.515760184625326,43.68748197512886,-6.375,42.01408683,-93.76706358333334,340.145,4,2022-11-09-14-05-10-311,
/media/phenobot3/Extreme SSD/under-canopy-images/Test4/enviratron/d1/1668024310607383668.jpeg,1668024310.6948235,-178.21247120281404,1.5124731973644867,43.693129811426004,-6.313,42.014086825,-93.76706365,340.143,4,2022-11-09-14-05-10-694,
/media/phenobot3/Extreme SSD/under-canopy-images/Test4/enviratron/d1/1668024310974396790.jpeg,1668024311.0572894,-178.21015496295286,1.5151226809634433,43.69445049679841,-6.313,42.01408686166667,-93.76706365166666,340.142,4,2022-11-09-14-05-11-573,
/media/phenobot3/Extreme SSD/under-canopy-images/Test4/enviratron/d1/1668024311341093171.jpeg,1668024311.4311635,-178.21014421352382,1.51540244631515,43.694232847448845,-6.375,42.01408684,-93.76706363166667,340.14,4,2022-11-09-14-05-11-431,
/media/phenobot3/Extreme SSD/under-canopy-images/Test4/enviratron/d1/1668024311709402067.jpeg,1668024311.7848723,-178.2102525363537,1.5153632096392158,43.69434125175186,-6.375,42.014086803333335,-93.76706362,340.14,4,2022-11-09-14-05-11-784,
/media/phenobot3/Extreme SSD/under-canopy-images/Test4/enviratron/d1/1668024312077309729.jpeg,1668024312.1670396,-178.2106209700444,1.5153240867404791,43.69463473699098,-6.313,42.014086791666664,-93.76706363833334,340.141,4,2022-11-09-14-05-12-167,
/media/phenobot3/Extreme SSD/under-canopy-images/Test4/enviratron/d1/1668024312443683466.jpeg,1668024312.5221083,-178.21052371298236,1.5152702457780547,43.694607253154494,-6.313,42.01408680833333,-93.767063635,340.141,4,2022-11-09-14-05-12-522,
/media/phenobot3/Extreme SSD/under-canopy-images/Test4/enviratron/d1/1668024312810638071.jpeg,1668024312.8968549,-178.25926774521008,0.873382119004411,43.795772051617675,-6.25,42.01408679,-93.76706363666666,340.139,4,2022-11-09-14-05-12-896,
/media/phenobot3/Extreme SSD/under-canopy-images/Test4/enviratron/d1/1668024313178728558.jpeg,1668024313.253661,-178.8501195807312,0.6011005306182615,43.843841464988806,-6.375,42.01408576666667,-93.76706338166667,340.146,4,2022-11-09-14-05-13-253,
/media/phenobot3/Extreme SSD/under-canopy-images/Test4/enviratron/d1/1668024313545987450.jpeg,1668024313.6327155,-179.7783570508747,0.26001040050154234,43.98733273299954,-7.75,42.01408472333333,-93.76706270666666,340.141,4,2022-11-09-14-05-13-632,
/media/phenobot3/Extreme SSD/under-canopy-images/Test4/enviratron/d1/1668024313914447814.jpeg,1668024313.9994075,179.18107534240292,0.10425068822003768,44.22913254556487,-8.5,42.014083361666664,-93.76706231,340.142,4,2022-11-09-14-05-13-999,
/media/phenobot3/Extreme SSD/under-canopy-images/Test4/enviratron/d1/1668024314280824663.jpeg,1668024314.3629224,178.64111417350313,-0.440009008184741,44.721674879057765,-8.0,42.01408240833333,-93.76706239833334,340.145,4,2022-11-09-14-05-14-363,
/media/phenobot3/Extreme SSD/under-canopy-images/Test4/enviratron/d1/1668024314649316846.jpeg,1668024314.724532,179.41295928446038,-0.2616393142349391,46.08591938832434,-9.937,42.01408086833333,-93.76706152666667,340.128,4,2022-11-09-14-05-14-724,
/media/phenobot3/Extreme SSD/under-canopy-images/Test4/enviratron/d1/1668024315018679127.jpeg,1668024315.103934,179.5323050655219,-0.6001534172362976,46.959490140522256,-6.938,42.01407934,-93.76706304333334,340.134,4,2022-11-09-14-05-15-104,
/media/phenobot3/Extreme SSD/under-canopy-images/Test4/enviratron/d1/1668024315389495395.jpeg,1668024315.4708123,179.07932179742045,0.209461148294871,44.71993440498334,-7.875,42.014076743333334,-93.76706220333334,340.128,4,2022-11-09-14-05-15-470,
/media/phenobot3/Extreme SSD/under-canopy-images/Test4/enviratron/d1/1668024315758552284.jpeg,1668024315.8590462,179.46249592013473,0.06724789381188334,44.312705910028185,-9.0,42.014075505,-93.76706165,340.124,4,2022-11-09-14-05-15-859,
/media/phenobot3/Extreme SSD/under-canopy-images/Test4/enviratron/d1/1668024316127787917.jpeg,1668024316.2079747,-178.95336049779854,0.22054149868462278,43.99894348188687,-6.375,42.01407322166666,-93.76706283333333,340.139,4,2022-11-09-14-05-16-208,
/media/phenobot3/Extreme SSD/under-canopy-images/Test4/enviratron/d1/1668024316498335621.jpeg,1668024316.5833223,-179.64460234573727,0.32187825529752456,43.192548724641426,-8.125,42.014070975,-93.76706209,340.132,4,2022-11-09-14-05-16-583,
/media/phenobot3/Extreme SSD/under-canopy-images/Test4/enviratron/d1/1668024316869526147.jpeg,1668024316.9472084,-178.98393284978903,0.23654438924247306,43.536127634483584,-7.5,42.01406931166667,-93.76706231166666,340.13,4,2022-11-09-14-05-16-947,
/media/phenobot3/Extreme SSD/under-canopy-images/Test4/enviratron/d1/1668024317239334423.jpeg,1668024317.3298326,-179.0673235975544,-0.013371251641315082,43.135489618037965,-7.563,42.01406690666666,-93.76706220333334,340.122,4,2022-11-09-14-05-17-329,
/media/phenobot3/Extreme SSD/under-canopy-images/Test4/enviratron/d1/1668024317629278774.jpeg,1668024317.691345,-179.43110332927924,0.3291080098899856,42.784228741422105,-5.625,42.0140642,-93.767063405,340.123,4,2022-11-09-14-05-17-691,
/media/phenobot3/Extreme SSD/under-canopy-images/Test4/enviratron/d1/1668024318002243411.jpeg,1668024318.0795069,-179.70851323421297,-0.07536299561187615,42.71916629473082,-7.5,42.01406124333333,-93.76706236,340.125,4,2022-11-09-14-05-18-795,
/media/phenobot3/Extreme SSD/under-canopy-images/Test4/enviratron/d1/1668024318393183738.jpeg,1668024318.4585805,-178.66178239730965,-0.18718784231463015,42.12399691051375,-6.688,42.01405865666667,-93.76706288,340.117,4,2022-11-09-14-05-18-458,
/media/phenobot3/Extreme SSD/under-canopy-images/Test4/enviratron/d1/1668024318762331462.jpeg,1668024318.8444543,-177.98364269492723,-0.05040710815556354,41.27226624933299,-5.875,42.014056528333334,-93.767063015,340.112,4,2022-11-09-14-05-18-844,
/media/phenobot3/Extreme SSD/under-canopy-images/Test4/enviratron/d1/1668024319148734700.jpeg,1668024319.2105045,-179.11178440763635,0.11436391739033018,40.481694205487734,-5.5,42.014053725,-93.76706365,340.11,4,2022-11-09-14-05-19-210,
/media/phenobot3/Extreme SSD/under-canopy-images/Test4/enviratron/d1/1668024319518561901.jpeg,1668024319.5969274,-179.464843090028,0.3960832921473624,40.514960445041034,-6.0,42.01405071333333,-93.76706352166667,340.113,4,2022-11-09-14-05-19-597,
/media/phenobot3/Extreme SSD/under-canopy-images/Test4/enviratron/d1/1668024319905298981.jpeg,1668024319.9694536,-178.14619277699475,-0.1732492805414084,40.569916387780054,-5.125,42.014047948333335,-93.76706411,340.114,4,2022-11-09-14-05-19-969,
/media/phenobot3/Extreme SSD/under-canopy-images/Test4/enviratron/d1/1668024320271062347.jpeg,1668024320.3714352,-176.98255136554138,-0.6943414465507355,43.43403077704289,-5.25,42.01404514,-93.76706425833333,340.113,4,2022-11-09-14-05-20-371,
/media/phenobot3/Extreme SSD/under-canopy-images/Test4/enviratron/d1/1668024320675996801.jpeg,1668024320.7368166,-178.1302546751317,-0.2942344919589309,43.822459673275866,-4.125,42.01404295,-93.76706510333334,340.114,4,2022-11-09-14-05-20-736,
/media/phenobot3/Extreme SSD/under-canopy-images/Test4/enviratron/d1/1668024321044896699.jpeg,1668024321.1351595,-177.3644327330755,0.05792504653871454,43.791294558034664,-3.687,42.01403977,-93.76706536666667,340.103,4,2022-11-09-14-05-21-135,
/media/phenobot3/Extreme SSD/under-canopy-images/Test4/enviratron/d1/1668024321449569850.jpeg,1668024321.511934,-177.31362984432275,-0.18914727885963603,44.241046277199764,-5.0,42.014036745,-93.76706476833333,340.109,4,2022-11-09-14-05-21-512,
/media/phenobot3/Extreme SSD/under-canopy-images/Test4/enviratron/d1/1668024321819212542.jpeg,1668024321.903707,-176.14636428432115,0.32745587413445987,45.59385585930887,-3.0,42.01403322,-93.76706577666667,340.114,4,2022-11-09-14-05-21-903,
/media/phenobot3/Extreme SSD/under-canopy-images/Test4/enviratron/d1/1668024322222835261.jpeg,1668024322.287902,-176.7792965456597,-0.7258179035403256,46.955976791187766,-2.812,42.014030803333334,-93.76706595166667,340.098,4,2022-11-09-14-05-22-287,
/media/phenobot3/Extreme SSD/under-canopy-images/Test4/enviratron/d1/1668024322593098016.jpeg,1668024322.6839216,-175.7743516723013,-0.7127972052800076,47.68917794114371,-2.687,42.014027666666664,-93.76706572666667,340.103,4,2022-11-09-14-05-22-684,
/media/phenobot3/Extreme SSD/under-canopy-images/Test4/enviratron/d1/1668024322993774355.jpeg,1668024323.0617456,-176.04606826832722,-0.3595535270699767,45.3189539047508,-2.625,42.014024856666666,-93.76706558166667,340.1,4,2022-11-09-14-05-23-618,
/media/phenobot3/Extreme SSD/under-canopy-images/Test4/enviratron/d1/1668024323362609528.jpeg,1668024323.444493,-175.9992038505902,-0.3852382458255517,44.67755347459898,-3.0,42.014022385,-93.76706516333333,340.101,4,2022-11-09-14-05-23-444,
/media/phenobot3/Extreme SSD/under-canopy-images/Test4/enviratron/d1/1668024323745847337.jpeg,1668024323.8072457,-175.89624547783876,-0.2307475494064984,43.39138599537718,-1.625,42.0140194,-93.767065825,340.097,4,2022-11-09-14-05-23-807,
/media/phenobot3/Extreme SSD/under-canopy-images/Test4/enviratron/d1/1668024324114622067.jpeg,1668024324.1981282,-175.37667381656092,-0.4887729814494032,42.15795737162911,-3.312,42.01401635,-93.76706475666667,340.1,4,2022-11-09-14-05-24-198,
/media/phenobot3/Extreme SSD/under-canopy-images/Test4/enviratron/d1/1668024324498549969.jpeg,1668024324.564935,-176.02170275081306,-0.24830135141468798,41.32169573218001,-2.875,42.014013186666666,-93.76706495666667,340.104,4,2022-11-09-14-05-24-565,
/media/phenobot3/Extreme SSD/under-canopy-images/Test4/enviratron/d1/1668024324867418547.jpeg,1668024324.9568517,-176.51964918674017,-0.2514696519769224,42.14343037650847,-4.063,42.01401008166667,-93.767064385,340.108,4,2022-11-09-14-05-24-956,
/media/phenobot3/Extreme SSD/under-canopy-images/Test4/enviratron/d1/1668024325273069633.jpeg,1668024325.336877,-177.61125277704357,0.4311185635760368,42.22666114106602,-3.375,42.01400773,-93.76706485666666,340.108,4,2022-11-09-14-05-25-336,
/media/phenobot3/Extreme SSD/under-canopy-images/Test4/enviratron/d1/1668024325641452598.jpeg,1668024325.7265708,-177.88255301937775,-0.1858826595948093,42.70229962020865,-6.0,42.01400462,-93.76706355,340.098,4,2022-11-09-14-05-25-726,
/media/phenobot3/Extreme SSD/under-canopy-images/Test4/enviratron/d1/1668024326040977858.jpeg,1668024326.1050105,-179.1462830680187,-0.24045880560397417,42.68021790978893,-5.438,42.014001425,-93.76706368833334,340.094,4,2022-11-09-14-05-26-105,
/media/phenobot3/Extreme SSD/under-canopy-images/Test4/enviratron/d1/1668024326407398791.jpeg,1668024326.4919727,-177.96964013153786,-0.3497576728344544,43.84733827099538,-4.875,42.013998271666665,-93.76706407166667,340.094,4,2022-11-09-14-05-26-492,
/media/phenobot3/Extreme SSD/under-canopy-images/Test4/enviratron/d1/1668024326791658330.jpeg,1668024326.8563564,-177.54084110654276,-0.5728125874927186,44.37595209623037,-5.0,42.013995125,-93.76706405166667,340.102,4,2022-11-09-14-05-26-856,
/media/phenobot3/Extreme SSD/under-canopy-images/Test4/enviratron/d1/1668024327158731430.jpeg,1668024327.2432199,-177.79510018892788,-0.6694082588182809,46.53590422322134,-4.625,42.01399324,-93.76706416666667,340.101,4,2022-11-09-14-05-27-243,
/media/phenobot3/Extreme SSD/under-canopy-images/Test4/enviratron/d1/1668024327542894696.jpeg,1668024327.6075044,-178.79392283360193,-0.38322280880995396,48.28104677727133,-5.625,42.013990326666665,-93.7670636,340.098,4,2022-11-09-14-05-27-607,
/media/phenobot3/Extreme SSD/under-canopy-images/Test4/enviratron/d1/1668024327907575903.jpeg,1668024327.9943924,-177.08654592324254,-0.3101884331072705,48.53098369132578,-4.813,42.01398708333333,-93.76706380666667,340.098,4,2022-11-09-14-05-27-994,
/media/phenobot3/Extreme SSD/under-canopy-images/Test4/enviratron/d1/1668024328296501825.jpeg,1668024328.3608205,-176.8289877212426,-0.6090192005518223,46.28494942767568,-3.187,42.013984193333336,-93.76706452333333,340.091,4,2022-11-09-14-05-28-360,
/media/phenobot3/Extreme SSD/under-canopy-images/Test4/enviratron/d1/1668024328666869483.jpeg,1668024328.762979,-178.18881244896977,-0.6302554144359747,46.290663190219654,-5.25,42.01398104333333,-93.76706313333334,340.095,4,2022-11-09-14-05-28-763,
/media/phenobot3/Extreme SSD/under-canopy-images/Test4/enviratron/d1/1668024329052258361.jpeg,1668024329.1187193,-179.04651816144195,-0.5171790040200507,45.79193824726866,-5.5,42.0139787,-93.767062825,340.097,4,2022-11-09-14-05-29-118,
/media/phenobot3/Extreme SSD/under-canopy-images/Test4/enviratron/d1/1668024329422904922.jpeg,1668024329.5096724,-178.7628376033158,-0.5005321287303347,45.613586788678376,-6.25,42.01397569,-93.76706229166666,340.097,4,2022-11-09-14-05-29-509,
/media/phenobot3/Extreme SSD/under-canopy-images/Test4/enviratron/d1/1668024329810376175.jpeg,1668024329.8717163,-178.8478892225913,-0.42038479549474334,42.3432556140795,-6.438,42.013972715,-93.76706176666667,340.098,4,2022-11-09-14-05-29-871,
/media/phenobot3/Extreme SSD/under-canopy-images/Test4/enviratron/d1/1668024330178578864.jpeg,1668024330.2729907,-177.4423827194751,-0.04517498623590941,40.59715693673621,-5.063,42.01397011833333,-93.767062135,340.102,4,2022-11-09-14-05-30-273,
/media/phenobot3/Extreme SSD/under-canopy-images/Test4/enviratron/d1/1668024330567893700.jpeg,1668024330.634963,-176.46734528940274,0.31954795067364583,39.95138988711368,-3.812,42.013966876666665,-93.767062895,340.103,4,2022-11-09-14-05-30-635,
/media/phenobot3/Extreme SSD/under-canopy-images/Test4/enviratron/d1/1668024330935444504.jpeg,1668024331.0306253,-177.0778992531699,0.2828346560397827,42.628123216176206,-2.562,42.013964093333335,-93.76706406666666,340.1,4,2022-11-09-14-05-31-307,
/media/phenobot3/Extreme SSD/under-canopy-images/Test4/enviratron/d1/1668024331320365100.jpeg,1668024331.3864374,-177.8551046233841,-0.21347141067905204,43.48537610535447,-4.625,42.013960925,-93.76706285666667,340.099,4,2022-11-09-14-05-31-386,
/media/phenobot3/Extreme SSD/under-canopy-images/Test4/enviratron/d1/1668024331688664421.jpeg,1668024331.776236,-177.1472359483228,-0.2658798822834464,44.42179839327258,-2.625,42.013957786666666,-93.76706415666666,340.097,4,2022-11-09-14-05-31-776,
/media/phenobot3/Extreme SSD/under-canopy-images/Test4/enviratron/d1/1668024332074594323.jpeg,1668024332.1432652,-177.91020120727546,-0.12397206830365742,44.14494800123144,-4.5,42.013955296666666,-93.767062985,340.102,4,2022-11-09-14-05-32-143,
/media/phenobot3/Extreme SSD/under-canopy-images/Test4/enviratron/d1/1668024332437962195.jpeg,1668024332.5227728,-177.90488417479733,-0.35162570047441016,43.321804420241136,-4.375,42.01395251666667,-93.76706291833334,340.093,4,2022-11-09-14-05-32-522,
/media/phenobot3/Extreme SSD/under-canopy-images/Test4/enviratron/d1/1668024332824146248.jpeg,1668024332.8931212,-177.78489639579965,0.04373728828173134,43.5438558706517,-4.625,42.01394935333333,-93.76706275,340.101,4,2022-11-09-14-05-32-893,
/media/phenobot3/Extreme SSD/under-canopy-images/Test4/enviratron/d1/1668024333190723635.jpeg,1668024333.2732196,-177.64595880308127,0.05149906621036404,42.64822225645823,-4.125,42.013946235,-93.76706302,340.095,4,2022-11-09-14-05-33-273,
/media/phenobot3/Extreme SSD/under-canopy-images/Test4/enviratron/d1/1668024333577854547.jpeg,1668024333.6438792,-176.53135057398802,-0.34007857237483585,42.36246655804294,-3.062,42.013943626666666,-93.76706343333333,340.089,4,2022-11-09-14-05-33-643,
/media/phenobot3/Extreme SSD/under-canopy-images/Test4/enviratron/d1/1668024333945011048.jpeg,1668024334.029859,-177.84548676395295,-0.034369765494184315,41.202224314371286,-4.625,42.013940403333336,-93.76706299833333,340.092,4,2022-11-09-14-05-34-299,
/media/phenobot3/Extreme SSD/under-canopy-images/Test4/enviratron/d1/1668024334329838738.jpeg,1668024334.3960257,-177.49510909371102,-0.10208870338948435,41.04642277192799,-4.0,42.013937121666665,-93.767063045,340.087,4,2022-11-09-14-05-34-396,
/media/phenobot3/Extreme SSD/under-canopy-images/Test4/enviratron/d1/1668024334699945419.jpeg,1668024334.7832944,-177.8653756987166,0.5197674087125362,41.75383820754015,-3.562,42.01393381,-93.76706366666667,340.094,4,2022-11-09-14-05-34-783,
/media/phenobot3/Extreme SSD/under-canopy-images/Test4/enviratron/d1/1668024335091297655.jpeg,1668024335.1586938,-177.34945975741334,-0.28673418733370376,43.248881663742615,-3.937,42.01393077833333,-93.76706352166667,340.081,4,2022-11-09-14-05-35-158,
/media/phenobot3/Extreme SSD/under-canopy-images/Test4/enviratron/d1/1668024335462999769.jpeg,1668024335.556974,-178.57819707968147,-0.02960421148538225,44.04570613714049,-4.188,42.01392862833333,-93.76706357,340.08,4,2022-11-09-14-05-35-557,
/media/phenobot3/Extreme SSD/under-canopy-images/Test4/enviratron/d1/1668024335852125545.jpeg,1668024335.9230182,-178.52417337967347,0.061181918474358256,45.36496794628897,-6.25,42.013925441666665,-93.76706239333333,340.079,4,2022-11-09-14-05-35-923,
/media/phenobot3/Extreme SSD/under-canopy-images/Test4/enviratron/d1/1668024336223340472.jpeg,1668024336.3031204,-178.66639857162585,0.26130929865066127,45.296830830268476,-3.812,42.013922173333334,-93.76706365333334,340.077,4,2022-11-09-14-05-36-303,
/media/phenobot3/Extreme SSD/under-canopy-images/Test4/enviratron/d1/1668024336612669618.jpeg,1668024336.675643,-177.77318519565753,-0.2432068351700303,44.32980901570531,-4.813,42.01391922166667,-93.76706292,340.082,4,2022-11-09-14-05-36-675,
/media/phenobot3/Extreme SSD/under-canopy-images/Test4/enviratron/d1/1668024336981286374.jpeg,1668024337.0599098,-177.8886982733539,-0.129286435338502,43.65804489291023,-3.562,42.01391661666667,-93.767063395,340.081,4,2022-11-09-14-05-37-599,
/media/phenobot3/Extreme SSD/under-canopy-images/Test4/enviratron/d1/1668024337368168706.jpeg,1668024337.433448,-177.071437744111,-0.674539896595806,43.23817131638747,-2.812,42.01391348,-93.767064015,340.079,4,2022-11-09-14-05-37-433,
/media/phenobot3/Extreme SSD/under-canopy-images/Test4/enviratron/d1/1668024337737848488.jpeg,1668024337.8173192,-178.5605775755188,0.047503659808716917,43.37427903362782,-4.063,42.013909875,-93.767063245,340.076,4,2022-11-09-14-05-37-817,
/media/phenobot3/Extreme SSD/under-canopy-images/Test4/enviratron/d1/1668024338128190977.jpeg,1668024338.190697,-178.63880184499672,-0.21424488604378011,42.61013652617234,-4.688,42.01390693333333,-93.767062775,340.082,4,2022-11-09-14-05-38-190,
/media/phenobot3/Extreme SSD/under-canopy-images/Test4/enviratron/d1/1668024338498512448.jpeg,1668024338.5837936,-177.0495154789838,-0.004016125996475806,42.30191623178501,-3.625,42.013903416666665,-93.76706324666667,340.081,4,2022-11-09-14-05-38-583,
/media/phenobot3/Extreme SSD/under-canopy-images/Test4/enviratron/d1/1668024338889870060.jpeg,1668024338.9558048,-176.93886260281886,-0.28217204873860535,41.0530806236281,-2.875,42.01390155666667,-93.76706365833333,340.074,4,2022-11-09-14-05-38-955,
/media/phenobot3/Extreme SSD/under-canopy-images/Test4/enviratron/d1/1668024339260710396.jpeg,1668024339.3453228,-176.41515950433592,-0.14309269516680587,39.619870507530024,-1.687,42.013898166666664,-93.76706455,340.068,4,2022-11-09-14-05-39-345,
/media/phenobot3/Extreme SSD/under-canopy-images/Test4/enviratron/d1/1668024339648952838.jpeg,1668024339.718825,179.76553231094263,-1.2038111618636809,39.98428717809822,-7.0,42.01389509166667,-93.76706206833333,340.076,4,2022-11-09-14-05-39-718,
/media/phenobot3/Extreme SSD/under-canopy-images/Test4/enviratron/d1/1668024340017926098.jpeg,1668024340.095061,179.97136260284842,-0.40648316229586023,40.31399626295779,-5.688,42.013891615,-93.76706227,340.076,4,2022-11-09-14-05-40-951,
/media/phenobot3/Extreme SSD/under-canopy-images/Test4/enviratron/d1/1668024340402403612.jpeg,1668024340.4673603,-178.42694201345162,0.04361467007193958,39.8744028054718,-6.063,42.013888235,-93.76706247666667,340.078,4,2022-11-09-14-05-40-467,
/media/phenobot3/Extreme SSD/under-canopy-images/Test4/enviratron/d1/1668024340773554988.jpeg,1668024340.859761,-178.91104035142726,0.22786378382571218,37.806463024843595,-5.313,42.013884811666664,-93.76706311666666,340.082,4,2022-11-09-14-05-40-859,
/media/phenobot3/Extreme SSD/under-canopy-images/Test4/enviratron/d1/1668024341156199057.jpeg,1668024341.2228596,-178.67285095145408,-0.43268763457131487,41.61137116610415,-5.938,42.013883121666666,-93.76706297666667,340.076,4,2022-11-09-14-05-41-222,
/media/phenobot3/Extreme SSD/under-canopy-images/Test4/enviratron/d1/1668024341525073781.jpeg,1668024341.6085212,179.3220569176819,-0.26130636185617045,44.44601091061946,-6.313,42.01387982833333,-93.76706321833333,340.074,4,2022-11-09-14-05-41-608,
/media/phenobot3/Extreme SSD/under-canopy-images/Test4/enviratron/d1/1668024341912948383.jpeg,1668024341.9749744,-178.28165055840887,-0.05338595324071927,44.6194953739228,-5.063,42.013876163333336,-93.76706384666667,340.069,4,2022-11-09-14-05-41-975,
/media/phenobot3/Extreme SSD/under-canopy-images/Test4/enviratron/d1/1668024342281411703.jpeg,1668024342.3673906,-178.9310340793404,0.08767375290995197,41.77760920161747,-4.75,42.013872893333335,-93.76706410833333,340.075,4,2022-11-09-14-05-42-367,
/media/phenobot3/Extreme SSD/under-canopy-images/Test4/enviratron/d1/1668024342667848598.jpeg,1668024342.7377563,179.94259417601845,0.010691824557109833,40.68564528349088,-8.0,42.013870493333336,-93.76706264333333,340.066,4,2022-11-09-14-05-42-737,
/media/phenobot3/Extreme SSD/under-canopy-images/Test4/enviratron/d1/1668024343036729480.jpeg,1668024343.1211777,-179.13785354129683,-0.04419188500937364,40.52711814822139,-6.25,42.01386712666667,-93.76706327166667,340.062,4,2022-11-09-14-05-43-121,
/media/phenobot3/Extreme SSD/under-canopy-images/Test4/enviratron/d1/1668024343423737684.jpeg,1668024343.4826221,-178.90482124346198,-0.2113010924366404,39.75023846390748,-5.438,42.01386401,-93.76706404833334,340.062,4,2022-11-09-14-05-43-482,
/media/phenobot3/Extreme SSD/under-canopy-images/Test4/enviratron/d1/1668024343787251405.jpeg,1668024343.875225,179.82440500363424,0.04609164687466752,38.292998251666006,-6.063,42.01386051666667,-93.76706399333334,340.066,4,2022-11-09-14-05-43-875,
/media/phenobot3/Extreme SSD/under-canopy-images/Test4/enviratron/d1/1668024344172820290.jpeg,1668024344.2443762,177.3730494017692,-0.6026327390100812,38.964161926762344,-8.812,42.01385825166667,-93.76706321833333,340.064,4,2022-11-09-14-05-44-244,
/media/phenobot3/Extreme SSD/under-canopy-images/Test4/enviratron/d1/1668024344542350793.jpeg,1668024344.628327,179.2084876576549,-0.7496252361360222,42.27581931132143,-6.438,42.01385492166666,-93.76706416166667,340.06,4,2022-11-09-14-05-44-628,
/media/phenobot3/Extreme SSD/under-canopy-images/Test4/enviratron/d1/1668024344932607082.jpeg,1668024344.9971921,178.92962394743827,-0.5258831245581319,45.72848099234702,-6.438,42.013851548333335,-93.76706486,340.063,4,2022-11-09-14-05-44-997,
/media/phenobot3/Extreme SSD/under-canopy-images/Test4/enviratron/d1/1668024345304746978.jpeg,1668024345.3863509,177.38997811427865,0.09003097662547946,49.68612794647444,-10.062,42.013848045,-93.76706261833333,340.055,4,2022-11-09-14-05-45-386,
/media/phenobot3/Extreme SSD/under-canopy-images/Test4/enviratron/d1/1668024345696010089.jpeg,1668024345.7600982,177.032195192633,-0.7979514646456659,46.83315273471739,-8.5,42.013844685,-93.76706322333334,340.067,4,2022-11-09-14-05-45-760,
/media/phenobot3/Extreme SSD/under-canopy-images/Test4/enviratron/d1/1668024346067149516.jpeg,1668024346.1577024,176.581327909725,-0.2632695415758651,45.21284768581194,-9.187,42.01384240666667,-93.76706219166667,340.053,4,2022-11-09-14-05-46-157,
/media/phenobot3/Extreme SSD/under-canopy-images/Test4/enviratron/d1/1668024346454909150.jpeg,1668024346.5161011,177.46403381000684,-0.3834478196771791,44.866470117497784,-10.125,42.013839303333334,-93.767061785,340.048,4,2022-11-09-14-05-46-516,
/media/phenobot3/Extreme SSD/under-canopy-images/Test4/enviratron/d1/1668024346823283830.jpeg,1668024346.9098217,176.40728726360817,-0.19164624480964587,43.91186849388889,-9.562,42.01383581,-93.767061895,340.058,4,2022-11-09-14-05-46-909,
/media/phenobot3/Extreme SSD/under-canopy-images/Test4/enviratron/d1/1668024347208928565.jpeg,1668024347.2775426,177.75929311932313,0.008034410802438012,42.480515076347174,-9.687,42.01383248333333,-93.76706160333333,340.051,4,2022-11-09-14-05-47-277,
/media/phenobot3/Extreme SSD/under-canopy-images/Test4/enviratron/d1/1668024347580598190.jpeg,1668024347.6723468,179.77997545672528,0.5147324714910865,40.533959665094216,-6.0,42.013828993333334,-93.76706369833333,340.068,4,2022-11-09-14-05-47-672,
/media/phenobot3/Extreme SSD/under-canopy-images/Test4/enviratron/d1/1668024347971023383.jpeg,1668024348.0315032,-177.47787847830392,-0.20284705927670152,38.28491328204403,-4.188,42.013826703333336,-93.76706460666666,340.068,4,2022-11-09-14-05-48-315,
/media/phenobot3/Extreme SSD/under-canopy-images/Test4/enviratron/d1/1668024348337599834.jpeg,1668024348.4230902,-178.94511045904738,-0.24670855426259272,39.78337833501008,-5.25,42.01382320333333,-93.76706488,340.064,4,2022-11-09-14-05-48-423,
/media/phenobot3/Extreme SSD/under-canopy-images/Test4/enviratron/d1/1668024348726342140.jpeg,1668024348.7899146,-178.83544304083208,-0.23105859286127134,45.290256273274785,-5.188,42.013819885,-93.767064875,340.05,4,2022-11-09-14-05-48-789,
/media/phenobot3/Extreme SSD/under-canopy-images/Test4/enviratron/d1/1668024349095560457.jpeg,1668024349.1769168,-179.47097887203924,0.10377901210795,43.659185526190115,-4.375,42.01381661666667,-93.767065455,340.056,4,2022-11-09-14-05-49-177,
/media/phenobot3/Extreme SSD/under-canopy-images/Test4/enviratron/d1/1668024349482022481.jpeg,1668024349.5513146,-179.75668018636605,-0.31452780253822266,42.38754060739717,-6.063,42.01381418,-93.76706432666667,340.051,4,2022-11-09-14-05-49-551,
/media/phenobot3/Extreme SSD/under-canopy-images/Test4/enviratron/d1/1668024349850785240.jpeg,1668024349.9384158,-178.86279503516573,-0.39638699864154614,44.28308466740373,-5.625,42.01381086166667,-93.76706461,340.049,4,2022-11-09-14-05-49-938,
/media/phenobot3/Extreme SSD/under-canopy-images/Test4/enviratron/d1/1668024350235501829.jpeg,1668024350.3028805,-177.7966014804084,0.08517794408582058,44.90790702755465,-2.75,42.01380734166667,-93.76706619,340.049,4,2022-11-09-14-05-50-302,
/media/phenobot3/Extreme SSD/under-canopy-images/Test4/enviratron/d1/1668024350607676021.jpeg,1668024350.690273,-179.66285531483734,0.40806435857625534,46.47599782415658,-5.688,42.01380377666667,-93.76706483,340.049,4,2022-11-09-14-05-50-690,
/media/phenobot3/Extreme SSD/under-canopy-images/Test4/enviratron/d1/1668024350995027637.jpeg,1668024351.0606577,-178.76684186491337,0.5393644674648005,46.675256635691724,-2.75,42.0138004,-93.767066455,340.048,4,2022-11-09-14-05-51-607,
/media/phenobot3/Extreme SSD/under-canopy-images/Test4/enviratron/d1/1668024351364772314.jpeg,1668024351.4558053,-179.0148235346062,-0.21974368479986772,44.44929830914919,-3.875,42.01379759333334,-93.76706555,340.036,4,2022-11-09-14-05-51-455,
/media/phenobot3/Extreme SSD/under-canopy-images/Test4/enviratron/d1/1668024351751356562.jpeg,1668024351.8201387,178.61671079418312,-0.2459736399143143,43.02239511840119,-6.438,42.013795488333336,-93.76706415,340.031,4,2022-11-09-14-05-51-820,
/media/phenobot3/Extreme SSD/under-canopy-images/Test4/enviratron/d1/1668024352120970155.jpeg,1668024352.2104557,179.63624117487254,0.3958414526590232,43.08683505885897,-6.563,42.01379216,-93.76706384333333,340.031,4,2022-11-09-14-05-52-210,
/media/phenobot3/Extreme SSD/under-canopy-images/Test4/enviratron/d1/1668024352507656598.jpeg,1668024352.5687242,-179.0393651745894,0.16317163056976666,42.31842229141549,-4.25,42.013788573333336,-93.76706493333333,340.034,4,2022-11-09-14-05-52-568,
/media/phenobot3/Extreme SSD/under-canopy-images/Test4/enviratron/d1/1668024352877239950.jpeg,1668024352.9572256,-178.38947144719555,0.3303762694118369,40.43895606968382,-5.625,42.013784835,-93.767064135,340.034,4,2022-11-09-14-05-52-957,
/media/phenobot3/Extreme SSD/under-canopy-images/Test4/enviratron/d1/1668024353259475598.jpeg,1668024353.3217332,179.84537336350485,0.12944767940514673,40.49901767235582,-5.375,42.013782315,-93.76706420833334,340.029,4,2022-11-09-14-05-53-321,
/media/phenobot3/Extreme SSD/under-canopy-images/Test4/enviratron/d1/1668024353627894393.jpeg,1668024353.7117646,-179.81610474704712,0.38049726687808594,41.13095738718298,-4.438,42.013778613333336,-93.76706527833333,340.022,4,2022-11-09-14-05-53-711,
/media/phenobot3/Extreme SSD/under-canopy-images/Test4/enviratron/d1/1668024354028850323.jpeg,1668024354.0957117,-179.46283100959312,0.1657015744116297,45.84206572330482,-5.625,42.01377503333333,-93.76706468166667,340.021,4,2022-11-09-14-05-54-958,
/media/phenobot3/Extreme SSD/under-canopy-images/Test4/enviratron/d1/1668024354401285245.jpeg,1668024354.4889266,-179.3909797286453,0.03811358556095913,45.477577055437266,-4.25,42.013771345,-93.76706537,340.016,4,2022-11-09-14-05-54-489,
/media/phenobot3/Extreme SSD/under-canopy-images/Test4/enviratron/d1/1668024354806674611.jpeg,1668024354.8761866,179.33782542582733,-0.12077127948193121,43.99573148732004,-6.625,42.013767885,-93.76706408333334,340.022,4,2022-11-09-14-05-54-876,
/media/phenobot3/Extreme SSD/under-canopy-images/Test4/enviratron/d1/1668024355177983580.jpeg,1668024355.272133,-178.94523612399357,-0.008630312266253127,43.26563201217292,-4.125,42.01376409833333,-93.76706530666667,340.019,4,2022-11-09-14-05-55-272,
/media/phenobot3/Extreme SSD/under-canopy-images/Test4/enviratron/d1/1668024355585886908.jpeg,1668024355.64868,-178.85587347025856,-0.04119222774669315,42.22471466150552,-4.188,42.013761425,-93.76706568333333,340.021,4,2022-11-09-14-05-55-648,
/media/phenobot3/Extreme SSD/under-canopy-images/Test4/enviratron/d1/1668024355954642809.jpeg,1668024356.0478806,-178.76954626818616,-0.6447546727422807,41.13210808188025,-5.688,42.013758171666666,-93.76706398,340.011,4,2022-11-09-14-05-56-479,
/media/phenobot3/Extreme SSD/under-canopy-images/Test4/enviratron/d1/1668024356353714889.jpeg,1668024356.4172482,-177.59300630086938,0.48390830368926346,39.77315262661095,-1.625,42.013753423333334,-93.76706678,340.014,4,2022-11-09-14-05-56-417,
/media/phenobot3/Extreme SSD/under-canopy-images/Test4/enviratron/d1/1668024356722006101.jpeg,1668024356.8061159,-178.21978160699217,0.7619807716165468,39.974435183022266,-3.0,42.013749983333334,-93.76706631,340.016,4,2022-11-09-14-05-56-806,
/media/phenobot3/Extreme SSD/under-canopy-images/Test4/enviratron/d1/1668024357125054334.jpeg,1668024357.1853755,-179.38642182581637,0.33732363455703657,43.965428112858476,-3.625,42.013746381666664,-93.767066245,340.005,4,2022-11-09-14-05-57-185,
/media/phenobot3/Extreme SSD/under-canopy-images/Test4/enviratron/d1/1668024357494045665.jpeg,1668024357.5813048,179.39276538867162,0.5965047003272196,46.1025954568134,-5.563,42.013743043333335,-93.767065235,340.01,4,2022-11-09-14-05-57-581,
/media/phenobot3/Extreme SSD/under-canopy-images/Test4/enviratron/d1/1668024357897896173.jpeg,1668024357.9593081,-178.91832562758674,0.6985812852414354,45.339694279233754,-4.0,42.01373919,-93.767065955,340.002,4,2022-11-09-14-05-57-959,
/media/phenobot3/Extreme SSD/under-canopy-images/Test4/enviratron/d1/1668024358267148526.jpeg,1668024358.35789,-178.66914098573318,1.1852405615931325,43.52526250679889,-4.813,42.013735096666665,-93.76706525166666,340.0,4,2022-11-09-14-05-58-357,
/media/phenobot3/Extreme SSD/under-canopy-images/Test4/enviratron/d1/1668024358664148467.jpeg,1668024358.7410207,-177.85849440335969,1.0481002861433624,42.858428063971175,-5.313,42.01373269,-93.76706466,339.988,4,2022-11-09-14-05-58-741,
/media/phenobot3/Extreme SSD/under-canopy-images/Test4/enviratron/d1/1668024359028826697.jpeg,1668024359.1157053,-176.9207027174753,-0.09000275936382454,42.3102105526514,-0.938,42.013728885,-93.76706737,339.973,4,2022-11-09-14-05-59-115,
/media/phenobot3/Extreme SSD/under-canopy-images/Test4/enviratron/d1/1668024359430215558.jpeg,1668024359.493557,-179.58107986994568,0.16900400741870525,42.15626336522171,-5.375,42.01372442666667,-93.76706500833333,339.973,4,2022-11-09-14-05-59-493,
/media/phenobot3/Extreme SSD/under-canopy-images/Test4/enviratron/d1/1668024359799844324.jpeg,1668024359.8913188,-177.35017333451077,0.5225042142573942,42.1046772238496,-2.875,42.01372046,-93.76706621333334,339.975,4,2022-11-09-14-05-59-891,
/media/phenobot3/Extreme SSD/under-canopy-images/Test4/enviratron/d1/1668024360200993521.jpeg,1668024360.270526,-177.27923593222704,0.7204595717986859,40.70309664280421,-0.938,42.01371691833333,-93.76706756166666,339.962,4,2022-11-09-14-06-00-270,
/media/phenobot3/Extreme SSD/under-canopy-images/Test4/enviratron/d1/1668024360571926122.jpeg,1668024360.6676233,-177.90296546339522,0.10078640361745173,41.8634994660845,-4.563,42.01371319166667,-93.76706568,339.963,4,2022-11-09-14-06-00-667,
/media/phenobot3/Extreme SSD/under-canopy-images/Test4/enviratron/d1/1668024360973084852.jpeg,1668024361.0423918,-178.07415000251498,0.500368235083239,43.007558520162505,-2.375,42.013709745,-93.76706690666667,339.962,4,2022-11-09-14-06-01-424,
/media/phenobot3/Extreme SSD/under-canopy-images/Test4/enviratron/d1/1668024361341533634.jpeg,1668024361.4302406,-177.76267661857153,-0.21947320551733676,43.676279286055404,-3.375,42.01370612666667,-93.76706662666666,339.958,4,2022-11-09-14-06-01-430,
/media/phenobot3/Extreme SSD/under-canopy-images/Test4/enviratron/d1/1668024361742661168.jpeg,1668024361.8030787,-179.69876598527222,0.27637412055086175,45.41352822598396,-3.625,42.013702035,-93.76706674666667,339.952,4,2022-11-09-14-06-01-803,
/media/phenobot3/Extreme SSD/under-canopy-images/Test4/enviratron/d1/1668024362112206164.jpeg,1668024362.2063344,-177.89398214234836,0.3922812548120536,49.336302825758075,-4.313,42.01369836,-93.76706567166667,339.947,4,2022-11-09-14-06-02-206,
/media/phenobot3/Extreme SSD/under-canopy-images/Test4/enviratron/d1/1668024362514619494.jpeg,1668024362.5764434,-176.01123613377285,0.12772409274894905,50.18270887056431,-0.25,42.013694171666664,-93.76706781333333,339.947,4,2022-11-09-14-06-02-576,
/media/phenobot3/Extreme SSD/under-canopy-images/Test4/enviratron/d1/1668024362883771082.jpeg,1668024362.97204,-178.3234447955637,0.06980235260634685,45.88289744465629,-4.188,42.01369035,-93.76706515,339.944,4,2022-11-09-14-06-02-972,
/media/phenobot3/Extreme SSD/under-canopy-images/Test4/enviratron/d1/1668024363289166321.jpeg,1668024363.3552635,-177.26949500583567,0.2272330919459231,44.93430953220416,-4.188,42.013687608333335,-93.76706481333333,339.94,4,2022-11-09-14-06-03-355,
/media/phenobot3/Extreme SSD/under-canopy-images/Test4/enviratron/d1/1668024363657442612.jpeg,1668024363.7616458,-176.78476966228527,0.04476802421194133,43.04712374090519,-1.625,42.013683725,-93.76706582,339.937,4,2022-11-09-14-06-03-761,
/media/phenobot3/Extreme SSD/under-canopy-images/Test4/enviratron/d1/1668024364057773544.jpeg,1668024364.1261077,-176.62404175163402,0.2858349015760476,42.02403537088763,-0.563,42.013679595,-93.76706652333333,339.929,4,2022-11-09-14-06-04-126,
/media/phenobot3/Extreme SSD/under-canopy-images/Test4/enviratron/d1/1668024364426166614.jpeg,1668024364.513546,-177.79725582859362,0.6596923097471168,41.47579676311771,-2.437,42.01367556333334,-93.76706572,339.923,4,2022-11-09-14-06-04-513,
/media/phenobot3/Extreme SSD/under-canopy-images/Test4/enviratron/d1/1668024364830080378.jpeg,1668024364.8950644,-177.1131755852134,0.28094065079819935,41.02041281455663,-3.5,42.01367171333333,-93.76706503333334,339.923,4,2022-11-09-14-06-04-895,
/media/phenobot3/Extreme SSD/under-canopy-images/Test4/enviratron/d1/1668024365199491186.jpeg,1668024365.2883255,-179.3828689024614,0.9215207740730985,40.24215563303525,-3.937,42.013667885,-93.76706503,339.921,4,2022-11-09-14-06-05-288,
/media/phenobot3/Extreme SSD/under-canopy-images/Test4/enviratron/d1/1668024365604921839.jpeg,1668024365.6668415,-179.46708963282077,0.3794796837126678,38.92454256371463,-4.75,42.01366382166667,-93.76706456833334,339.916,4,2022-11-09-14-06-05-666,
/media/phenobot3/Extreme SSD/under-canopy-images/Test4/enviratron/d1/1668024365974018825.jpeg,1668024366.0659637,-179.6931459872428,0.4411473913184702,38.663096391745945,-4.688,42.013659616666665,-93.767064835,339.907,4,2022-11-09-14-06-06-660,
/media/phenobot3/Extreme SSD/under-canopy-images/Test4/enviratron/d1/1668024366380099594.jpeg,1668024366.461893,177.8627304722665,0.12826584881184838,38.13362507559517,-6.875,42.013656886666666,-93.76706427333333,339.908,4,2022-11-09-14-06-06-461,
/media/phenobot3/Extreme SSD/under-canopy-images/Test4/enviratron/d1/1668024366751719690.jpeg,1668024366.8401124,-179.75749652483597,0.74494497566923,39.83404681189346,-7.25,42.01365315333334,-93.767063745,339.889,4,2022-11-09-14-06-06-840,
/media/phenobot3/Extreme SSD/under-canopy-images/Test4/enviratron/d1/1668024367153877696.jpeg,1668024367.2192323,-177.24197076247722,0.258409163002803,45.876487213969504,-0.25,42.013649375,-93.76706851333333,339.886,4,2022-11-09-14-06-07-219,
/media/phenobot3/Extreme SSD/under-canopy-images/Test4/enviratron/d1/1668024367518354749.jpeg,1668024367.6043866,179.6391404600912,1.3105674567008863,50.8872942350452,-8.125,42.013645346666664,-93.767064385,339.889,4,2022-11-09-14-06-07-604,
/media/phenobot3/Extreme SSD/under-canopy-images/Test4/enviratron/d1/1668024367919883635.jpeg,1668024367.983026,-179.0629206673121,0.5907914077569923,54.531676293341214,-1.687,42.01364145666667,-93.76706760833333,339.883,4,2022-11-09-14-06-07-983,
/media/phenobot3/Extreme SSD/under-canopy-images/Test4/enviratron/d1/1668024368289888529.jpeg,1668024368.3758624,179.76705265534534,0.916353682685025,47.72721257696638,-5.875,42.01363794,-93.76706451333334,339.883,4,2022-11-09-14-06-08-375,
/media/phenobot3/Extreme SSD/under-canopy-images/Test4/enviratron/d1/1668024368692871402.jpeg,1668024368.7550611,-179.4249406381104,0.24249136635825896,43.68886735166038,-5.75,42.01363371666667,-93.76706395166667,339.875,4,2022-11-09-14-06-08-755,
/media/phenobot3/Extreme SSD/under-canopy-images/Test4/enviratron/d1/1668024369064215934.jpeg,1668024369.1547668,179.77271950974335,-0.14813670069377,38.00229081078265,-4.313,42.01362955333333,-93.76706440166667,339.874,4,2022-11-09-14-06-09-154,
/media/phenobot3/Extreme SSD/under-canopy-images/Test4/enviratron/d1/1668024369475384783.jpeg,1668024369.5357864,-178.78146388882791,0.5806679478630554,39.510187880295156,-4.813,42.01362673166667,-93.76706369666667,339.873,4,2022-11-09-14-06-09-535,
/media/phenobot3/Extreme SSD/under-canopy-images/Test4/enviratron/d1/1668024369841749367.jpeg,1668024369.932482,-179.2322362799511,0.9326586100399753,39.48534270264517,-3.062,42.01362252333333,-93.76706546333334,339.865,4,2022-11-09-14-06-09-932,
/media/phenobot3/Extreme SSD/under-canopy-images/Test4/enviratron/d1/1668024370239703994.jpeg,1668024370.306094,-179.90795650076564,0.4056247518230451,39.6282330403731,-6.563,42.01361838166667,-93.76706363333334,339.852,4,2022-11-09-14-06-10-306,
/media/phenobot3/Extreme SSD/under-canopy-images/Test4/enviratron/d1/1668024370609911710.jpeg,1668024370.7009635,-179.67492116833924,0.15316196209204114,44.22894515279213,-4.625,42.01361444,-93.76706484833333,339.851,4,2022-11-09-14-06-10-701,
/media/phenobot3/Extreme SSD/under-canopy-images/Test4/enviratron/d1/1668024371009557952.jpeg,1668024371.074045,179.52508244478386,0.27977997679988,48.18241829499401,-5.0,42.013610645,-93.76706474333334,339.841,4,2022-11-09-14-06-11-741,
/media/phenobot3/Extreme SSD/under-canopy-images/Test4/enviratron/d1/1668024371379902496.jpeg,1668024371.4680336,178.8177208355242,0.3012576402155332,48.83901355292247,-4.813,42.013607523333334,-93.76706468333333,339.844,4,2022-11-09-14-06-11-468,
/media/phenobot3/Extreme SSD/under-canopy-images/Test4/enviratron/d1/1668024371783561585.jpeg,1668024371.8521101,-179.91334388266284,0.4531229423659724,46.37789580489887,-5.625,42.01360399,-93.76706359166667,339.835,4,2022-11-09-14-06-11-852,
/media/phenobot3/Extreme SSD/under-canopy-images/Test4/enviratron/d1/1668024372157211036.jpeg,1668024372.241868,-178.49739451327045,0.17795304057382072,44.29465033296407,-3.125,42.01360036333333,-93.76706459833333,339.833,4,2022-11-09-14-06-12-241,
/media/phenobot3/Extreme SSD/under-canopy-images/Test4/enviratron/d1/1668024372542844198.jpeg,1668024372.6029897,-179.27896399539515,0.8732378634229419,43.179953812520104,-4.313,42.01359647333334,-93.76706414,339.839,4,2022-11-09-14-06-12-603,
/media/phenobot3/Extreme SSD/under-canopy-images/Test4/enviratron/d1/1668024372913119628.jpeg,1668024372.994602,-179.31506688447092,0.42250355514906407,42.96361264531596,-3.687,42.01359248166667,-93.76706418166667,339.838,4,2022-11-09-14-06-12-994,
/media/phenobot3/Extreme SSD/under-canopy-images/Test4/enviratron/d1/1668024373300340062.jpeg,1668024373.3661735,-179.50896873624075,-0.30313434259076943,41.57221569719402,-4.625,42.01358851333333,-93.76706372666666,339.832,4,2022-11-09-14-06-13-366,
/media/phenobot3/Extreme SSD/under-canopy-images/Test4/enviratron/d1/1668024373672450152.jpeg,1668024373.7611632,179.13194698946322,-0.0067087464525629244,40.71939451981911,-5.063,42.01358483,-93.76706347166666,339.821,4,2022-11-09-14-06-13-761,
/media/phenobot3/Extreme SSD/under-canopy-images/Test4/enviratron/d1/1668024374077371548.jpeg,1668024374.148938,-179.73863532324697,0.28519810132490186,39.25923593641191,-5.438,42.013581635,-93.76706320333334,339.818,4,2022-11-09-14-06-14-149,
/media/phenobot3/Extreme SSD/under-canopy-images/Test4/enviratron/d1/1668024374448527294.jpeg,1668024374.5392928,-179.7303748598874,0.2636421045281951,40.5809199644608,-4.688,42.013578081666665,-93.76706385,339.812,4,2022-11-09-14-06-14-539,
/media/phenobot3/Extreme SSD/under-canopy-images/Test4/enviratron/d1/1668024374851283986.jpeg,1668024374.9175906,-177.92121303449562,0.03884345225497568,45.174118685453216,-4.063,42.01357414,-93.76706439166666,339.81,4,2022-11-09-14-06-14-917,
/media/phenobot3/Extreme SSD/under-canopy-images/Test4/enviratron/d1/1668024375219666620.jpeg,1668024375.306062,-178.6717216392517,0.01931644362914128,49.70336554339997,-2.375,42.01356975,-93.76706580833333,339.812,4,2022-11-09-14-06-15-306,
/media/phenobot3/Extreme SSD/under-canopy-images/Test4/enviratron/d1/1668024375609919838.jpeg,1668024375.676396,-178.69192208872636,-0.8574380579489285,51.31566478612257,-3.437,42.01356620166667,-93.76706485166666,339.808,4,2022-11-09-14-06-15-676,
/media/phenobot3/Extreme SSD/under-canopy-images/Test4/enviratron/d1/1668024375979110293.jpeg,1668024376.0664933,-177.74779502434066,-0.17867310089445482,48.879503117404205,-2.5,42.013561935,-93.76706482666667,339.805,4,2022-11-09-14-06-16-665,
/media/phenobot3/Extreme SSD/under-canopy-images/Test4/enviratron/d1/1668024376370062734.jpeg,1668024376.4346616,-178.37682462417862,0.24059750640197333,47.38881670823787,-2.312,42.01355894,-93.76706434833334,339.812,4,2022-11-09-14-06-16-434,
/media/phenobot3/Extreme SSD/under-canopy-images/Test4/enviratron/d1/1668024376736331063.jpeg,1668024376.8250096,-178.9593475317508,-0.13408661772655844,45.09728083472218,-4.813,42.013555366666665,-93.76706265,339.813,4,2022-11-09-14-06-16-825,
/media/phenobot3/Extreme SSD/under-canopy-images/Test4/enviratron/d1/1668024377124839671.jpeg,1668024377.186614,-178.4558908212795,0.047297835985952726,45.07250900711407,-2.125,42.01355118666667,-93.76706382,339.801,4,2022-11-09-14-06-17-186,
/media/phenobot3/Extreme SSD/under-canopy-images/Test4/enviratron/d1/1668024377492971729.jpeg,1668024377.5733786,-179.74411151897684,0.19483401093088834,44.12266752297484,-4.688,42.01354699,-93.7670621,339.814,4,2022-11-09-14-06-17-573,
/media/phenobot3/Extreme SSD/under-canopy-images/Test4/enviratron/d1/1668024377880299839.jpeg,1668024377.9451816,-179.20893024179682,-0.17399140037632835,44.18128253683406,-4.625,42.013544368333335,-93.76706184666666,339.803,4,2022-11-09-14-06-17-945,
/media/phenobot3/Extreme SSD/under-canopy-images/Test4/enviratron/d1/1668024378248865498.jpeg,1668024378.3301787,-179.29046173869008,-0.09668120095864069,42.503612318644926,-2.875,42.01354053666667,-93.767063005,339.795,4,2022-11-09-14-06-18-330,
/media/phenobot3/Extreme SSD/under-canopy-images/Test4/enviratron/d1/1668024378632377499.jpeg,1668024378.6925528,-179.00993111452902,0.2681402201683949,43.10817553814844,-5.375,42.01353624,-93.76706140333333,339.795,4,2022-11-09-14-06-18-692,
/media/phenobot3/Extreme SSD/under-canopy-images/Test4/enviratron/d1/1668024378998455026.jpeg,1668024379.0825782,-176.7283168861323,0.8847163091119472,42.17184920813885,-0.125,42.013532055,-93.76706436,339.788,4,2022-11-09-14-06-19-826,
/media/phenobot3/Extreme SSD/under-canopy-images/Test4/enviratron/d1/1668024379399595783.jpeg,1668024379.4612677,-176.68842552989582,0.33852082743838896,41.162722785676685,-0.688,42.01352838333333,-93.76706406833334,339.787,4,2022-11-09-14-06-19-461,
/media/phenobot3/Extreme SSD/under-canopy-images/Test4/enviratron/d1/1668024379768078424.jpeg,1668024379.8541481,-175.99036179941203,-0.510411709693586,43.19395168417756,-0.125,42.01352486,-93.76706467833333,339.773,4,2022-11-09-14-06-19-854,
/media/phenobot3/Extreme SSD/under-canopy-images/Test4/enviratron/d1/1668024380165143337.jpeg,1668024380.2337182,-175.364800511882,-0.5407642825979095,48.92492486662962,0.688,42.01352155166666,-93.76706515,339.767,4,2022-11-09-14-06-20-233,
/media/phenobot3/Extreme SSD/under-canopy-images/Test4/enviratron/d1/1668024380530434226.jpeg,1668024380.61832,-177.64000766183528,-0.2945074988924674,54.111808328258576,-2.75,42.013517935,-93.767063575,339.777,4,2022-11-09-14-06-20-618,
/media/phenobot3/Extreme SSD/under-canopy-images/Test4/enviratron/d1/1668024380930542071.jpeg,1668024380.9905157,-176.81822959162804,-0.08580471200741291,54.743842311814454,-0.563,42.01351355833334,-93.76706394666667,339.779,4,2022-11-09-14-06-20-990,
/media/phenobot3/Extreme SSD/under-canopy-images/Test4/enviratron/d1/1668024381297362486.jpeg,1668024381.3911204,-179.18438159648667,0.3631584636639484,48.80947749173441,-4.875,42.01350959166667,-93.76706084333334,339.776,4,2022-11-09-14-06-21-391,
/media/phenobot3/Extreme SSD/under-canopy-images/Test4/enviratron/d1/1668024381698846259.jpeg,1668024381.763252,-179.40092907511206,0.7739051666799205,35.27833993358325,-6.0,42.01350592,-93.767059435,339.769,4,2022-11-09-14-06-21-763,
/media/phenobot3/Extreme SSD/under-canopy-images/Test4/enviratron/d1/1668024382067188983.jpeg,1668024382.1598084,-178.25852385242248,1.1427182786969858,34.79601219651194,-3.75,42.01350217833333,-93.76706049833334,339.767,4,2022-11-09-14-06-22-159,
/media/phenobot3/Extreme SSD/under-canopy-images/Test4/enviratron/d1/1668024382467582471.jpeg,1668024382.5356967,-178.82941339321405,0.15161844331713772,39.45596668636499,-3.125,42.01349848,-93.76706120166666,339.762,4,2022-11-09-14-06-22-535,
/media/phenobot3/Extreme SSD/under-canopy-images/Test4/enviratron/d1/1668024382835569200.jpeg,1668024382.9270895,-178.0884393791992,0.6610909849863897,45.13633216125431,-1.25,42.01349487833333,-93.76706287166667,339.748,4,2022-11-09-14-06-22-927,
/media/phenobot3/Extreme SSD/under-canopy-images/Test4/enviratron/d1/1668024383219040832.jpeg,1668024383.2807806,-179.70237502120963,0.5089224827604923,48.292525262957795,-3.812,42.013491208333335,-93.76706185666667,339.736,4,2022-11-09-14-06-23-280,
/media/phenobot3/Extreme SSD/under-canopy-images/Test4/enviratron/d1/1668024383589048466.jpeg,1668024383.685069,-179.14361705632658,0.7257450613775647,44.059536577007975,-2.625,42.013487563333335,-93.76706219333333,339.737,4,2022-11-09-14-06-23-685,
/media/phenobot3/Extreme SSD/under-canopy-images/Test4/enviratron/d1/1668024383990940449.jpeg,1668024384.0614808,-177.6008821315331,1.3697194492277167,42.32785823005064,-2.437,42.01348356,-93.767062315,339.73,4,2022-11-09-14-06-24-615,
/media/phenobot3/Extreme SSD/under-canopy-images/Test4/enviratron/d1/1668024384358577727.jpeg,1668024384.4479914,-177.4359419170718,0.5708720936581817,39.989695522914666,-1.187,42.01348090333333,-93.767062765,339.723,4,2022-11-09-14-06-24-448,
/media/phenobot3/Extreme SSD/under-canopy-images/Test4/enviratron/d1/1668024384758964235.jpeg,1668024384.8252292,-176.88814951370702,0.48626301804104183,35.2603856625278,-0.875,42.01347724166666,-93.76706311833334,339.714,4,2022-11-09-14-06-24-825,
/media/phenobot3/Extreme SSD/under-canopy-images/Test4/enviratron/d1/1668024385128079271.jpeg,1668024385.219105,179.94663501327568,0.20311274223129633,34.81914381181138,-2.875,42.013473733333335,-93.76706300666666,339.713,4,2022-11-09-14-06-25-219,
/media/phenobot3/Extreme SSD/under-canopy-images/Test4/enviratron/d1/1668024385529277363.jpeg,1668024385.5990436,179.97494108580995,0.4183881101557211,37.282682590495966,-5.813,42.013469585,-93.7670611,339.705,4,2022-11-09-14-06-25-599,
/media/phenobot3/Extreme SSD/under-canopy-images/Test4/enviratron/d1/1668024385899018483.jpeg,1668024385.9852664,-178.10905183913374,0.2230132187067372,39.853491030123664,-1.062,42.01346560166667,-93.76706455,339.705,4,2022-11-09-14-06-25-985,
/media/phenobot3/Extreme SSD/under-canopy-images/Test4/enviratron/d1/1668024386301663434.jpeg,1668024386.3741744,-177.35075177788326,-0.4036498518931701,44.31399508612453,-2.25,42.01346218166667,-93.76706413,339.708,4,2022-11-09-14-06-26-374,
/media/phenobot3/Extreme SSD/under-canopy-images/Test4/enviratron/d1/1668024386670455368.jpeg,1668024386.764694,-177.43913363932583,-1.380734092250054,49.66937325119852,-2.875,42.01345907166667,-93.76706403,339.703,4,2022-11-09-14-06-26-764,
/media/phenobot3/Extreme SSD/under-canopy-images/Test4/enviratron/d1/1668024387071406281.jpeg,1668024387.1322908,-178.5407033830839,-0.14110820164511906,45.175301710136026,-1.625,42.013455361666665,-93.76706503666666,339.701,4,2022-11-09-14-06-27-132,
/media/phenobot3/Extreme SSD/under-canopy-images/Test4/enviratron/d1/1668024387438632247.jpeg,1668024387.51877,-179.09232236364736,1.6080762706363876,44.18531586382963,-4.75,42.01345111333333,-93.76706266166667,339.702,4,2022-11-09-14-06-27-518,
/media/phenobot3/Extreme SSD/under-canopy-images/Test4/enviratron/d1/1668024387834070284.jpeg,1668024387.8997464,-178.96232135954904,0.42131452374933764,42.80816060568091,-1.75,42.01344789,-93.76706391333333,339.691,4,2022-11-09-14-06-27-899,
/media/phenobot3/Extreme SSD/under-canopy-images/Test4/enviratron/d1/1668024388203314219.jpeg,1668024388.2815511,-179.50518658573355,-0.17477355237932032,40.47734762857511,-4.375,42.01344396166667,-93.7670626,339.693,4,2022-11-09-14-06-28-281,
/media/phenobot3/Extreme SSD/under-canopy-images/Test4/enviratron/d1/1668024388587606707.jpeg,1668024388.652791,178.46787158728839,0.06964736556589182,42.05765227051199,-7.0,42.01344176166667,-93.76706168,339.683,4,2022-11-09-14-06-28-652,
/media/phenobot3/Extreme SSD/under-canopy-images/Test4/enviratron/d1/1668024388953912616.jpeg,1668024389.044098,179.96303175511292,0.43996447542064204,46.65101468613897,-4.688,42.01343762333333,-93.76706248166667,339.682,4,2022-11-09-14-06-29-441,
/media/phenobot3/Extreme SSD/under-canopy-images/Test4/enviratron/d1/1668024389337400768.jpeg,1668024389.3996508,179.1502575427223,1.4695264624802307,44.24641020982926,-3.062,42.013433815,-93.76706388833334,339.68,4,2022-11-09-14-06-29-399,
/media/phenobot3/Extreme SSD/under-canopy-images/Test4/enviratron/d1/1668024389706572146.jpeg,1668024389.7988944,179.30168251802866,0.8414165421364531,44.787603511234884,-7.063,42.01343132,-93.7670609,339.656,4,2022-11-09-14-06-29-798,
/media/phenobot3/Extreme SSD/under-canopy-images/Test4/enviratron/d1/1668024390091596396.jpeg,1668024390.1581802,-179.79760771407848,1.1199502119223894,43.26175162089344,-1.75,42.013428448333336,-93.76706444833333,339.667,4,2022-11-09-14-06-30-158,
/media/phenobot3/Extreme SSD/under-canopy-images/Test4/enviratron/d1/1668024390457343234.jpeg,1668024390.536065,178.34357494475526,1.6458172809622642,43.134109771714314,-5.938,42.01342461666667,-93.76706238666667,339.659,4,2022-11-09-14-06-30-536,
/media/phenobot3/Extreme SSD/under-canopy-images/Test4/enviratron/d1/1668024390839771390.jpeg,1668024390.9020073,178.178829856408,1.5874777939920135,45.18364638910394,-4.188,42.013421175,-93.76706307166667,339.666,4,2022-11-09-14-06-30-902,
/media/phenobot3/Extreme SSD/under-canopy-images/Test4/enviratron/d1/1668024391207756772.jpeg,1668024391.2922392,177.2821860951597,1.1964842435903613,45.94697302812322,-7.5,42.013416981666666,-93.76706162833334,339.638,4,2022-11-09-14-06-31-292,
/media/phenobot3/Extreme SSD/under-canopy-images/Test4/enviratron/d1/1668024391593635385.jpeg,1668024391.6579273,179.65161702053155,0.8673694540083186,44.43554151656104,-3.062,42.013413475,-93.76706361833334,339.639,4,2022-11-09-14-06-31-658,
/media/phenobot3/Extreme SSD/under-canopy-images/Test4/enviratron/d1/1668024391962478361.jpeg,1668024392.040379,-179.1744364074885,1.2330456394302018,44.3120615890582,-4.75,42.013410035,-93.76706289,339.633,4,2022-11-09-14-06-32-404,
/media/phenobot3/Extreme SSD/under-canopy-images/Test4/enviratron/d1/1668024392344943813.jpeg,1668024392.4127932,177.7738691858821,1.1804208607133322,44.3258123631315,-6.438,42.013406661666664,-93.76706195833333,339.626,4,2022-11-09-14-06-32-413,
/media/phenobot3/Extreme SSD/under-canopy-images/Test4/enviratron/d1/1668024392710070246.jpeg,1668024392.7967443,178.52657039676006,1.1175926888399423,43.431274281733614,-6.063,42.013402875,-93.76706213333334,339.613,4,2022-11-09-14-06-32-796,
/media/phenobot3/Extreme SSD/under-canopy-images/Test4/enviratron/d1/1668024393111074640.jpeg,1668024393.171921,-179.82090126091737,1.0848602607657074,43.514851154077945,-5.063,42.01339975333333,-93.76706251666667,339.606,4,2022-11-09-14-06-33-172,
/media/phenobot3/Extreme SSD/under-canopy-images/Test4/enviratron/d1/1668024393476031238.jpeg,1668024393.5626006,179.0317454408606,1.4383399041225569,42.14234471695439,-6.625,42.013396721666666,-93.76706217833333,339.6,4,2022-11-09-14-06-33-562,
/media/phenobot3/Extreme SSD/under-canopy-images/Test4/enviratron/d1/1668024393874681449.jpeg,1668024393.9398248,178.8289782096825,0.8987566018578962,44.22429904826362,-6.313,42.01339344833333,-93.76706216,339.586,4,2022-11-09-14-06-33-939,
/media/phenobot3/Extreme SSD/under-canopy-images/Test4/enviratron/d1/1668024394242806930.jpeg,1668024394.328573,179.73360344248835,0.6304709374271703,46.343452767461244,-2.25,42.01339003166667,-93.76706440833334,339.584,4,2022-11-09-14-06-34-328,
/media/phenobot3/Extreme SSD/under-canopy-images/Test4/enviratron/d1/1668024394647094697.jpeg,1668024394.7138224,178.0927031858584,1.7259417237235182,49.06689649329637,-7.938,42.013385738333334,-93.76706174833333,339.573,4,2022-11-09-14-06-34-713,
/media/phenobot3/Extreme SSD/under-canopy-images/Test4/enviratron/d1/1668024395014093469.jpeg,1668024395.102825,179.6554833272713,1.2251591593307964,51.97483497252909,-5.188,42.013382675,-93.767062795,339.577,4,2022-11-09-14-06-35-102,
/media/phenobot3/Extreme SSD/under-canopy-images/Test4/enviratron/d1/1668024395413403764.jpeg,1668024395.4742477,179.82510898978023,1.2600565431694457,52.91794812257717,-4.25,42.013378868333334,-93.76706309,339.571,4,2022-11-09-14-06-35-474,
/media/phenobot3/Extreme SSD/under-canopy-images/Test4/enviratron/d1/1668024395779236702.jpeg,1668024395.8686674,-178.04865125340174,0.975717164867003,51.689374872954275,-3.312,42.013375163333336,-93.76706300333333,339.574,4,2022-11-09-14-06-35-868,
/media/phenobot3/Extreme SSD/under-canopy-images/Test4/enviratron/d1/1668024396183992971.jpeg,1668024396.2466223,179.57225440316728,0.4856833144110626,48.21878602562629,-4.313,42.013372096666664,-93.7670629,339.564,4,2022-11-09-14-06-36-246,
/media/phenobot3/Extreme SSD/under-canopy-images/Test4/enviratron/d1/1668024396550447738.jpeg,1668024396.641505,179.19026598544474,1.1327193117833683,45.041212463802545,-4.188,42.013368455,-93.7670617,339.554,4,2022-11-09-14-06-36-641,
/media/phenobot3/Extreme SSD/under-canopy-images/Test4/enviratron/d1/1668024396950779934.jpeg,1668024397.0126638,-178.07467088765446,0.16878398618362955,43.25404383380831,-3.125,42.01336466666667,-93.76706233,339.551,4,2022-11-09-14-06-37-127,
/media/phenobot3/Extreme SSD/under-canopy-images/Test4/enviratron/d1/1668024397316490311.jpeg,1668024397.3983295,-179.88589305688495,0.30812658752708255,40.478050020710796,-3.625,42.01336056,-93.767062225,339.544,4,2022-11-09-14-06-37-398,
/media/phenobot3/Extreme SSD/under-canopy-images/Test4/enviratron/d1/1668024397714613818.jpeg,1668024397.7827158,176.96405871534782,0.4542736136986067,39.38891425033206,-6.063,42.01335699333333,-93.76706112166667,339.537,4,2022-11-09-14-06-37-782,
/media/phenobot3/Extreme SSD/under-canopy-images/Test4/enviratron/d1/1668024398083936205.jpeg,1668024398.169797,177.65455985534905,0.48894134377933146,41.040937670093335,-5.25,42.013353343333335,-93.767061685,339.532,4,2022-11-09-14-06-38-169,
/media/phenobot3/Extreme SSD/under-canopy-images/Test4/enviratron/d1/1668024398485893276.jpeg,1668024398.5471988,176.9658758941558,0.1864813461891756,45.12380273053602,-5.75,42.013350755,-93.76706189333333,339.524,4,2022-11-09-14-06-38-547,
/media/phenobot3/Extreme SSD/under-canopy-images/Test4/enviratron/d1/1668024398851082351.jpeg,1668024398.9299664,177.57790410298466,0.7355458693112138,46.55826858058948,-7.813,42.01334730666667,-93.767060645,339.505,4,2022-11-09-14-06-38-930,
/media/phenobot3/Extreme SSD/under-canopy-images/Test4/enviratron/d1/1668024399234390782.jpeg,1668024399.2971053,178.63181058212302,1.3086764733125251,46.55070746211371,-2.75,42.013343735,-93.76706334666666,339.516,4,2022-11-09-14-06-39-297,
/media/phenobot3/Extreme SSD/under-canopy-images/Test4/enviratron/d1/1668024399604283063.jpeg,1668024399.6905434,177.0641220058292,0.640607320292872,47.378980177550574,-9.0,42.01333963166667,-93.767059585,339.492,4,2022-11-09-14-06-39-690,
