image_location,TimeStamp,Roll,Pitch,Yaw,Mast Roll,Lat,Lon,Alt,GPS Qual,DateTime
/media/phenobot3/Extreme SSD/under-canopy-images/Test3/enviratron/r4/1667933945028524374.jpeg,1667933945.1401124,179.92123401798906,3.3648171560116493,-19.249939268291428,-8.812,42.01686402,-93.77303995666666,344.523,4,2022-11-08-12-59-05-140,
/media/phenobot3/Extreme SSD/under-canopy-images/Test3/enviratron/r4/1667933945363980373.jpeg,1667933945.457806,179.92210025545657,3.3641874773785085,-19.253605686913417,-8.812,42.016864005,-93.77303993833333,344.524,4,2022-11-08-12-59-05-457,
/media/phenobot3/Extreme SSD/under-canopy-images/Test3/enviratron/r4/1667933945687238669.jpeg,1667933945.770227,179.922991950017,3.363635866622759,-19.257319771808493,-8.812,42.01686402166666,-93.77303995,344.524,4,2022-11-08-12-59-05-770,
/media/phenobot3/Extreme SSD/under-canopy-images/Test3/enviratron/r4/1667933946019930223.jpeg,1667933946.109405,179.92471094904218,3.3623999257804162,-19.264578375402383,-8.812,42.01686402333333,-93.77303995666666,344.523,4,2022-11-08-12-59-06-109,
/media/phenobot3/Extreme SSD/under-canopy-images/Test3/enviratron/r4/1667933946353784312.jpeg,1667933946.4334533,179.92554653064184,3.3618122611312033,-19.268094695739897,-8.812,42.016864016666666,-93.77303994666667,344.523,4,2022-11-08-12-59-06-433,
/media/phenobot3/Extreme SSD/under-canopy-images/Test3/enviratron/r4/1667933946687294987.jpeg,1667933946.7759185,179.9261078976978,3.3610914229254614,-19.270621963700776,-8.812,42.01686402,-93.77303995166666,344.522,4,2022-11-08-12-59-06-776,
/media/phenobot3/Extreme SSD/under-canopy-images/Test3/enviratron/r4/1667933947019662098.jpeg,1667933947.103638,179.92798836357466,3.3602800066965504,-19.278282574718776,-8.812,42.016864006666665,-93.773039985,344.521,4,2022-11-08-12-59-07-103,
/media/phenobot3/Extreme SSD/under-canopy-images/Test3/enviratron/r4/1667933947352949236.jpeg,1667933947.4453747,179.92881883985345,3.359725930763929,-19.281749135477984,-8.812,42.016864015,-93.77303999,344.519,4,2022-11-08-12-59-07-445,
/media/phenobot3/Extreme SSD/under-canopy-images/Test3/enviratron/r4/1667933947687176375.jpeg,1667933947.7736745,179.92950785831164,3.359221191056642,-19.284641430908263,-8.812,42.01686401333333,-93.77303998,344.521,4,2022-11-08-12-59-07-773,
/media/phenobot3/Extreme SSD/under-canopy-images/Test3/enviratron/r4/1667933948019895196.jpeg,1667933948.1145573,179.92779844839006,3.3521374478936936,-19.297336734893026,-8.812,42.01686401166667,-93.77303995833333,344.523,4,2022-11-08-12-59-08-114,
/media/phenobot3/Extreme SSD/under-canopy-images/Test3/enviratron/r4/1667933948354976914.jpeg,1667933948.4444866,179.82416582128837,2.7761362259982056,-19.27489618610247,-8.875,42.01686413666667,-93.773040035,344.523,4,2022-11-08-12-59-08-444,
/media/phenobot3/Extreme SSD/under-canopy-images/Test3/enviratron/r4/1667933948687382272.jpeg,1667933948.7806876,179.60960548371017,2.2061972654653683,-19.32735319613529,-9.25,42.01686496,-93.77304007,344.512,4,2022-11-08-12-59-08-780,
/media/phenobot3/Extreme SSD/under-canopy-images/Test3/enviratron/r4/1667933949020434196.jpeg,1667933949.1150458,177.2673888418034,2.011137349960882,-19.643653021073575,-10.25,42.016866093333334,-93.77304035,344.504,4,2022-11-08-12-59-09-115,
/media/phenobot3/Extreme SSD/under-canopy-images/Test3/enviratron/r4/1667933949353437363.jpeg,1667933949.458695,178.3924409455574,2.8486228423239193,-19.815533892903034,-11.125,42.016867936666664,-93.773040635,344.504,4,2022-11-08-12-59-09-458,
/media/phenobot3/Extreme SSD/under-canopy-images/Test3/enviratron/r4/1667933949687208066.jpeg,1667933949.7885005,179.64389178637654,2.7847007746404784,-19.05071047741092,-10.875,42.016869498333335,-93.773040025,344.502,4,2022-11-08-12-59-09-788,
/media/phenobot3/Extreme SSD/under-canopy-images/Test3/enviratron/r4/1667933950020786507.jpeg,1667933950.1092489,179.5140616290259,1.3140334582390711,-15.92664828583676,-8.187,42.01687057833333,-93.77303830833333,344.497,4,2022-11-08-12-59-10-109,
/media/phenobot3/Extreme SSD/under-canopy-images/Test3/enviratron/r4/1667933950353564568.jpeg,1667933950.4333487,178.3915248136187,0.8850121344727617,-13.277102689930478,-9.062,42.01687168833333,-93.77303847666667,344.491,4,2022-11-08-12-59-10-433,
/media/phenobot3/Extreme SSD/under-canopy-images/Test3/enviratron/r4/1667933950687373441.jpeg,1667933950.7767556,177.78184747759477,-0.08344355548919663,-9.508610766654128,-11.437,42.01687225166667,-93.77303961333334,344.489,4,2022-11-08-12-59-10-776,
/media/phenobot3/Extreme SSD/under-canopy-images/Test3/enviratron/r4/1667933951019184797.jpeg,1667933951.1087635,179.2149437737301,-0.6525888295864195,-9.14829521264087,-10.312,42.01687401,-93.77303939,344.49,4,2022-11-08-12-59-11-108,
/media/phenobot3/Extreme SSD/under-canopy-images/Test3/enviratron/r4/1667933951353473102.jpeg,1667933951.4393063,-179.82118573187375,-1.3659412811457907,-10.694653447011662,-7.375,42.01687479833333,-93.77303804666667,344.488,4,2022-11-08-12-59-11-439,
/media/phenobot3/Extreme SSD/under-canopy-images/Test3/enviratron/r4/1667933951687379931.jpeg,1667933951.775558,-177.84468875786018,-1.690746600695887,-14.181573399895452,-7.688,42.016876716666665,-93.773037895,344.494,4,2022-11-08-12-59-11-775,
/media/phenobot3/Extreme SSD/under-canopy-images/Test3/enviratron/r4/1667933952019869305.jpeg,1667933952.106892,179.77604490882302,-0.8071391325888918,-15.924599075019211,-7.375,42.016879573333334,-93.773037375,344.489,4,2022-11-08-12-59-12-106,
/media/phenobot3/Extreme SSD/under-canopy-images/Test3/enviratron/r4/1667933952352550177.jpeg,1667933952.4371166,175.11908967379952,-0.5101457996978737,-16.028107109336318,-12.625,42.016880835,-93.77303998166667,344.486,4,2022-11-08-12-59-12-437,
/media/phenobot3/Extreme SSD/under-canopy-images/Test3/enviratron/r4/1667933952687258379.jpeg,1667933952.7773383,176.3309743877861,2.9910270491093645,-12.415364411534744,-13.562,42.0168845,-93.77304082666667,344.46,4,2022-11-08-12-59-12-777,
/media/phenobot3/Extreme SSD/under-canopy-images/Test3/enviratron/r4/1667933953020965661.jpeg,1667933953.1018097,-176.33305893447118,3.6440655880057737,-9.101017158712875,-5.625,42.016886715,-93.77303640666666,344.466,4,2022-11-08-12-59-13-101,
/media/phenobot3/Extreme SSD/under-canopy-images/Test3/enviratron/r4/1667933953354014858.jpeg,1667933953.4434755,-179.66273772193568,2.823109865700453,-10.160348070438326,-6.375,42.016886945,-93.77303597166667,344.483,4,2022-11-08-12-59-13-443,
/media/phenobot3/Extreme SSD/under-canopy-images/Test3/enviratron/r4/1667933953687318031.jpeg,1667933953.7749553,178.9109402962834,2.546292040534506,-9.456160028483335,-11.562,42.016888333333334,-93.77304000833334,344.471,4,2022-11-08-12-59-13-775,
/media/phenobot3/Extreme SSD/under-canopy-images/Test3/enviratron/r4/1667933954019889270.jpeg,1667933954.1115448,-179.68585249254244,0.6631808285556783,-10.809868277502762,-6.125,42.016890231666665,-93.77303741666667,344.475,4,2022-11-08-12-59-14-111,
/media/phenobot3/Extreme SSD/under-canopy-images/Test3/enviratron/r4/1667933954353980450.jpeg,1667933954.4313178,-179.11374023071886,-2.0913789096779287,-14.409258355667442,-7.438,42.016890415,-93.77303777166667,344.46,4,2022-11-08-12-59-14-431,
/media/phenobot3/Extreme SSD/under-canopy-images/Test3/enviratron/r4/1667933954687206133.jpeg,1667933954.7788217,-178.18697122510238,-4.733191149847332,-14.224971637020039,-6.313,42.01689159166666,-93.77303693,344.448,4,2022-11-08-12-59-14-778,
/media/phenobot3/Extreme SSD/under-canopy-images/Test3/enviratron/r4/1667933955020172137.jpeg,1667933955.1037269,-178.63472560851426,-3.405427279691387,-15.907832834009247,-7.063,42.01689434,-93.77303732833333,344.473,4,2022-11-08-12-59-15-103,
/media/phenobot3/Extreme SSD/under-canopy-images/Test3/enviratron/r4/1667933955354469302.jpeg,1667933955.444983,178.97214883814257,-2.4792306097507235,-15.14803914274245,-10.625,42.01689654166667,-93.773039485,344.474,4,2022-11-08-12-59-15-445,
/media/phenobot3/Extreme SSD/under-canopy-images/Test3/enviratron/r4/1667933955687609687.jpeg,1667933955.7806294,178.84929601516413,-2.411569595583153,-15.65457850464722,-10.125,42.01689834333333,-93.77303903333333,344.486,4,2022-11-08-12-59-15-780,
/media/phenobot3/Extreme SSD/under-canopy-images/Test3/enviratron/r4/1667933956020292205.jpeg,1667933956.1132104,178.2833371179321,-0.5650309411618079,-13.048659751486426,-10.875,42.016901795,-93.77303953333333,344.502,4,2022-11-08-12-59-16-113,
/media/phenobot3/Extreme SSD/under-canopy-images/Test3/enviratron/r4/1667933956354068265.jpeg,1667933956.4307394,179.63601556848843,-0.3230660767384826,-9.857373547482606,-9.625,42.016903336666665,-93.77303846666666,344.509,4,2022-11-08-12-59-16-430,
/media/phenobot3/Extreme SSD/under-canopy-images/Test3/enviratron/r4/1667933956686958596.jpeg,1667933956.771851,179.7061105432172,-0.7306361976015484,-7.708989956823022,-9.0,42.01690506333333,-93.77303808833334,344.506,4,2022-11-08-12-59-16-771,
/media/phenobot3/Extreme SSD/under-canopy-images/Test3/enviratron/r4/1667933957020452875.jpeg,1667933957.1072302,-179.55575157441154,-0.4471040934040688,-5.333698096974844,-8.75,42.01690765833333,-93.77303827333333,344.505,4,2022-11-08-12-59-17-107,
/media/phenobot3/Extreme SSD/under-canopy-images/Test3/enviratron/r4/1667933957354073257.jpeg,1667933957.4487095,-179.76744192570064,-0.5994313558956813,-8.987578897588477,-8.187,42.01690955,-93.77303790666667,344.505,4,2022-11-08-12-59-17-448,
/media/phenobot3/Extreme SSD/under-canopy-images/Test3/enviratron/r4/1667933957687929342.jpeg,1667933957.7803402,-178.924788151062,-0.6130333231463793,-10.32717077681705,-8.125,42.01691118833333,-93.77303846,344.51,4,2022-11-08-12-59-17-780,
/media/phenobot3/Extreme SSD/under-canopy-images/Test3/enviratron/r4/1667933958022144499.jpeg,1667933958.1120553,-177.40464653742106,-1.237646485677056,-10.510151293978774,-6.438,42.016913325,-93.77303747666667,344.518,4,2022-11-08-12-59-18-112,
/media/phenobot3/Extreme SSD/under-canopy-images/Test3/enviratron/r4/1667933958353668600.jpeg,1667933958.4379568,-176.92397883900202,-1.0556727089100624,-12.475950921284491,-4.313,42.016915425,-93.773036405,344.517,4,2022-11-08-12-59-18-438,
/media/phenobot3/Extreme SSD/under-canopy-images/Test3/enviratron/r4/1667933958687191043.jpeg,1667933958.7774312,-178.232846955758,-1.019089993487503,-13.171068135088726,-5.938,42.01691727,-93.77303691166667,344.517,4,2022-11-08-12-59-18-777,
/media/phenobot3/Extreme SSD/under-canopy-images/Test3/enviratron/r4/1667933959020931316.jpeg,1667933959.1044745,-179.3089231110584,-1.3366586731999837,-13.834311752265657,-7.563,42.0169197,-93.77303822833333,344.531,4,2022-11-08-12-59-19-104,
/media/phenobot3/Extreme SSD/under-canopy-images/Test3/enviratron/r4/1667933959354120405.jpeg,1667933959.4464893,-179.16367913594323,-0.6060465069608632,-14.896589066408437,-7.313,42.016921868333334,-93.773038125,344.529,4,2022-11-08-12-59-19-446,
/media/phenobot3/Extreme SSD/under-canopy-images/Test3/enviratron/r4/1667933959687849554.jpeg,1667933959.7683263,-179.9195716624514,-0.593563037145934,-14.053698509963706,-8.687,42.01692466,-93.77303870166666,344.528,4,2022-11-08-12-59-19-768,
/media/phenobot3/Extreme SSD/under-canopy-images/Test3/enviratron/r4/1667933960019701053.jpeg,1667933960.1057844,-179.93103473946994,-0.5591250576832584,-14.852650387894572,-9.625,42.01692631,-93.77303927,344.538,4,2022-11-08-12-59-20-105,
/media/phenobot3/Extreme SSD/under-canopy-images/Test3/enviratron/r4/1667933960353634902.jpeg,1667933960.4439788,178.93003549766894,-1.5150669467271967,-15.496059524464044,-10.375,42.01692812833333,-93.77303943666666,344.544,4,2022-11-08-12-59-20-444,
/media/phenobot3/Extreme SSD/under-canopy-images/Test3/enviratron/r4/1667933960687236142.jpeg,1667933960.7868555,178.82637670432746,-0.13721218115403766,-15.20595535347334,-11.0,42.01693126666667,-93.77303987333333,344.536,4,2022-11-08-12-59-20-786,
/media/phenobot3/Extreme SSD/under-canopy-images/Test3/enviratron/r4/1667933961019927109.jpeg,1667933961.0958433,177.3088393117764,-0.9003060790943942,-15.90937948471718,-11.0,42.01693362333334,-93.77303957833334,344.532,4,2022-11-08-12-59-21-959,
/media/phenobot3/Extreme SSD/under-canopy-images/Test3/enviratron/r4/1667933961353490107.jpeg,1667933961.4383802,178.33394802283482,-0.8137893266480731,-11.868105632606046,-10.312,42.01693510166667,-93.77303942833333,344.541,4,2022-11-08-12-59-21-438,
/media/phenobot3/Extreme SSD/under-canopy-images/Test3/enviratron/r4/1667933961686962903.jpeg,1667933961.7631145,178.19387562132377,-0.92561404054399,-10.23469775162345,-10.312,42.01693744333333,-93.77303890166667,344.558,4,2022-11-08-12-59-21-763,
/media/phenobot3/Extreme SSD/under-canopy-images/Test3/enviratron/r4/1667933962020161013.jpeg,1667933962.1196642,179.16852069853732,-2.761184596907794,-10.070392878345746,-10.375,42.01693875833333,-93.77303957166667,344.547,4,2022-11-08-12-59-22-119,
/media/phenobot3/Extreme SSD/under-canopy-images/Test3/enviratron/r4/1667933962354435757.jpeg,1667933962.4410622,179.64543784856124,-3.4428491676344217,-13.181518330323222,-7.688,42.01694091833333,-93.77303775666667,344.562,4,2022-11-08-12-59-22-441,
/media/phenobot3/Extreme SSD/under-canopy-images/Test3/enviratron/r4/1667933962687209860.jpeg,1667933962.7860625,177.383506613269,-2.516574806984773,-14.297344493920889,-10.0,42.01694413166667,-93.77303889333334,344.564,4,2022-11-08-12-59-22-786,
/media/phenobot3/Extreme SSD/under-canopy-images/Test3/enviratron/r4/1667933963020413964.jpeg,1667933963.1135952,178.05209914813608,-1.2937137795960827,-14.789517249436924,-12.312,42.016946391666664,-93.77304037333333,344.565,4,2022-11-08-12-59-23-113,
/media/phenobot3/Extreme SSD/under-canopy-images/Test3/enviratron/r4/1667933963353945009.jpeg,1667933963.4395761,178.50448919466072,-0.06779459020404179,-15.305671548010713,-9.625,42.01694893333333,-93.77303879666667,344.585,4,2022-11-08-12-59-23-439,
/media/phenobot3/Extreme SSD/under-canopy-images/Test3/enviratron/r4/1667933963687012283.jpeg,1667933963.77519,178.79847301885005,0.6143883805601762,-16.061182602283864,-10.25,42.01695117166667,-93.773038815,344.593,4,2022-11-08-12-59-23-775,
/media/phenobot3/Extreme SSD/under-canopy-images/Test3/enviratron/r4/1667933964019537269.jpeg,1667933964.1097684,178.15407494097565,0.009745032739040966,-17.263471819658495,-10.0,42.01695370666667,-93.773038595,344.59,4,2022-11-08-12-59-24-109,
/media/phenobot3/Extreme SSD/under-canopy-images/Test3/enviratron/r4/1667933964354384251.jpeg,1667933964.4403484,176.5435687574047,-0.4078589951396762,-14.05702403518078,-11.562,42.01695583833333,-93.773039355,344.579,4,2022-11-08-12-59-24-440,
/media/phenobot3/Extreme SSD/under-canopy-images/Test3/enviratron/r4/1667933964687171703.jpeg,1667933964.778789,178.43073795558007,-0.13175046934137818,-8.98670909717714,-11.437,42.01695837333333,-93.77303901666667,344.584,4,2022-11-08-12-59-24-778,
/media/phenobot3/Extreme SSD/under-canopy-images/Test3/enviratron/r4/1667933965020345479.jpeg,1667933965.1066198,179.0825781331753,-0.12968401156981568,-4.621974402244953,-9.687,42.016960153333336,-93.773038035,344.585,4,2022-11-08-12-59-25-106,
/media/phenobot3/Extreme SSD/under-canopy-images/Test3/enviratron/r4/1667933965355529415.jpeg,1667933965.4446034,179.69580207780518,-0.4154965611882487,-8.095565334655259,-8.75,42.016962236666664,-93.77303796666666,344.586,4,2022-11-08-12-59-25-444,
/media/phenobot3/Extreme SSD/under-canopy-images/Test3/enviratron/r4/1667933965687425191.jpeg,1667933965.7640278,179.74203727014014,-0.8352781227003737,-13.232362342689571,-9.5,42.01696469833333,-93.77303865333333,344.589,4,2022-11-08-12-59-25-764,
/media/phenobot3/Extreme SSD/under-canopy-images/Test3/enviratron/r4/1667933966020317684.jpeg,1667933966.1063545,179.62898965695481,-0.7368417150471266,-14.359248234395233,-9.5,42.01696672,-93.77303876,344.593,4,2022-11-08-12-59-26-106,
/media/phenobot3/Extreme SSD/under-canopy-images/Test3/enviratron/r4/1667933966354369115.jpeg,1667933966.4516716,-179.71999390576286,-0.869991454934879,-14.963629076304336,-8.687,42.01696873666667,-93.77303827166666,344.596,4,2022-11-08-12-59-26-451,
/media/phenobot3/Extreme SSD/under-canopy-images/Test3/enviratron/r4/1667933966687181018.jpeg,1667933966.7764194,-179.94681585155976,-1.0848446294443184,-15.57327424183022,-9.125,42.01697112,-93.77303821,344.595,4,2022-11-08-12-59-26-776,
/media/phenobot3/Extreme SSD/under-canopy-images/Test3/enviratron/r4/1667933967020234735.jpeg,1667933967.1051502,178.9627792758946,-1.0011350271120494,-16.25139708442523,-10.875,42.01697366,-93.77303916333334,344.599,4,2022-11-08-12-59-27-105,
/media/phenobot3/Extreme SSD/under-canopy-images/Test3/enviratron/r4/1667933967355823521.jpeg,1667933967.4495041,178.21037519769715,-1.0456975171534184,-13.065126897210137,-11.062,42.016975315,-93.77303905333333,344.601,4,2022-11-08-12-59-27-449,
/media/phenobot3/Extreme SSD/under-canopy-images/Test3/enviratron/r4/1667933967687176584.jpeg,1667933967.771388,179.00774946425022,-0.5620404831879556,-11.034257979497593,-10.625,42.016977393333335,-93.77303884666667,344.6,4,2022-11-08-12-59-27-771,
/media/phenobot3/Extreme SSD/under-canopy-images/Test3/enviratron/r4/1667933968020486907.jpeg,1667933968.1104662,179.59035862559122,-0.37729141513804465,-11.40225641541898,-10.062,42.01698027166667,-93.77303841166666,344.611,4,2022-11-08-12-59-28-110,
/media/phenobot3/Extreme SSD/under-canopy-images/Test3/enviratron/r4/1667933968353157051.jpeg,1667933968.430673,-179.44774473118045,-0.5603756286080888,-13.279052257573397,-8.437,42.01698219,-93.77303753166666,344.616,4,2022-11-08-12-59-28-430,
/media/phenobot3/Extreme SSD/under-canopy-images/Test3/enviratron/r4/1667933968687053976.jpeg,1667933968.775719,179.07083689803792,-1.137933235140522,-13.800307568952123,-8.625,42.01698423166667,-93.773037425,344.621,4,2022-11-08-12-59-28-775,
/media/phenobot3/Extreme SSD/under-canopy-images/Test3/enviratron/r4/1667933969019696113.jpeg,1667933969.09242,177.08327351150544,-1.5902497853956539,-11.38762303220587,-12.937,42.01698655,-93.77303963666667,344.608,4,2022-11-08-12-59-29-925,
/media/phenobot3/Extreme SSD/under-canopy-images/Test3/enviratron/r4/1667933969354765369.jpeg,1667933969.4397032,176.84876287302342,-2.801671888645668,-11.01950994849277,-13.0,42.016987988333334,-93.77303996666667,344.616,4,2022-11-08-12-59-29-439,
/media/phenobot3/Extreme SSD/under-canopy-images/Test3/enviratron/r4/1667933969687381678.jpeg,1667933969.7767398,177.79267711321515,-2.735117148208403,-10.132796880584541,-11.125,42.01698981333333,-93.773039085,344.627,4,2022-11-08-12-59-29-776,
/media/phenobot3/Extreme SSD/under-canopy-images/Test3/enviratron/r4/1667933970019125016.jpeg,1667933970.1107407,177.69946879949202,-1.260411542336904,-10.328675850474655,-10.812,42.016993531666664,-93.77303846333334,344.638,4,2022-11-08-12-59-30-110,
/media/phenobot3/Extreme SSD/under-canopy-images/Test3/enviratron/r4/1667933970357811762.jpeg,1667933970.4401214,178.35548162062005,-0.761485721811162,-11.317154437431835,-11.937,42.01699548166667,-93.77303944833334,344.637,4,2022-11-08-12-59-30-440,
/media/phenobot3/Extreme SSD/under-canopy-images/Test3/enviratron/r4/1667933970686904532.jpeg,1667933970.7759488,178.60585386361214,0.10778049887010081,-9.455793859263535,-10.25,42.016998603333334,-93.773038355,344.658,4,2022-11-08-12-59-30-776,
/media/phenobot3/Extreme SSD/under-canopy-images/Test3/enviratron/r4/1667933971019695235.jpeg,1667933971.1016428,179.14154267216702,0.6302918967382114,-8.263663736451543,-10.687,42.01700092,-93.773038715,344.658,4,2022-11-08-12-59-31-101,
/media/phenobot3/Extreme SSD/under-canopy-images/Test3/enviratron/r4/1667933971352969544.jpeg,1667933971.4547226,-179.40644913518486,-0.45192416903155747,-7.860458098247168,-8.437,42.01700223666667,-93.77303792666666,344.656,4,2022-11-08-12-59-31-454,
/media/phenobot3/Extreme SSD/under-canopy-images/Test3/enviratron/r4/1667933971687362216.jpeg,1667933971.7741985,-178.38353981370233,-0.01312901088062964,-9.231983735280302,-6.563,42.017005596666664,-93.77303674166667,344.65,4,2022-11-08-12-59-31-774,
/media/phenobot3/Extreme SSD/under-canopy-images/Test3/enviratron/r4/1667933972019959809.jpeg,1667933972.107361,-178.85053884022824,0.29907376825639825,-11.431535257268282,-6.875,42.017007461666665,-93.773036945,344.653,4,2022-11-08-12-59-32-107,
/media/phenobot3/Extreme SSD/under-canopy-images/Test3/enviratron/r4/1667933972354788300.jpeg,1667933972.4400578,178.04248072309727,0.5901200182047746,-15.050168186251808,-10.187,42.01700987666667,-93.77303878333333,344.644,4,2022-11-08-12-59-32-440,
/media/phenobot3/Extreme SSD/under-canopy-images/Test3/enviratron/r4/1667933972687589344.jpeg,1667933972.7798915,179.0048789903508,0.6735290722802524,-14.8664620632983,-11.0,42.01701264166667,-93.773039375,344.645,4,2022-11-08-12-59-32-779,
/media/phenobot3/Extreme SSD/under-canopy-images/Test3/enviratron/r4/1667933973020419032.jpeg,1667933973.0981233,-179.018589094511,0.15868717071270314,-14.164040588805658,-8.0,42.017014575,-93.77303748,344.647,4,2022-11-08-12-59-33-982,
/media/phenobot3/Extreme SSD/under-canopy-images/Test3/enviratron/r4/1667933973356221839.jpeg,1667933973.438054,179.89682329253753,-0.32463754771379216,-9.351817425646859,-10.437,42.0170167,-93.77303817666666,344.645,4,2022-11-08-12-59-33-438,
/media/phenobot3/Extreme SSD/under-canopy-images/Test3/enviratron/r4/1667933973687006339.jpeg,1667933973.7716343,178.41968785967734,-0.950156429747155,-3.991163575542731,-11.187,42.017018355,-93.77303896333333,344.633,4,2022-11-08-12-59-33-771,
/media/phenobot3/Extreme SSD/under-canopy-images/Test3/enviratron/r4/1667933974020292699.jpeg,1667933974.1032817,-179.49619126411412,-0.5573297201880086,-6.969660070397542,-6.688,42.017021013333334,-93.77303710166666,344.645,4,2022-11-08-12-59-34-103,
/media/phenobot3/Extreme SSD/under-canopy-images/Test3/enviratron/r4/1667933974354404289.jpeg,1667933974.4462984,-178.46466958189643,-0.7856923457875601,-10.695351955458053,-6.875,42.01702309666667,-93.77303719666666,344.65,4,2022-11-08-12-59-34-446,
/media/phenobot3/Extreme SSD/under-canopy-images/Test3/enviratron/r4/1667933974687188603.jpeg,1667933974.781565,-177.46788791175325,-1.4540824411394762,-12.851237509247655,-7.0,42.017025356666664,-93.77303761833333,344.656,4,2022-11-08-12-59-34-781,
/media/phenobot3/Extreme SSD/under-canopy-images/Test3/enviratron/r4/1667933975020041287.jpeg,1667933975.1148734,-178.02691438256545,-1.3358526387563485,-14.037604188739358,-6.875,42.017028241666665,-93.77303723333333,344.663,4,2022-11-08-12-59-35-114,
/media/phenobot3/Extreme SSD/under-canopy-images/Test3/enviratron/r4/1667933975353979118.jpeg,1667933975.4508994,-179.04574686430107,-0.9856230333908766,-11.820514827198359,-8.75,42.01703063666667,-93.77303782666667,344.66,4,2022-11-08-12-59-35-450,
/media/phenobot3/Extreme SSD/under-canopy-images/Test3/enviratron/r4/1667933975687050309.jpeg,1667933975.7830694,-179.7498132005978,-0.8398206593052353,-8.72791796127223,-9.0,42.017033075,-93.77303846,344.665,4,2022-11-08-12-59-35-783,
/media/phenobot3/Extreme SSD/under-canopy-images/Test3/enviratron/r4/1667933976019236395.jpeg,1667933976.1036303,179.52049943440437,0.020152078519782863,-9.220945838875766,-8.062,42.017036335,-93.77303756166667,344.675,4,2022-11-08-12-59-36-103,
/media/phenobot3/Extreme SSD/under-canopy-images/Test3/enviratron/r4/1667933976354128452.jpeg,1667933976.438583,178.28681534031497,-0.35102610981239013,-9.291762713508104,-13.687,42.01703756333333,-93.77304086666666,344.662,4,2022-11-08-12-59-36-438,
/media/phenobot3/Extreme SSD/under-canopy-images/Test3/enviratron/r4/1667933976686949345.jpeg,1667933976.7852104,-179.16929308628173,-1.0016233291845316,-10.75455892246223,-6.625,42.017040265,-93.77303724166667,344.677,4,2022-11-08-12-59-36-785,
/media/phenobot3/Extreme SSD/under-canopy-images/Test3/enviratron/r4/1667933977019900281.jpeg,1667933977.1006343,-179.76835004119278,-0.34787506657477457,-12.186380516869844,-8.062,42.017042976666666,-93.77303815666667,344.675,4,2022-11-08-12-59-37-100,
/media/phenobot3/Extreme SSD/under-canopy-images/Test3/enviratron/r4/1667933977353836705.jpeg,1667933977.4452045,179.6777737735209,0.04489372075849875,-12.288663297609462,-10.937,42.017045536666664,-93.77303952333334,344.673,4,2022-11-08-12-59-37-445,
/media/phenobot3/Extreme SSD/under-canopy-images/Test3/enviratron/r4/1667933977687438113.jpeg,1667933977.7763574,-177.71523661240064,0.4382531996698288,-12.972004226287282,-6.063,42.01704766833333,-93.77303841,344.677,4,2022-11-08-12-59-37-776,
/media/phenobot3/Extreme SSD/under-canopy-images/Test3/enviratron/r4/1667933978020070223.jpeg,1667933978.1049736,178.53204192223734,1.6537615280988298,-13.609902730792978,-9.625,42.01705110333333,-93.77303838,344.68,4,2022-11-08-12-59-38-105,
/media/phenobot3/Extreme SSD/under-canopy-images/Test3/enviratron/r4/1667933978354046587.jpeg,1667933978.4528146,177.02113846872837,0.44839504553682086,-10.750751089660259,-14.25,42.017053108333336,-93.773041385,344.66,4,2022-11-08-12-59-38-452,
/media/phenobot3/Extreme SSD/under-canopy-images/Test3/enviratron/r4/1667933978687202564.jpeg,1667933978.7795687,179.55237946441753,0.16105250082459585,-9.2228315109772,-11.375,42.01705489166667,-93.77304024833333,344.67,4,2022-11-08-12-59-38-779,
/media/phenobot3/Extreme SSD/under-canopy-images/Test3/enviratron/r4/1667933979020153985.jpeg,1667933979.1126752,-179.0603498673126,0.024229059233721876,-10.132211464715557,-6.688,42.017057933333334,-93.77303689166666,344.674,4,2022-11-08-12-59-39-112,
/media/phenobot3/Extreme SSD/under-canopy-images/Test3/enviratron/r4/1667933979353824880.jpeg,1667933979.4338937,177.67135813215876,-0.9629045470150519,-11.510312590794308,-12.687,42.017060205,-93.77303986666666,344.665,4,2022-11-08-12-59-39-433,
/media/phenobot3/Extreme SSD/under-canopy-images/Test3/enviratron/r4/1667933979687386498.jpeg,1667933979.7708309,176.411761792172,-0.7073621207902551,-11.79989786277335,-14.062,42.017061698333336,-93.77304134666667,344.659,4,2022-11-08-12-59-39-770,
/media/phenobot3/Extreme SSD/under-canopy-images/Test3/enviratron/r4/1667933980019529150.jpeg,1667933980.0989158,178.23543357221558,-0.22827466642340355,-9.749802379052936,-12.25,42.017064991666665,-93.77304030333333,344.668,4,2022-11-08-12-59-40-989,
/media/phenobot3/Extreme SSD/under-canopy-images/Test3/enviratron/r4/1667933980353735028.jpeg,1667933980.429598,-179.94509848921246,-1.2019487169529308,-9.685419693477234,-10.25,42.017067006666664,-93.77303927166666,344.673,4,2022-11-08-12-59-40-429,
/media/phenobot3/Extreme SSD/under-canopy-images/Test3/enviratron/r4/1667933980687069298.jpeg,1667933980.777972,-179.70178200496886,-0.28877491874948663,-10.194045322665314,-9.25,42.01707059333334,-93.77303864666666,344.676,4,2022-11-08-12-59-40-778,
/media/phenobot3/Extreme SSD/under-canopy-images/Test3/enviratron/r4/1667933981019705620.jpeg,1667933981.1077642,179.2065055669734,0.25967530819825624,-9.619270659944839,-11.187,42.01707286333333,-93.773039705,344.665,4,2022-11-08-12-59-41-107,
/media/phenobot3/Extreme SSD/under-canopy-images/Test3/enviratron/r4/1667933981353484909.jpeg,1667933981.446176,179.6729055183352,0.1806236111048733,-8.67870898713055,-11.312,42.017074906666664,-93.773040145,344.669,4,2022-11-08-12-59-41-446,
/media/phenobot3/Extreme SSD/under-canopy-images/Test3/enviratron/r4/1667933981687456846.jpeg,1667933981.7769043,-179.62812781552148,-0.27452800179952724,-7.834556341864133,-9.375,42.017077525,-93.77303910833334,344.678,4,2022-11-08-12-59-41-776,
/media/phenobot3/Extreme SSD/under-canopy-images/Test3/enviratron/r4/1667933982019344723.jpeg,1667933982.1098096,-179.06734158666904,-1.3506684129664375,-10.600581697500665,-7.813,42.017079491666664,-93.77303822333333,344.679,4,2022-11-08-12-59-42-109,
/media/phenobot3/Extreme SSD/under-canopy-images/Test3/enviratron/r4/1667933982354143895.jpeg,1667933982.4280324,-179.15088270080435,-2.0643088776245198,-13.536273248837153,-8.937,42.01708125,-93.77303886166666,344.672,4,2022-11-08-12-59-42-428,
/media/phenobot3/Extreme SSD/under-canopy-images/Test3/enviratron/r4/1667933982687749914.jpeg,1667933982.7737854,-179.50400336005745,-2.0518309004993904,-13.724627210422343,-8.937,42.0170837,-93.77303924166667,344.686,4,2022-11-08-12-59-42-773,
/media/phenobot3/Extreme SSD/under-canopy-images/Test3/enviratron/r4/1667933983019548593.jpeg,1667933983.095297,-179.97779490497595,-1.7362953413389202,-14.024881452118736,-9.687,42.017086425,-93.77303924,344.691,4,2022-11-08-12-59-43-953,
/media/phenobot3/Extreme SSD/under-canopy-images/Test3/enviratron/r4/1667933983353422313.jpeg,1667933983.437261,179.0277855645916,-1.066881460523343,-14.629335126182063,-10.375,42.01708883333333,-93.77303946,344.694,4,2022-11-08-12-59-43-437,
/media/phenobot3/Extreme SSD/under-canopy-images/Test3/enviratron/r4/1667933983687360030.jpeg,1667933983.7726438,178.70677767937252,-0.5221200083720091,-13.337912976604414,-10.937,42.017091478333334,-93.77303964333333,344.699,4,2022-11-08-12-59-43-772,
/media/phenobot3/Extreme SSD/under-canopy-images/Test3/enviratron/r4/1667933984020232453.jpeg,1667933984.1127582,179.35582847048013,0.3912097251730815,-12.5846443657523,-10.75,42.017094793333335,-93.773039545,344.701,4,2022-11-08-12-59-44-112,
/media/phenobot3/Extreme SSD/under-canopy-images/Test3/enviratron/r4/1667933984354835620.jpeg,1667933984.4344895,179.66288513298065,1.0113528434751422,-11.241911398761781,-10.375,42.017097381666666,-93.77303904833333,344.694,4,2022-11-08-12-59-44-434,
/media/phenobot3/Extreme SSD/under-canopy-images/Test3/enviratron/r4/1667933984687377886.jpeg,1667933984.779425,179.1925387460117,1.2237680343265298,-8.114777756296707,-12.437,42.01709951833333,-93.77303986666666,344.694,4,2022-11-08-12-59-44-779,
/media/phenobot3/Extreme SSD/under-canopy-images/Test3/enviratron/r4/1667933985019924931.jpeg,1667933985.0980558,-179.6686720366916,0.9687039782280594,-4.937277737291249,-9.75,42.01710254333333,-93.77303886166666,344.695,4,2022-11-08-12-59-45-981,
/media/phenobot3/Extreme SSD/under-canopy-images/Test3/enviratron/r4/1667933985353669399.jpeg,1667933985.4438462,-179.52209538162083,0.7971668839931013,-3.223724086420087,-9.062,42.01710464333333,-93.77303826666666,344.683,4,2022-11-08-12-59-45-443,
/media/phenobot3/Extreme SSD/under-canopy-images/Test3/enviratron/r4/1667933985687019957.jpeg,1667933985.7677448,179.36486371885792,0.8969588304165461,-9.314244683322732,-9.75,42.017106795,-93.7730394,344.673,4,2022-11-08-12-59-45-767,
/media/phenobot3/Extreme SSD/under-canopy-images/Test3/enviratron/r4/1667933986020652475.jpeg,1667933986.1051424,-179.96913426619636,0.6095540109995706,-14.985586989509741,-10.062,42.01710962666667,-93.77304005666667,344.675,4,2022-11-08-12-59-46-105,
/media/phenobot3/Extreme SSD/under-canopy-images/Test3/enviratron/r4/1667933986354787495.jpeg,1667933986.437491,-179.02610689297705,0.2633960201165222,-15.629910435059157,-9.375,42.017111498333335,-93.77303939,344.673,4,2022-11-08-12-59-46-437,
/media/phenobot3/Extreme SSD/under-canopy-images/Test3/enviratron/r4/1667933986687351188.jpeg,1667933986.7776082,179.4157904965655,-0.05566670534361512,-15.165268887336989,-10.0,42.01711376666667,-93.77303936166666,344.673,4,2022-11-08-12-59-46-777,
/media/phenobot3/Extreme SSD/under-canopy-images/Test3/enviratron/r4/1667933987021129717.jpeg,1667933987.09822,179.80525221438168,-0.12837244703073897,-14.268698350865282,-11.312,42.017116376666664,-93.773040265,344.667,4,2022-11-08-12-59-47-983,
/media/phenobot3/Extreme SSD/under-canopy-images/Test3/enviratron/r4/1667933987355718428.jpeg,1667933987.4455874,179.2755423513135,-0.3347945070152861,-13.557780861804533,-10.0,42.01711868333334,-93.77303917333333,344.668,4,2022-11-08-12-59-47-445,
/media/phenobot3/Extreme SSD/under-canopy-images/Test3/enviratron/r4/1667933987687111939.jpeg,1667933987.7820091,179.36935306603175,-0.03822545901447737,-11.152520811188364,-11.437,42.017120786666666,-93.77303983,344.665,4,2022-11-08-12-59-47-782,
/media/phenobot3/Extreme SSD/under-canopy-images/Test3/enviratron/r4/1667933988018479981.jpeg,1667933988.1166105,179.55377493346816,-0.2594994868370407,-8.509070906776998,-11.312,42.01712349,-93.77303976,344.66,4,2022-11-08-12-59-48-116,
/media/phenobot3/Extreme SSD/under-canopy-images/Test3/enviratron/r4/1667933988353903950.jpeg,1667933988.4388814,-179.04649449238306,-0.2569415966658199,-5.334806529263529,-10.062,42.017126061666666,-93.77303908166667,344.663,4,2022-11-08-12-59-48-438,
/media/phenobot3/Extreme SSD/under-canopy-images/Test3/enviratron/r4/1667933988687238963.jpeg,1667933988.7860415,-179.1428591461275,0.19748112584222027,-4.549644979921072,-9.312,42.01712894833334,-93.77303869333333,344.66,4,2022-11-08-12-59-48-786,
/media/phenobot3/Extreme SSD/under-canopy-images/Test3/enviratron/r4/1667933989020748701.jpeg,1667933989.0984335,-179.00622225609075,-0.5268293683913923,-11.538820374466335,-9.812,42.01713045666666,-93.77303953666667,344.663,4,2022-11-08-12-59-49-985,
/media/phenobot3/Extreme SSD/under-canopy-images/Test3/enviratron/r4/1667933989355049913.jpeg,1667933989.4442842,-178.55779677200445,-0.96463298184153,-13.995727792175405,-8.062,42.01713247,-93.77303872166667,344.67,4,2022-11-08-12-59-49-444,
/media/phenobot3/Extreme SSD/under-canopy-images/Test3/enviratron/r4/1667933989687291324.jpeg,1667933989.7730474,-178.7307840180279,-0.893187359296004,-14.252688660047642,-8.125,42.017135135,-93.77303867666667,344.67,4,2022-11-08-12-59-49-773,
/media/phenobot3/Extreme SSD/under-canopy-images/Test3/enviratron/r4/1667933990020440638.jpeg,1667933990.1110785,-179.5086182725444,-0.9333412234792908,-14.286711333083007,-9.75,42.01713782,-93.77303912166667,344.665,4,2022-11-08-12-59-50-111,
/media/phenobot3/Extreme SSD/under-canopy-images/Test3/enviratron/r4/1667933990353206351.jpeg,1667933990.4380543,-179.98721282547024,0.8956180930195589,-13.657852078168354,-11.062,42.017140751666666,-93.77304045,344.668,4,2022-11-08-12-59-50-438,
/media/phenobot3/Extreme SSD/under-canopy-images/Test3/enviratron/r4/1667933990687379662.jpeg,1667933990.771264,-179.78385738007054,1.2184732758054055,-14.217764562681909,-8.375,42.01714366,-93.77303843,344.672,4,2022-11-08-12-59-50-771,
/media/phenobot3/Extreme SSD/under-canopy-images/Test3/enviratron/r4/1667933991019580644.jpeg,1667933991.1012168,178.6899265783844,1.4986111886455586,-13.6604100395533,-10.75,42.01714646333333,-93.77303972,344.666,4,2022-11-08-12-59-51-101,
/media/phenobot3/Extreme SSD/under-canopy-images/Test3/enviratron/r4/1667933991355049791.jpeg,1667933991.4434652,178.90020887542445,0.3361697884762056,-13.016629070974613,-12.5,42.01714787833333,-93.77304035166667,344.658,4,2022-11-08-12-59-51-443,
/media/phenobot3/Extreme SSD/under-canopy-images/Test3/enviratron/r4/1667933991687109251.jpeg,1667933991.7709196,178.86741868784975,-0.1135669936914931,-13.16224141850881,-10.437,42.01715063166667,-93.7730393,344.655,4,2022-11-08-12-59-51-771,
/media/phenobot3/Extreme SSD/under-canopy-images/Test3/enviratron/r4/1667933992020547007.jpeg,1667933992.110924,179.2010979691437,0.752015415514264,-10.00072207181058,-10.187,42.01715317,-93.773038885,344.655,4,2022-11-08-12-59-52-111,
/media/phenobot3/Extreme SSD/under-canopy-images/Test3/enviratron/r4/1667933992355719697.jpeg,1667933992.4473765,178.6021762097882,0.9926967768183714,-8.951585923888048,-12.25,42.01715568,-93.77304030833334,344.642,4,2022-11-08-12-59-52-447,
/media/phenobot3/Extreme SSD/under-canopy-images/Test3/enviratron/r4/1667933992686926885.jpeg,1667933992.7848208,178.71369322301734,0.9288121880948463,-8.260491100724222,-11.812,42.01715860666667,-93.77304013833333,344.642,4,2022-11-08-12-59-52-784,
/media/phenobot3/Extreme SSD/under-canopy-images/Test3/enviratron/r4/1667933993019739357.jpeg,1667933993.1093357,179.37501835662317,0.47098737886310005,-8.88418368881353,-11.062,42.017160438333335,-93.77304007,344.64,4,2022-11-08-12-59-53-109,
/media/phenobot3/Extreme SSD/under-canopy-images/Test3/enviratron/r4/1667933993354043874.jpeg,1667933993.444804,-179.90823397283768,-0.6302749529884637,-15.637033460517314,-10.5,42.01716202833333,-93.77303997666667,344.641,4,2022-11-08-12-59-53-444,
/media/phenobot3/Extreme SSD/under-canopy-images/Test3/enviratron/r4/1667933993687523382.jpeg,1667933993.7719226,179.32266981174672,-0.8101083050786003,-18.687812998686987,-10.875,42.01716500333333,-93.77304028833333,344.629,4,2022-11-08-12-59-53-772,
/media/phenobot3/Extreme SSD/under-canopy-images/Test3/enviratron/r4/1667933994019443470.jpeg,1667933994.099425,178.0946723507827,-0.42982598878405026,-15.855563090532566,-12.0,42.01716697333333,-93.77304061666666,344.629,4,2022-11-08-12-59-54-995,
/media/phenobot3/Extreme SSD/under-canopy-images/Test3/enviratron/r4/1667933994353851181.jpeg,1667933994.4330711,178.0419320612144,-0.3092350230277305,-10.623473938006972,-11.812,42.01716912166667,-93.77304022,344.638,4,2022-11-08-12-59-54-433,
/media/phenobot3/Extreme SSD/under-canopy-images/Test3/enviratron/r4/1667933994687134209.jpeg,1667933994.7808216,177.99774331002328,-0.4144420338941148,-10.511828625024659,-12.125,42.01717183833333,-93.77304059166667,344.639,4,2022-11-08-12-59-54-780,
/media/phenobot3/Extreme SSD/under-canopy-images/Test3/enviratron/r4/1667933995020574395.jpeg,1667933995.10411,179.22126034123113,-0.8830465726447672,-11.526723291320922,-10.5,42.01717394833334,-93.77303982166667,344.642,4,2022-11-08-12-59-55-104,
/media/phenobot3/Extreme SSD/under-canopy-images/Test3/enviratron/r4/1667933995354605316.jpeg,1667933995.448904,178.013252221573,-0.8826203490087245,-13.098657155474616,-12.437,42.01717598333333,-93.77304060166666,344.641,4,2022-11-08-12-59-55-448,
/media/phenobot3/Extreme SSD/under-canopy-images/Test3/enviratron/r4/1667933995687336878.jpeg,1667933995.775744,178.19804467318218,-0.5081351470972985,-13.36632201484485,-12.625,42.01717895,-93.77304096,344.639,4,2022-11-08-12-59-55-775,
/media/phenobot3/Extreme SSD/under-canopy-images/Test3/enviratron/r4/1667933996020509236.jpeg,1667933996.1004844,178.52506646340848,-0.23898228481563974,-14.016044101098844,-11.562,42.01718120666666,-93.77304025166667,344.644,4,2022-11-08-12-59-56-100,
/media/phenobot3/Extreme SSD/under-canopy-images/Test3/enviratron/r4/1667933996352908806.jpeg,1667933996.4367654,176.9056352793538,0.47383344534744876,-13.707875522813302,-12.0,42.0171837,-93.77304042,344.643,4,2022-11-08-12-59-56-436,
/media/phenobot3/Extreme SSD/under-canopy-images/Test3/enviratron/r4/1667933996687593904.jpeg,1667933996.776076,175.6846971528611,0.422479090653334,-13.693618235586339,-14.812,42.01718646333333,-93.77304201833333,344.633,4,2022-11-08-12-59-56-776,
/media/phenobot3/Extreme SSD/under-canopy-images/Test3/enviratron/r4/1667933997019657223.jpeg,1667933997.102675,176.0834520050507,0.8484635032222227,-12.75328867105213,-15.687,42.017188508333334,-93.773042395,344.623,4,2022-11-08-12-59-57-102,
/media/phenobot3/Extreme SSD/under-canopy-images/Test3/enviratron/r4/1667933997353777643.jpeg,1667933997.4502306,177.05938690397608,0.701443518336241,-9.644114606004994,-11.375,42.017190283333335,-93.77304028166667,344.636,4,2022-11-08-12-59-57-450,
/media/phenobot3/Extreme SSD/under-canopy-images/Test3/enviratron/r4/1667933997687279688.jpeg,1667933997.7731042,177.37652298979683,0.533630275694548,-9.822543327690495,-13.375,42.01719268833333,-93.77304052666666,344.634,4,2022-11-08-12-59-57-773,
/media/phenobot3/Extreme SSD/under-canopy-images/Test3/enviratron/r4/1667933998019945752.jpeg,1667933998.1097302,177.24715293154446,1.0067496709730983,-10.270799660917573,-13.875,42.017195578333336,-93.773041405,344.63,4,2022-11-08-12-59-58-109,
/media/phenobot3/Extreme SSD/under-canopy-images/Test3/enviratron/r4/1667933998353757579.jpeg,1667933998.4394279,176.71633993661527,0.550657482424546,-9.614306596378826,-14.062,42.017197565,-93.77304138166667,344.624,4,2022-11-08-12-59-58-439,
/media/phenobot3/Extreme SSD/under-canopy-images/Test3/enviratron/r4/1667933998687151160.jpeg,1667933998.778831,178.59367380963727,0.29752366617151765,-9.043027730964338,-12.562,42.017199393333335,-93.77304110166666,344.626,4,2022-11-08-12-59-58-778,
/media/phenobot3/Extreme SSD/under-canopy-images/Test3/enviratron/r4/1667933999020163176.jpeg,1667933999.1051266,178.7271481318049,-0.2266438233193119,-8.648045666076865,-11.062,42.01720210166667,-93.7730401,344.629,4,2022-11-08-12-59-59-105,
/media/phenobot3/Extreme SSD/under-canopy-images/Test3/enviratron/r4/1667933999353825664.jpeg,1667933999.4448702,179.62329865203793,-2.32615163667815,-8.133156177803215,-11.812,42.01720368833333,-93.7730407,344.631,4,2022-11-08-12-59-59-444,
/media/phenobot3/Extreme SSD/under-canopy-images/Test3/enviratron/r4/1667933999687242546.jpeg,1667933999.7718017,-179.9554621902467,-0.0465212622404741,-9.583479565766087,-10.187,42.017208026666665,-93.77303990166666,344.627,4,2022-11-08-12-59-59-771,
/media/phenobot3/Extreme SSD/under-canopy-images/Test3/enviratron/r4/1667934000020304679.jpeg,1667934000.114083,-179.46185711869163,-0.10004657499480865,-10.152939528667783,-9.375,42.01720917833333,-93.7730396,344.63,4,2022-11-08-13-00-00-114,
/media/phenobot3/Extreme SSD/under-canopy-images/Test3/enviratron/r4/1667934000354027514.jpeg,1667934000.4343784,-178.553481752525,0.2680108784937124,-10.1373016515979,-10.562,42.017210733333336,-93.77304039833334,344.632,4,2022-11-08-13-00-00-434,
/media/phenobot3/Extreme SSD/under-canopy-images/Test3/enviratron/r4/1667934000687141212.jpeg,1667934000.7782578,-179.83881298218745,1.0658012076809222,-9.923731893951906,-9.875,42.01721448166667,-93.77304017,344.642,4,2022-11-08-13-00-00-778,
/media/phenobot3/Extreme SSD/under-canopy-images/Test3/enviratron/r4/1667934001019321731.jpeg,1667934001.1118858,-179.19145594996726,-0.08638687807535851,-9.310227116155401,-10.562,42.01721561833333,-93.77304033166666,344.627,4,2022-11-08-13-00-01-111,
/media/phenobot3/Extreme SSD/under-canopy-images/Test3/enviratron/r4/1667934001352757527.jpeg,1667934001.4508703,-178.83983642550194,0.33861259925140247,-10.518795096698595,-7.25,42.017217705,-93.77303921333333,344.63,4,2022-11-08-13-00-01-450,
/media/phenobot3/Extreme SSD/under-canopy-images/Test3/enviratron/r4/1667934001687159040.jpeg,1667934001.777145,-179.36330101005314,0.0008446597430560681,-10.544497282905219,-9.937,42.01722031,-93.773039765,344.631,4,2022-11-08-13-00-01-777,
/media/phenobot3/Extreme SSD/under-canopy-images/Test3/enviratron/r4/1667934002019581864.jpeg,1667934002.1032135,-178.49708980936535,0.4095189504864505,-10.844944016549546,-10.187,42.017223361666666,-93.77304051833333,344.633,4,2022-11-08-13-00-02-103,
/media/phenobot3/Extreme SSD/under-canopy-images/Test3/enviratron/r4/1667934002353112257.jpeg,1667934002.432772,-179.181464610286,-0.1729077202234138,-10.885483923204495,-9.312,42.01722540833333,-93.773040015,344.627,4,2022-11-08-13-00-02-432,
/media/phenobot3/Extreme SSD/under-canopy-images/Test3/enviratron/r4/1667934002687031409.jpeg,1667934002.771585,179.49668106488122,-0.3477033063528281,-10.75378657355392,-10.312,42.01722800666667,-93.77304073666667,344.627,4,2022-11-08-13-00-02-771,
/media/phenobot3/Extreme SSD/under-canopy-images/Test3/enviratron/r4/1667934003020329486.jpeg,1667934003.0933292,177.66757161941354,0.025529205150569164,-11.201294981313897,-12.187,42.017229828333335,-93.77304183833333,344.62,4,2022-11-08-13-00-03-934,
/media/phenobot3/Extreme SSD/under-canopy-images/Test3/enviratron/r4/1667934003354271983.jpeg,1667934003.436738,-177.0661069411863,-0.4723081769283685,-9.835431061937337,-7.688,42.01723137333333,-93.77304007333333,344.632,4,2022-11-08-13-00-03-436,
/media/phenobot3/Extreme SSD/under-canopy-images/Test3/enviratron/r4/1667934003686900664.jpeg,1667934003.7777593,-176.30624200053163,-0.028761151264148018,-10.847935475364359,-5.875,42.017235,-93.77303776333333,344.623,4,2022-11-08-13-00-03-777,
/media/phenobot3/Extreme SSD/under-canopy-images/Test3/enviratron/r4/1667934004019520120.jpeg,1667934004.1092424,-176.66079013535256,-0.5430988711862254,-11.79684699549882,-7.563,42.01723733666667,-93.773039495,344.634,4,2022-11-08-13-00-04-109,
/media/phenobot3/Extreme SSD/under-canopy-images/Test3/enviratron/r4/1667934004354177731.jpeg,1667934004.4414809,-177.62503230720768,0.34664424240439995,-13.27455425456109,-6.813,42.017239653333334,-93.773038725,344.629,4,2022-11-08-13-00-04-441,
/media/phenobot3/Extreme SSD/under-canopy-images/Test3/enviratron/r4/1667934004687351611.jpeg,1667934004.7782393,-178.61062643490752,0.32761382163807484,-11.673906056138707,-9.312,42.01724221,-93.77304003333333,344.632,4,2022-11-08-13-00-04-778,
/media/phenobot3/Extreme SSD/under-canopy-images/Test3/enviratron/r4/1667934005020374317.jpeg,1667934005.1046255,-177.38362246275437,-0.21538365393922365,-12.152934569604442,-8.125,42.017244518333335,-93.77303978166667,344.636,4,2022-11-08-13-00-05-104,
/media/phenobot3/Extreme SSD/under-canopy-images/Test3/enviratron/r4/1667934005354076763.jpeg,1667934005.452013,-177.35300755192827,1.2370948526459478,-12.747924428219147,-6.875,42.01724728666667,-93.773038515,344.628,4,2022-11-08-13-00-05-452,
/media/phenobot3/Extreme SSD/under-canopy-images/Test3/enviratron/r4/1667934005687350491.jpeg,1667934005.7732887,-177.15570401915897,0.8467774045385582,-12.900388071781064,-7.938,42.017249836666664,-93.77303946166667,344.622,4,2022-11-08-13-00-05-773,
/media/phenobot3/Extreme SSD/under-canopy-images/Test3/enviratron/r4/1667934006020357315.jpeg,1667934006.1050472,-178.93658782827984,1.0553518275950002,-13.544811916425619,-8.562,42.01725246666667,-93.77303940166667,344.621,4,2022-11-08-13-00-06-105,
/media/phenobot3/Extreme SSD/under-canopy-images/Test3/enviratron/r4/1667934006354407182.jpeg,1667934006.4281049,179.8922040202614,1.4414526191593042,-12.813650214828026,-11.812,42.01725491166667,-93.77304124166666,344.617,4,2022-11-08-13-00-06-428,
/media/phenobot3/Extreme SSD/under-canopy-images/Test3/enviratron/r4/1667934006686902441.jpeg,1667934006.7787266,179.59936874219548,0.5389516016132881,-14.209940667388324,-10.125,42.01725752666667,-93.77304034333334,344.601,4,2022-11-08-13-00-06-778,
/media/phenobot3/Extreme SSD/under-canopy-images/Test3/enviratron/r4/1667934007019634032.jpeg,1667934007.1005561,179.67316046419498,0.9655815981659591,-14.420720380006511,-9.937,42.01725972,-93.773040115,344.606,4,2022-11-08-13-00-07-100,
/media/phenobot3/Extreme SSD/under-canopy-images/Test3/enviratron/r4/1667934007353203482.jpeg,1667934007.4485657,179.4508989183065,0.47911516546049043,-14.995922942779965,-12.062,42.01726200833333,-93.77304090333334,344.604,4,2022-11-08-13-00-07-448,
/media/phenobot3/Extreme SSD/under-canopy-images/Test3/enviratron/r4/1667934007687099961.jpeg,1667934007.768561,179.32522167377707,-0.3709632135682958,-15.06930487031893,-12.5,42.017263918333335,-93.773041725,344.596,4,2022-11-08-13-00-07-768,
/media/phenobot3/Extreme SSD/under-canopy-images/Test3/enviratron/r4/1667934008019157481.jpeg,1667934008.1006074,179.70179320688686,-1.2807975296104925,-12.825875140786978,-11.812,42.01726669,-93.77304081666666,344.606,4,2022-11-08-13-00-08-100,
/media/phenobot3/Extreme SSD/under-canopy-images/Test3/enviratron/r4/1667934008353599779.jpeg,1667934008.4406106,178.89015809460327,-2.0426852625686736,-10.604139711887877,-11.625,42.017268375,-93.77304046333333,344.603,4,2022-11-08-13-00-08-440,
/media/phenobot3/Extreme SSD/under-canopy-images/Test3/enviratron/r4/1667934008686800011.jpeg,1667934008.7777286,179.06372018270545,-1.489910265316672,-8.301884919024321,-12.125,42.01727058,-93.77304068333333,344.609,4,2022-11-08-13-00-08-777,
/media/phenobot3/Extreme SSD/under-canopy-images/Test3/enviratron/r4/1667934009019892102.jpeg,1667934009.0954103,178.6216533440789,-1.0523335698678646,-7.1979343544868675,-11.687,42.017273685,-93.77304057833334,344.614,4,2022-11-08-13-00-09-954,
/media/phenobot3/Extreme SSD/under-canopy-images/Test3/enviratron/r4/1667934009354994002.jpeg,1667934009.4480228,179.36849562125414,-0.8220208321255607,-9.144789086609116,-11.687,42.01727609,-93.77304109333333,344.623,4,2022-11-08-13-00-09-448,
/media/phenobot3/Extreme SSD/under-canopy-images/Test3/enviratron/r4/1667934009687103899.jpeg,1667934009.7706604,179.3779477065764,-0.8037871769044926,-10.323947347889721,-10.937,42.017278475,-93.77304055666667,344.63,4,2022-11-08-13-00-09-770,
/media/phenobot3/Extreme SSD/under-canopy-images/Test3/enviratron/r4/1667934010020190503.jpeg,1667934010.1034656,-179.72123570981168,-1.2183135186405787,-10.630414473676144,-11.312,42.01728102,-93.77304092,344.628,4,2022-11-08-13-00-10-103,
/media/phenobot3/Extreme SSD/under-canopy-images/Test3/enviratron/r4/1667934010353314956.jpeg,1667934010.4289825,179.98102867492787,-1.1729500811466274,-10.806337812645044,-10.687,42.017283035,-93.77304076,344.628,4,2022-11-08-13-00-10-429,
/media/phenobot3/Extreme SSD/under-canopy-images/Test3/enviratron/r4/1667934010687565649.jpeg,1667934010.7911813,179.95766046862695,-0.31162336785317746,-11.03859840204033,-11.312,42.017286383333335,-93.773041325,344.629,4,2022-11-08-13-00-10-791,
/media/phenobot3/Extreme SSD/under-canopy-images/Test3/enviratron/r4/1667934011020075930.jpeg,1667934011.1073904,-178.22079303423217,0.4761814595800661,-12.034832445037397,-9.0,42.017288586666666,-93.77304014666667,344.636,4,2022-11-08-13-00-11-107,
/media/phenobot3/Extreme SSD/under-canopy-images/Test3/enviratron/r4/1667934011356574202.jpeg,1667934011.4479392,-179.5668651623876,1.4175592043285266,-12.728955623514768,-8.687,42.01729120666667,-93.77303949833333,344.637,4,2022-11-08-13-00-11-448,
/media/phenobot3/Extreme SSD/under-canopy-images/Test3/enviratron/r4/1667934011687627658.jpeg,1667934011.773086,179.18119454287893,0.936387414597471,-12.203765984020261,-13.375,42.01729365,-93.77304201833333,344.627,4,2022-11-08-13-00-11-773,
/media/phenobot3/Extreme SSD/under-canopy-images/Test3/enviratron/r4/1667934012020364519.jpeg,1667934012.110069,-179.22739190921436,1.053483243553564,-13.904680078847697,-9.187,42.01729675833333,-93.77304021833334,344.631,4,2022-11-08-13-00-12-110,
/media/phenobot3/Extreme SSD/under-canopy-images/Test3/enviratron/r4/1667934012353781664.jpeg,1667934012.440849,179.93236401976088,-0.10505929205594032,-14.59990223152649,-10.375,42.01729820833334,-93.773040435,344.628,4,2022-11-08-13-00-12-440,
/media/phenobot3/Extreme SSD/under-canopy-images/Test3/enviratron/r4/1667934012686880112.jpeg,1667934012.7803476,179.148912370763,-0.9938984695163658,-15.253319189595546,-11.75,42.017300363333334,-93.773041195,344.621,4,2022-11-08-13-00-12-780,
/media/phenobot3/Extreme SSD/under-canopy-images/Test3/enviratron/r4/1667934013019750649.jpeg,1667934013.1030982,178.54005422532398,-0.5319530415963228,-13.229431549198862,-13.125,42.01730360166667,-93.773042045,344.626,4,2022-11-08-13-00-13-103,
/media/phenobot3/Extreme SSD/under-canopy-images/Test3/enviratron/r4/1667934013353181525.jpeg,1667934013.4455047,178.967643758176,-1.4551984626117946,-11.912783105052757,-11.125,42.01730513333333,-93.77304065,344.629,4,2022-11-08-13-00-13-445,
/media/phenobot3/Extreme SSD/under-canopy-images/Test3/enviratron/r4/1667934013688009437.jpeg,1667934013.7689888,178.68971964197934,-0.639190819603116,-11.658995050768858,-13.125,42.017307663333334,-93.77304166666667,344.628,4,2022-11-08-13-00-13-769,
/media/phenobot3/Extreme SSD/under-canopy-images/Test3/enviratron/r4/1667934014019584576.jpeg,1667934014.1084805,179.3340364277329,-0.8152924120218705,-11.00230417733765,-12.125,42.01731058,-93.77304124166666,344.634,4,2022-11-08-13-00-14-108,
/media/phenobot3/Extreme SSD/under-canopy-images/Test3/enviratron/r4/1667934014355199335.jpeg,1667934014.4393723,177.66560392073745,-0.45275980633760055,-10.447490347985022,-12.812,42.017312725,-93.77304151,344.628,4,2022-11-08-13-00-14-439,
/media/phenobot3/Extreme SSD/under-canopy-images/Test3/enviratron/r4/1667934014687315457.jpeg,1667934014.7817662,177.77138084332702,-0.5601990346313682,-10.447825279231843,-12.875,42.01731566,-93.77304162166666,344.634,4,2022-11-08-13-00-14-781,
/media/phenobot3/Extreme SSD/under-canopy-images/Test3/enviratron/r4/1667934015021162920.jpeg,1667934015.104693,178.26469743431724,-0.16451026606949018,-10.542308382443258,-13.062,42.017318161666665,-93.77304185333334,344.634,4,2022-11-08-13-00-15-104,
/media/phenobot3/Extreme SSD/under-canopy-images/Test3/enviratron/r4/1667934015353480669.jpeg,1667934015.4457588,179.02629131288336,-0.19350214572088578,-9.835200464327738,-13.25,42.017320445,-93.77304193333333,344.639,4,2022-11-08-13-00-15-445,
/media/phenobot3/Extreme SSD/under-canopy-images/Test3/enviratron/r4/1667934015687108068.jpeg,1667934015.778941,178.10718964152167,-1.216013384695088,-8.911718368825607,-12.562,42.01732205333333,-93.77304160166666,344.639,4,2022-11-08-13-00-15-779,
/media/phenobot3/Extreme SSD/under-canopy-images/Test3/enviratron/r4/1667934016019590985.jpeg,1667934016.1183825,179.16559561902972,-1.674947115132497,-7.31146822195894,-11.937,42.017324808333335,-93.77304126833333,344.645,4,2022-11-08-13-00-16-118,
/media/phenobot3/Extreme SSD/under-canopy-images/Test3/enviratron/r4/1667934016353638861.jpeg,1667934016.4388523,-178.50093217243676,-1.7019761246168894,-5.036815715994042,-10.937,42.01732667666667,-93.77304121166667,344.645,4,2022-11-08-13-00-16-438,
/media/phenobot3/Extreme SSD/under-canopy-images/Test3/enviratron/r4/1667934016687227862.jpeg,1667934016.77789,-178.3961573362756,-0.9696593608667138,-5.638243898575693,-7.125,42.01733017666667,-93.77303902666667,344.654,4,2022-11-08-13-00-16-777,
/media/phenobot3/Extreme SSD/under-canopy-images/Test3/enviratron/r4/1667934017019874314.jpeg,1667934017.107852,-177.11389684438953,-1.0864748445677068,-9.128826735011137,-8.25,42.017332141666664,-93.77303998666666,344.66,4,2022-11-08-13-00-17-107,
/media/phenobot3/Extreme SSD/under-canopy-images/Test3/enviratron/r4/1667934017353805000.jpeg,1667934017.4471838,-175.96298676247036,-0.37237195447720794,-9.469153078751564,-5.938,42.01733471,-93.773039155,344.67,4,2022-11-08-13-00-17-447,
/media/phenobot3/Extreme SSD/under-canopy-images/Test3/enviratron/r4/1667934017687436420.jpeg,1667934017.766918,-177.04121749267185,-0.004586103358513281,-8.951181574540518,-6.938,42.01733728833333,-93.77303926,344.667,4,2022-11-08-13-00-17-767,
/media/phenobot3/Extreme SSD/under-canopy-images/Test3/enviratron/r4/1667934018019832359.jpeg,1667934018.1171286,-177.14129421799387,0.20442033127664677,-10.479448888968964,-7.938,42.017340366666666,-93.77304007333333,344.671,4,2022-11-08-13-00-18-117,
/media/phenobot3/Extreme SSD/under-canopy-images/Test3/enviratron/r4/1667934018353654509.jpeg,1667934018.4325473,-177.90870934676107,-0.12325956004331692,-10.979847313913133,-7.688,42.01734217333333,-93.77303993166667,344.675,4,2022-11-08-13-00-18-432,
/media/phenobot3/Extreme SSD/under-canopy-images/Test3/enviratron/r4/1667934018687212354.jpeg,1667934018.787429,-177.38302730848554,0.3169023328695256,-11.654688611889386,-6.688,42.017344556666664,-93.77303993833333,344.67,4,2022-11-08-13-00-18-787,
/media/phenobot3/Extreme SSD/under-canopy-images/Test3/enviratron/r4/1667934019019981001.jpeg,1667934019.1086946,-178.67154844002405,0.0605560125647205,-11.613913739056715,-10.125,42.017347605,-93.77304144833333,344.671,4,2022-11-08-13-00-19-108,
/media/phenobot3/Extreme SSD/under-canopy-images/Test3/enviratron/r4/1667934019353603539.jpeg,1667934019.4397473,-178.4753502630964,-0.12367323230048201,-11.919685758704958,-9.812,42.01734923,-93.77304135166666,344.669,4,2022-11-08-13-00-19-439,
/media/phenobot3/Extreme SSD/under-canopy-images/Test3/enviratron/r4/1667934019687338420.jpeg,1667934019.7729805,-178.54954574031618,0.04354024715766407,-12.93328566978848,-10.375,42.01735175333334,-93.77304111666666,344.675,4,2022-11-08-13-00-19-773,
/media/phenobot3/Extreme SSD/under-canopy-images/Test3/enviratron/r4/1667934020021141175.jpeg,1667934020.1165712,-178.2743178236199,-0.29203867669608746,-13.248004623440357,-9.875,42.01735446666667,-93.77304122666666,344.667,4,2022-11-08-13-00-20-116,
/media/phenobot3/Extreme SSD/under-canopy-images/Test3/enviratron/r4/1667934020354162322.jpeg,1667934020.4439769,-178.57761957240595,-0.5655944743261737,-13.965805115537993,-9.875,42.01735675333333,-93.77304124833333,344.674,4,2022-11-08-13-00-20-444,
/media/phenobot3/Extreme SSD/under-canopy-images/Test3/enviratron/r4/1667934020687395696.jpeg,1667934020.7788005,-178.1508138476828,-0.582662905955023,-14.236357816350624,-9.687,42.01735968333333,-93.77304090333334,344.674,4,2022-11-08-13-00-20-778,
/media/phenobot3/Extreme SSD/under-canopy-images/Test3/enviratron/r4/1667934021020196491.jpeg,1667934021.1030986,-179.57128391701556,-0.7340765117741792,-14.554559911020647,-10.875,42.01736192166667,-93.77304137166666,344.675,4,2022-11-08-13-00-21-103,
/media/phenobot3/Extreme SSD/under-canopy-images/Test3/enviratron/r4/1667934021353889031.jpeg,1667934021.4491022,-178.84244638071982,-0.6817182554401608,-14.090286398496536,-10.437,42.01736399833333,-93.77304104333334,344.677,4,2022-11-08-13-00-21-449,
/media/phenobot3/Extreme SSD/under-canopy-images/Test3/enviratron/r4/1667934021687236341.jpeg,1667934021.7746747,179.58818671442003,-0.5635641450951696,-13.920542877906916,-10.5,42.0173668,-93.773040855,344.688,4,2022-11-08-13-00-21-774,
/media/phenobot3/Extreme SSD/under-canopy-images/Test3/enviratron/r4/1667934022020290845.jpeg,1667934022.1092522,179.68568475377432,-1.236714918010802,-10.415228724523917,-11.75,42.017369108333334,-93.773041505,344.685,4,2022-11-08-13-00-22-109,
/media/phenobot3/Extreme SSD/under-canopy-images/Test3/enviratron/r4/1667934022353897404.jpeg,1667934022.4304254,179.10610309628467,-1.2233537877925913,-8.163807743767364,-12.812,42.01737123833333,-93.773041975,344.685,4,2022-11-08-13-00-22-430,
/media/phenobot3/Extreme SSD/under-canopy-images/Test3/enviratron/r4/1667934022686609100.jpeg,1667934022.7716024,179.9083522082777,-1.3891824716643084,-9.372570781008928,-11.25,42.017374185,-93.77304124,344.694,4,2022-11-08-13-00-22-771,
/media/phenobot3/Extreme SSD/under-canopy-images/Test3/enviratron/r4/1667934023020033225.jpeg,1667934023.096425,-179.97913019230572,-0.7970112136722307,-11.078415464225039,-12.25,42.017376508333335,-93.77304191666667,344.694,4,2022-11-08-13-00-23-965,
/media/phenobot3/Extreme SSD/under-canopy-images/Test3/enviratron/r4/1667934023352059697.jpeg,1667934023.439657,178.25677530273086,-0.5680152490303643,-11.733948388454882,-10.812,42.01737861666667,-93.77304102166667,344.7,4,2022-11-08-13-00-23-439,
/media/phenobot3/Extreme SSD/under-canopy-images/Test3/enviratron/r4/1667934023687379843.jpeg,1667934023.7655747,179.47456740224933,-0.029013372057622947,-11.859151933218945,-13.187,42.017381325,-93.77304298166666,344.697,4,2022-11-08-13-00-23-765,
/media/phenobot3/Extreme SSD/under-canopy-images/Test3/enviratron/r4/1667934024020673087.jpeg,1667934024.1134694,179.78640944272883,0.15073397655484028,-12.121131622391726,-10.937,42.017384495,-93.77304127666666,344.707,4,2022-11-08-13-00-24-113,
/media/phenobot3/Extreme SSD/under-canopy-images/Test3/enviratron/r4/1667934024353878829.jpeg,1667934024.437266,179.47630520728273,0.2848658370830516,-13.68728825714703,-11.75,42.01738622333333,-93.77304175,344.697,4,2022-11-08-13-00-24-437,
/media/phenobot3/Extreme SSD/under-canopy-images/Test3/enviratron/r4/1667934024687296587.jpeg,1667934024.7839997,179.88248932519016,0.359339452482466,-13.977677104511438,-11.0,42.01738950166666,-93.77304113333334,344.701,4,2022-11-08-13-00-24-784,
/media/phenobot3/Extreme SSD/under-canopy-images/Test3/enviratron/r4/1667934025020833888.jpeg,1667934025.104467,179.43003486584047,0.36059462361250566,-12.396031233365434,-11.125,42.01739177166667,-93.773041,344.703,4,2022-11-08-13-00-25-104,
/media/phenobot3/Extreme SSD/under-canopy-images/Test3/enviratron/r4/1667934025353979660.jpeg,1667934025.4449208,178.6753274533063,0.2848135946470385,-10.515327951400957,-13.5,42.01739365833333,-93.773042215,344.695,4,2022-11-08-13-00-25-445,
